callback({"markets":[{"id":368341,"name":"mungombe","country":"cd","lat":-6.583333,"lon":21.166667},{"id":3167863,"name":"nzambi","country":"zr","lat":-6.7,"lon":21.0333333},{"id":358530,"name":"kabelekese","country":"cd","lat":-6.516667,"lon":21.283333},{"id":110001,"name":"caluembe","country":"ao","lat":-7.416667,"lon":20.55},{"id":3169523,"name":"shamuta","country":"zr","lat":-7.0166667,"lon":21.0833333},{"id":126332,"name":"toca","country":"ao","lat":-7.416504,"lon":21.162021},{"id":3165424,"name":"muanamuyeyi","country":"zr","lat":-6.7666667,"lon":20.7333333},{"id":117273,"name":"luembe","country":"ao","lat":-7.316667,"lon":21.183333},{"id":114298,"name":"culipitchia","country":"ao","lat":-7.4314,"lon":20.643595},{"id":113162,"name":"chikimeca","country":"ao","lat":-7.483333,"lon":21.4},{"id":3166078,"name":"mungombe","country":"zr","lat":-6.5833333,"lon":21.1666667},{"id":3158509,"name":"katopa","country":"zr","lat":-7.0333333,"lon":20.8666667},{"id":371689,"name":"shakandala","country":"cd","lat":-7.2,"lon":20.9},{"id":3170825,"name":"tshisuaka","country":"zr","lat":-7.0166667,"lon":21.2333333},{"id":119773,"name":"musumadi","country":"ao","lat":-7.45,"lon":20.733333},{"id":358800,"name":"kadima","country":"cd","lat":-6.966667,"lon":21.033333},{"id":109641,"name":"caiquele","country":"ao","lat":-7.454042,"lon":21.299557},{"id":371687,"name":"shakambe","country":"cd","lat":-6.666667,"lon":20.566667},{"id":119256,"name":"mucumbo","country":"ao","lat":-7.416667,"lon":21.15},{"id":111246,"name":"capala","country":"ao","lat":-7.48382,"lon":21.382811},{"id":3158613,"name":"kavuka","country":"zr","lat":-6.7,"lon":20.8333333},{"id":373069,"name":"tshisanda","country":"cd","lat":-6.516667,"lon":21.083333},{"id":368870,"name":"mwakahangu","country":"cd","lat":-7.266667,"lon":20.833333},{"id":369633,"name":"ngombe","country":"cd","lat":-6.583333,"lon":20.7},{"id":367669,"name":"muakangolo","country":"cd","lat":-7.133333,"lon":20.75},{"id":109067,"name":"cabuaquesse","country":"ao","lat":-7.45291,"lon":21.289119},{"id":3162252,"name":"lubami","country":"zr","lat":-7.1333333,"lon":20.9333333},{"id":3169595,"name":"shawamba","country":"zr","lat":-6.7666667,"lon":21.0333333},{"id":3170824,"name":"tshisuabantu","country":"zr","lat":-6.9166667,"lon":21.2833333},{"id":3161548,"name":"leta","country":"zr","lat":-6.7833333,"lon":21.2},{"id":110230,"name":"camaquenzo","country":"ao","lat":-7.39111,"lon":20.830522},{"id":109971,"name":"caluanda","country":"ao","lat":-7.464532,"lon":21.290577},{"id":359183,"name":"kalamba-kabuadi","country":"cd","lat":-6.683333,"lon":21.45},{"id":117924,"name":"mandange","country":"ao","lat":-7.398303,"lon":20.866721},{"id":3157429,"name":"kamonia","country":"zr","lat":-6.8666667,"lon":20.9333333},{"id":371786,"name":"shamuta","country":"cd","lat":-7.016667,"lon":21.083333},{"id":111202,"name":"canzelela","country":"ao","lat":-7.233333,"lon":20.533333},{"id":360884,"name":"kavumbu","country":"cd","lat":-6.733333,"lon":20.85},{"id":367666,"name":"muadiala","country":"cd","lat":-7.216667,"lon":21.2},{"id":372855,"name":"tshikangu","country":"cd","lat":-6.95,"lon":21.266667},{"id":3157741,"name":"kanku-ndambu","country":"zr","lat":-6.8833333,"lon":21.3},{"id":114844,"name":"dumba","country":"ao","lat":-7.416667,"lon":21.033333},{"id":3169558,"name":"shanuma","country":"zr","lat":-6.8,"lon":20.8833333},{"id":368308,"name":"mundeke","country":"cd","lat":-6.633333,"lon":20.5},{"id":3169578,"name":"shatshamba","country":"zr","lat":-6.7166667,"lon":20.65},{"id":3170446,"name":"tshembe","country":"zr","lat":-6.8833333,"lon":21.2166667},{"id":3169506,"name":"shamukumbi","country":"zr","lat":-6.9,"lon":20.9666667},{"id":3162281,"name":"lubemba","country":"zr","lat":-6.5333333,"lon":21.3333333},{"id":118211,"name":"maucambuia","country":"ao","lat":-7.395074,"lon":20.925009},{"id":3170515,"name":"tshibuaka","country":"zr","lat":-7.1833333,"lon":21.1166667},{"id":116947,"name":"loloige","country":"ao","lat":-7.419857,"lon":20.784667},{"id":371673,"name":"shakabinga","country":"cd","lat":-6.666667,"lon":20.6},{"id":364515,"name":"lubami","country":"cd","lat":-7.133333,"lon":20.933333},{"id":3158907,"name":"keyetshi","country":"zr","lat":-7.1,"lon":20.8833333},{"id":371701,"name":"shakawa","country":"cd","lat":-6.666667,"lon":20.9},{"id":3170592,"name":"tshikangu","country":"zr","lat":-6.95,"lon":21.2666667},{"id":110719,"name":"camunguenhe","country":"ao","lat":-7.49882,"lon":20.893521},{"id":113659,"name":"chissundo","country":"ao","lat":-7.35,"lon":21.116667},{"id":368033,"name":"mukunga","country":"cd","lat":-6.566667,"lon":21.4},{"id":367679,"name":"muamba-mulolo","country":"cd","lat":-6.566667,"lon":21.3},{"id":371799,"name":"shandala","country":"cd","lat":-6.7,"lon":20.583333},{"id":112638,"name":"cazondo","country":"ao","lat":-7.383333,"lon":20.9},{"id":352795,"name":"bamuele","country":"cd","lat":-6.583333,"lon":21.1},{"id":125679,"name":"tchamupoia","country":"ao","lat":-7.401258,"lon":21.222755},{"id":368816,"name":"muyombo","country":"cd","lat":-6.816667,"lon":21.216667},{"id":3170244,"name":"tobongo","country":"zr","lat":-6.7166667,"lon":21.4833333},{"id":367825,"name":"muimba","country":"cd","lat":-7.15,"lon":21.233333},{"id":114195,"name":"cuba","country":"ao","lat":-7.397001,"lon":20.944165},{"id":363811,"name":"leta","country":"cd","lat":-6.783333,"lon":21.2},{"id":371790,"name":"shamuyaya","country":"cd","lat":-6.983333,"lon":21.25},{"id":125664,"name":"tchambalonda","country":"ao","lat":-7.498604,"lon":21.295455},{"id":117815,"name":"malambo","country":"ao","lat":-7.498054,"lon":21.46729},{"id":3169440,"name":"shakayanda","country":"zr","lat":-6.95,"lon":21.3666667},{"id":372874,"name":"tshikoka","country":"cd","lat":-6.5,"lon":21.3},{"id":3169527,"name":"shamuyaya","country":"zr","lat":-6.9833333,"lon":21.25},{"id":119064,"name":"muatchissua","country":"ao","lat":-7.446378,"lon":20.618736},{"id":373046,"name":"tshionji","country":"cd","lat":-6.7,"lon":20.566667},{"id":124572,"name":"samulongo","country":"ao","lat":-7.411926,"lon":21.330903},{"id":3169514,"name":"shamupelete","country":"zr","lat":-7.2333333,"lon":21.25},{"id":372894,"name":"tshikunji","country":"cd","lat":-7.066667,"lon":21.216667},{"id":371665,"name":"shaibanzu","country":"cd","lat":-7.233333,"lon":20.683333},{"id":111437,"name":"capoxa","country":"ao","lat":-7.408172,"lon":20.84063},{"id":372690,"name":"tshanika","country":"cd","lat":-7.116667,"lon":20.916667},{"id":371841,"name":"shatshamba","country":"cd","lat":-6.716667,"lon":20.65},{"id":359605,"name":"kambonga","country":"cd","lat":-7.116667,"lon":20.833333},{"id":371779,"name":"shamusema","country":"cd","lat":-6.533333,"lon":20.783333},{"id":3169855,"name":"suana banuenu","country":"zr","lat":-6.65,"lon":21.0333333},{"id":119645,"name":"mupula","country":"ao","lat":-7.4,"lon":20.916667},{"id":359425,"name":"kalumbu","country":"cd","lat":-6.716667,"lon":21.3},{"id":112855,"name":"charissoca","country":"ao","lat":-7.483333,"lon":20.733333},{"id":3167049,"name":"nashidi","country":"zr","lat":-7.0166667,"lon":20.9833333},{"id":364980,"name":"lumbongo","country":"cd","lat":-6.6,"lon":20.883333},{"id":124293,"name":"samacaca","country":"ao","lat":-7.414851,"lon":20.809424},{"id":372739,"name":"tshibaka","country":"cd","lat":-6.533333,"lon":20.833333},{"id":355645,"name":"bumbakadiata","country":"cd","lat":-6.983333,"lon":21.15},{"id":368131,"name":"mulenda","country":"cd","lat":-6.8,"lon":21.216667},{"id":115380,"name":"fuli terceiro","country":"ao","lat":-7.351826,"lon":21.207256},{"id":3170516,"name":"tshibue","country":"zr","lat":-6.6,"lon":21.4666667},{"id":371864,"name":"shawututa","country":"cd","lat":-7.033333,"lon":21.4},{"id":119976,"name":"naxili","country":"ao","lat":-7.360751,"lon":20.798224},{"id":3169438,"name":"shakawa","country":"zr","lat":-6.6666667,"lon":20.9},{"id":3169423,"name":"shakalunga","country":"zr","lat":-6.6666667,"lon":20.6},{"id":369804,"name":"nikisa","country":"cd","lat":-7.083333,"lon":20.833333},{"id":109375,"name":"caenza","country":"ao","lat":-7.437552,"lon":21.379158},{"id":371756,"name":"shamubelete","country":"cd","lat":-7.233333,"lon":21.25},{"id":109021,"name":"cabinza","country":"ao","lat":-7.375158,"lon":21.154486},{"id":3169601,"name":"shawututa","country":"zr","lat":-7.0333333,"lon":21.4},{"id":372978,"name":"tshimota","country":"cd","lat":-7.016667,"lon":20.95},{"id":361043,"name":"keba","country":"cd","lat":-7.216667,"lon":21.216667},{"id":359731,"name":"kamuanga","country":"cd","lat":-6.7,"lon":21.133333},{"id":3156733,"name":"kajikula","country":"zr","lat":-6.6333333,"lon":20.65},{"id":3170427,"name":"tshanika","country":"zr","lat":-7.1166667,"lon":20.9166667},{"id":3169494,"name":"shamubuabua","country":"zr","lat":-6.8333333,"lon":21.2166667},{"id":3150533,"name":"bamuele","country":"zr","lat":-6.5833333,"lon":21.1},{"id":3157468,"name":"kamuanga","country":"zr","lat":-6.7,"lon":21.1333333},{"id":113786,"name":"chivanga","country":"ao","lat":-7.374634,"lon":21.245348},{"id":3165868,"name":"mulenda","country":"zr","lat":-6.8,"lon":21.2166667},{"id":358622,"name":"kabitshiye","country":"cd","lat":-7.116667,"lon":20.733333},{"id":3156537,"name":"kadima","country":"zr","lat":-6.9666667,"lon":21.0333333},{"id":3169583,"name":"shatshikuku","country":"zr","lat":-7.1333333,"lon":20.8333333},{"id":119021,"name":"muaquesse","country":"ao","lat":-7.397968,"lon":21.3443},{"id":373002,"name":"tshindjanju","country":"cd","lat":-6.6,"lon":20.833333},{"id":119819,"name":"mutongo","country":"ao","lat":-7.379295,"lon":20.819043},{"id":119179,"name":"mucologe","country":"ao","lat":-7.461395,"lon":20.886498},{"id":371672,"name":"shakabanga","country":"cd","lat":-6.866667,"lon":20.966667},{"id":360010,"name":"kanokena","country":"cd","lat":-7.1,"lon":21.483333},{"id":113112,"name":"chidece","country":"ao","lat":-7.466667,"lon":21.15},{"id":3164041,"name":"mateamfu","country":"zr","lat":-6.5833333,"lon":21.1833333},{"id":3169409,"name":"shakabanga","country":"zr","lat":-6.8666667,"lon":20.9666667},{"id":367950,"name":"mukoko","country":"cd","lat":-6.65,"lon":21.466667},{"id":3170768,"name":"tshinota","country":"zr","lat":-7.0166667,"lon":20.95},{"id":119587,"name":"munguanha segundo","country":"ao","lat":-7.475768,"lon":21.248767},{"id":3156267,"name":"kabelekese","country":"zr","lat":-6.5166667,"lon":21.2833333},{"id":3169424,"name":"shakambe","country":"zr","lat":-6.6666667,"lon":20.5666667},{"id":3170705,"name":"tshimbuku","country":"zr","lat":-6.5166667,"lon":21.0333333},{"id":3169432,"name":"shakash","country":"zr","lat":-6.7166667,"lon":20.7166667},{"id":3169597,"name":"shawata","country":"zr","lat":-6.6666667,"lon":20.8333333},{"id":3153383,"name":"bumbakadiata","country":"zr","lat":-6.9833333,"lon":21.15},{"id":117393,"name":"lumua","country":"ao","lat":-7.432715,"lon":20.523738},{"id":3170806,"name":"tshisanda","country":"zr","lat":-6.5166667,"lon":21.0833333},{"id":365493,"name":"mai-munene","country":"cd","lat":-6.533333,"lon":20.95},{"id":3170465,"name":"tshiamuda","country":"zr","lat":-7.25,"lon":21.3666667},{"id":3164062,"name":"matetela","country":"zr","lat":-7.0166667,"lon":21.3833333},{"id":3166553,"name":"muyombo","country":"zr","lat":-6.8166667,"lon":21.2166667},{"id":3162852,"name":"lupupa","country":"zr","lat":-6.7,"lon":21.3333333},{"id":3167370,"name":"ngombe","country":"zr","lat":-6.5833333,"lon":20.7},{"id":372968,"name":"tshimbuku","country":"cd","lat":-6.516667,"lon":21.033333},{"id":366325,"name":"matetela","country":"cd","lat":-7.016667,"lon":21.383333},{"id":125262,"name":"shikapa","country":"ao","lat":-7.3,"lon":20.533333},{"id":3169402,"name":"shaibanzu","country":"zr","lat":-7.2333333,"lon":20.6833333},{"id":124031,"name":"sacavula","country":"ao","lat":-7.359319,"lon":20.859524},{"id":363767,"name":"lemba","country":"cd","lat":-6.833333,"lon":21.033333},{"id":119020,"name":"muapulo","country":"ao","lat":-7.41152,"lon":20.99325},{"id":3169573,"name":"shatambi","country":"zr","lat":-7.1666667,"lon":21.0166667},{"id":367687,"name":"muanamuyeyi","country":"cd","lat":-6.766667,"lon":20.733333},{"id":110250,"name":"camatundo","country":"ao","lat":-7.363303,"lon":20.819486},{"id":3170783,"name":"tshionji","country":"zr","lat":-6.7,"lon":20.5666667},{"id":360087,"name":"kanzoko","country":"cd","lat":-6.916667,"lon":21.333333},{"id":126048,"name":"tchissanda","country":"ao","lat":-7.329689,"lon":20.852406},{"id":3169427,"name":"shakangamba","country":"zr","lat":-6.9666667,"lon":20.7666667},{"id":110849,"name":"candjamba","country":"ao","lat":-7.393667,"lon":20.900516},{"id":370126,"name":"nzambi","country":"cd","lat":-6.7,"lon":21.033333},{"id":3165687,"name":"mukoko","country":"zr","lat":-6.65,"lon":21.4666667},{"id":3156920,"name":"kalamba-kabuadi","country":"zr","lat":-6.6833333,"lon":21.45},{"id":126070,"name":"tchitato","country":"ao","lat":-7.34469,"lon":20.820081},{"id":3153445,"name":"bunia-lumpungu","country":"zr","lat":-6.5666667,"lon":20.8666667},{"id":371769,"name":"shamukumbi","country":"cd","lat":-6.9,"lon":20.966667},{"id":3157342,"name":"kambonga","country":"zr","lat":-7.1166667,"lon":20.8333333},{"id":3154935,"name":"fuamba","country":"zr","lat":-6.75,"lon":21.2},{"id":124084,"name":"sacossasso","country":"ao","lat":-7.456373,"lon":20.782397},{"id":372778,"name":"tshibuaka","country":"cd","lat":-7.183333,"lon":21.116667},{"id":3167541,"name":"nikisa","country":"zr","lat":-7.0833333,"lon":20.8333333},{"id":126503,"name":"txibaca","country":"ao","lat":-7.483333,"lon":21.016667},{"id":116729,"name":"lasalo","country":"ao","lat":-7.424408,"lon":20.761994},{"id":360567,"name":"kasosha","country":"cd","lat":-7.166667,"lon":20.9},{"id":367989,"name":"mukuadiambo","country":"cd","lat":-6.65,"lon":20.983333},{"id":113685,"name":"chitato","country":"ao","lat":-7.3,"lon":20.733333},{"id":3162723,"name":"lumbungu","country":"zr","lat":-6.6,"lon":20.8833333},{"id":3169460,"name":"shamabango","country":"zr","lat":-7.2166667,"lon":21.2333333},{"id":119544,"name":"mundembele primeiro","country":"ao","lat":-7.489173,"lon":20.766568},{"id":112897,"name":"che","country":"ao","lat":-7.363987,"lon":20.84443},{"id":113856,"name":"chuponda","country":"ao","lat":-7.432684,"lon":21.359627},{"id":117887,"name":"mambalunda","country":"ao","lat":-7.380162,"lon":21.196988},{"id":126422,"name":"tseinda","country":"ao","lat":-7.38928,"lon":21.207645},{"id":371761,"name":"shamufuka","country":"cd","lat":-6.7,"lon":20.833333},{"id":371695,"name":"shakash","country":"cd","lat":-6.716667,"lon":20.716667},{"id":3150918,"name":"bataillon","country":"zr","lat":-7.0166667,"lon":20.8166667},{"id":364544,"name":"lubemba","country":"cd","lat":-6.533333,"lon":21.333333},{"id":3165726,"name":"mukuadiambo","country":"zr","lat":-6.65,"lon":20.9833333},{"id":364612,"name":"lubudie","country":"cd","lat":-6.85,"lon":21.3},{"id":109105,"name":"cacanda","country":"ao","lat":-7.383987,"lon":20.797934},{"id":373087,"name":"tshisuabantu","country":"cd","lat":-6.916667,"lon":21.283333},{"id":361170,"name":"keyetshi","country":"cd","lat":-7.1,"lon":20.883333},{"id":115347,"name":"fortuna","country":"ao","lat":-7.318367,"lon":20.819592},{"id":3158304,"name":"kasosha","country":"zr","lat":-7.1666667,"lon":20.9},{"id":3156477,"name":"kabundula","country":"zr","lat":-6.8333333,"lon":20.9},{"id":3169516,"name":"shamusema","country":"zr","lat":-6.5333333,"lon":20.7833333},{"id":360004,"name":"kanku-ndambu","country":"cd","lat":-6.883333,"lon":21.3},{"id":115369,"name":"fucauma","country":"ao","lat":-7.376022,"lon":21.194068},{"id":367596,"name":"mpata","country":"cd","lat":-7.25,"lon":21.416667},{"id":353180,"name":"bataillon","country":"cd","lat":-7.016667,"lon":20.816667},{"id":371722,"name":"shamabanga","country":"cd","lat":-7.216667,"lon":21.233333},{"id":124587,"name":"samunhinga","country":"ao","lat":-7.387872,"lon":20.789656},{"id":110039,"name":"calumbia","country":"ao","lat":-7.389459,"lon":21.136087},{"id":119586,"name":"munguanha primeiro","country":"ao","lat":-7.452101,"lon":21.231839},{"id":359694,"name":"kamonitulu","country":"cd","lat":-7.15,"lon":21.483333},{"id":364475,"name":"luamuela","country":"cd","lat":-6.616667,"lon":21.016667},{"id":373088,"name":"tshisuaka","country":"cd","lat":-7.016667,"lon":21.233333},{"id":111512,"name":"caquenha","country":"ao","lat":-7.42,"lon":21.499047},{"id":359692,"name":"kamonia","country":"cd","lat":-6.866667,"lon":20.933333},{"id":125918,"name":"tchina","country":"ao","lat":-7.495521,"lon":21.480308},{"id":3169511,"name":"shamungamba","country":"zr","lat":-6.8,"lon":20.8166667},{"id":371836,"name":"shatambi","country":"cd","lat":-7.166667,"lon":21.016667},{"id":3162212,"name":"luamuela","country":"zr","lat":-6.6166667,"lon":21.0166667},{"id":372709,"name":"tshembe","country":"cd","lat":-6.883333,"lon":21.216667},{"id":112513,"name":"cavuco","country":"ao","lat":-7.45,"lon":21.2},{"id":114880,"name":"dundu","country":"ao","lat":-7.381086,"lon":20.833799},{"id":3165425,"name":"muana mvuyi","country":"zr","lat":-6.7,"lon":20.7},{"id":371858,"name":"shawamba","country":"cd","lat":-6.766667,"lon":21.033333},{"id":3158780,"name":"keba","country":"zr","lat":-7.2166667,"lon":21.2166667},{"id":124635,"name":"sanama","country":"ao","lat":-7.45,"lon":21.233333},{"id":3170517,"name":"tshibuidi","country":"zr","lat":-6.85,"lon":20.8},{"id":126034,"name":"tchipungo","country":"ao","lat":-7.478034,"lon":21.480997},{"id":358740,"name":"kabundula","country":"cd","lat":-6.833333,"lon":20.9},{"id":3169497,"name":"shamuele","country":"zr","lat":-7.0666667,"lon":20.7833333},{"id":3170739,"name":"tshindjanju","country":"zr","lat":-6.6,"lon":20.8333333},{"id":3158621,"name":"kavumbu","country":"zr","lat":-6.7333333,"lon":20.85},{"id":360772,"name":"katopa","country":"cd","lat":-7.033333,"lon":20.866667},{"id":3165483,"name":"mudikidila","country":"zr","lat":-6.9,"lon":21.0166667},{"id":3169536,"name":"shandala","country":"zr","lat":-6.7,"lon":20.5833333},{"id":372507,"name":"tobongo","country":"cd","lat":-6.716667,"lon":21.483333},{"id":125132,"name":"saxindongo","country":"ao","lat":-7.403586,"lon":20.820944},{"id":369312,"name":"nashidi","country":"cd","lat":-7.016667,"lon":20.983333},{"id":3165475,"name":"mudiadia","country":"zr","lat":-7.0,"lon":21.1166667},{"id":365115,"name":"lupupa","country":"cd","lat":-6.7,"lon":21.333333},{"id":371760,"name":"shamuele","country":"cd","lat":-7.066667,"lon":20.783333},{"id":116700,"name":"lamina","country":"ao","lat":-7.4083,"lon":21.108514},{"id":3157162,"name":"kalumbu","country":"zr","lat":-6.7166667,"lon":21.3},{"id":3165432,"name":"muandama","country":"zr","lat":-6.6833333,"lon":21.05},{"id":3167857,"name":"nzalamunda","country":"zr","lat":-6.6,"lon":20.8},{"id":371690,"name":"shakangamba","country":"cd","lat":-6.966667,"lon":20.766667},{"id":119125,"name":"mucanzo","country":"ao","lat":-7.497537,"lon":21.299434},{"id":372121,"name":"suaya-banuenu","country":"cd","lat":-6.65,"lon":21.033333},{"id":3163230,"name":"mai-munene","country":"zr","lat":-6.5333333,"lon":20.95},{"id":3166045,"name":"mundeke","country":"zr","lat":-6.6333333,"lon":20.5},{"id":112115,"name":"catchocue","country":"ao","lat":-7.442803,"lon":21.310567},{"id":371860,"name":"shawata","country":"cd","lat":-6.666667,"lon":20.833333},{"id":367746,"name":"mudikidila","country":"cd","lat":-6.9,"lon":21.016667},{"id":3165405,"name":"muakanangu","country":"zr","lat":-7.2666667,"lon":20.8333333},{"id":355707,"name":"bunia-lumpungu","country":"cd","lat":-6.566667,"lon":20.866667},{"id":367738,"name":"mudiadia","country":"cd","lat":-7.0,"lon":21.116667},{"id":3157824,"name":"kanzoko","country":"zr","lat":-6.9166667,"lon":21.3333333},{"id":367695,"name":"muandama","country":"cd","lat":-6.683333,"lon":21.05},{"id":3165403,"name":"muadiala","country":"zr","lat":-7.2166667,"lon":21.2},{"id":3156359,"name":"kabitshiye","country":"zr","lat":-7.1166667,"lon":20.7333333},{"id":124065,"name":"sachir","country":"ao","lat":-7.35,"lon":20.783333},{"id":111744,"name":"cassanguidi","country":"ao","lat":-7.483672,"lon":21.303393},{"id":371703,"name":"shakayanda","country":"cd","lat":-6.95,"lon":21.366667},{"id":372728,"name":"tshiamuda","country":"cd","lat":-7.25,"lon":21.366667},{"id":360055,"name":"kanuma","country":"cd","lat":-6.8,"lon":20.883333},{"id":110164,"name":"camafica","country":"ao","lat":-7.355881,"lon":20.817806},{"id":3170761,"name":"tshiniana","country":"zr","lat":-6.5333333,"lon":20.8333333},{"id":3165416,"name":"muamba-mulolo","country":"zr","lat":-6.5666667,"lon":21.3},{"id":3165333,"name":"mpata","country":"zr","lat":-7.25,"lon":21.4166667},{"id":372779,"name":"tshibue","country":"cd","lat":-6.6,"lon":21.466667},{"id":371846,"name":"shatshikuku","country":"cd","lat":-7.133333,"lon":20.833333},{"id":3170691,"name":"tshimbangu","country":"zr","lat":-6.8,"lon":21.3},{"id":3165770,"name":"mukunga","country":"zr","lat":-6.5666667,"lon":21.4},{"id":111072,"name":"canguvo","country":"ao","lat":-7.41277,"lon":21.095322},{"id":3157431,"name":"kamonitulu","country":"zr","lat":-7.15,"lon":21.4833333},{"id":125860,"name":"tchilupuca","country":"ao","lat":-7.384513,"lon":21.144385},{"id":3157747,"name":"kanokena","country":"zr","lat":-7.1,"lon":21.4833333},{"id":109774,"name":"cale","country":"ao","lat":-7.422236,"lon":21.328677},{"id":371757,"name":"shamubuabua","country":"cd","lat":-6.833333,"lon":21.216667},{"id":360956,"name":"kayikula","country":"cd","lat":-6.633333,"lon":20.65},{"id":371762,"name":"shamugamba","country":"cd","lat":-6.8,"lon":20.816667},{"id":112594,"name":"caxtunga","country":"ao","lat":-7.316667,"lon":21.45},{"id":3165406,"name":"muakangolo","country":"zr","lat":-7.1333333,"lon":20.75},{"id":3161504,"name":"lemba","country":"zr","lat":-6.8333333,"lon":21.0333333},{"id":3170631,"name":"tshikunji","country":"zr","lat":-7.0666667,"lon":21.2166667},{"id":3165562,"name":"muimba","country":"zr","lat":-7.15,"lon":21.2333333},{"id":366304,"name":"mateamfu","country":"cd","lat":-6.583333,"lon":21.183333}]});