callback({"markets":[{"id":2912600,"name":"tuluksak","country":"us","lat":61.1025,"lon":-160.9616667},{"id":2911981,"name":"akiachak","country":"us","lat":60.9094444,"lon":-161.4313889},{"id":2912312,"name":"kwethluk","country":"us","lat":60.8122222,"lon":-161.4358333},{"id":2911982,"name":"akiak","country":"us","lat":60.9122222,"lon":-161.2138889},{"id":2912433,"name":"nunapitsinchak","country":"us","lat":60.7955556,"lon":-161.3755556}]});