callback({"markets":[{"id":2204569,"name":"kili lashkar khan","country":"pk","lat":27.3831,"lon":66.312},{"id":2215002,"name":"mir abrul rahman","country":"pk","lat":26.74481,"lon":65.677327},{"id":2204494,"name":"kili hasham","country":"pk","lat":27.134694,"lon":66.306106},{"id":2200741,"name":"karsani","country":"pk","lat":27.136711,"lon":66.221378},{"id":2202806,"name":"kharma chakul","country":"pk","lat":27.2438,"lon":66.2775},{"id":2191993,"name":"haji shah murad","country":"pk","lat":26.988224,"lon":66.143222},{"id":2193661,"name":"hudishi","country":"pk","lat":27.066667,"lon":65.9},{"id":2227854,"name":"ronjan gaddani","country":"pk","lat":27.3794,"lon":65.7637},{"id":2241063,"name":"usman bani","country":"pk","lat":26.5028,"lon":66.373},{"id":2204796,"name":"kili yaqub","country":"pk","lat":27.3241,"lon":66.4507},{"id":2190889,"name":"hachau","country":"pk","lat":27.421627,"lon":66.365437},{"id":2230517,"name":"sarathu","country":"pk","lat":27.4499,"lon":66.2928},{"id":2214682,"name":"miani kalat","country":"pk","lat":27.037103,"lon":65.524903},{"id":2204502,"name":"kili id muhammad","country":"pk","lat":27.3641,"lon":66.3733},{"id":2207311,"name":"kulli","country":"pk","lat":26.957712,"lon":66.11313},{"id":2214167,"name":"mehander","country":"pk","lat":27.416,"lon":66.4249},{"id":2214214,"name":"mehi","country":"pk","lat":27.2867,"lon":65.6955},{"id":2181363,"name":"giso","country":"pk","lat":27.321433,"lon":66.481135},{"id":2241538,"name":"wad thana","country":"pk","lat":27.333333,"lon":66.433333},{"id":2208332,"name":"laka lehrani ziarat","country":"pk","lat":27.445088,"lon":66.259312},{"id":2163353,"name":"bur dash","country":"pk","lat":27.2794,"lon":66.2552},{"id":2191134,"name":"haji abad","country":"pk","lat":27.276,"lon":66.2964},{"id":2222690,"name":"parpuki","country":"pk","lat":27.3491,"lon":65.7609},{"id":2181801,"name":"gorjak","country":"pk","lat":26.996815,"lon":65.501684},{"id":2238485,"name":"tharra","country":"pk","lat":26.933333,"lon":66.316667},{"id":2160566,"name":"bet","country":"pk","lat":27.4281,"lon":66.4913},{"id":2231346,"name":"seh dhab","country":"pk","lat":26.671641,"lon":65.719656},{"id":2191577,"name":"haji karam khan","country":"pk","lat":27.3616,"lon":66.1656},{"id":2193788,"name":"husain khan","country":"pk","lat":26.988703,"lon":66.121847},{"id":2208198,"name":"lagraji","country":"pk","lat":27.3878,"lon":66.3685},{"id":2204343,"name":"kili abdul wahab","country":"pk","lat":27.3767,"lon":66.2829},{"id":2204545,"name":"kili khuda bakhsh","country":"pk","lat":27.189883,"lon":66.297942},{"id":2172839,"name":"darkhala","country":"pk","lat":27.1859,"lon":66.2777},{"id":2160524,"name":"berut","country":"pk","lat":27.0286,"lon":66.1807},{"id":2220848,"name":"nokjo","country":"pk","lat":27.2285,"lon":65.7068},{"id":2204486,"name":"kili haji shafi muhammad","country":"pk","lat":27.4442,"lon":66.3516},{"id":2163722,"name":"chad kaur","country":"pk","lat":27.4563,"lon":65.8977},{"id":2204443,"name":"kili haji atta muhammad","country":"pk","lat":27.2816,"lon":66.4784},{"id":2214736,"name":"mian khan shahr","country":"pk","lat":26.979707,"lon":66.120275},{"id":2209865,"name":"lop","country":"pk","lat":27.313154,"lon":66.475321},{"id":2235444,"name":"sorak","country":"pk","lat":27.419844,"lon":66.441387},{"id":2204448,"name":"kili haji dur muhammad","country":"pk","lat":27.24679,"lon":66.312551},{"id":2205324,"name":"korak","country":"pk","lat":26.846157,"lon":65.733101},{"id":2204417,"name":"kili ghulam nabi","country":"pk","lat":27.4281,"lon":66.4005},{"id":2204710,"name":"kili sadullah","country":"pk","lat":27.18487,"lon":66.268677},{"id":2209133,"name":"lanjar","country":"pk","lat":27.4949,"lon":66.1966},{"id":2204501,"name":"kili ibrahim zai","country":"pk","lat":27.3715,"lon":66.3772},{"id":2218193,"name":"musa shah ziarat","country":"pk","lat":27.429979,"lon":66.167251},{"id":2236662,"name":"tadar","country":"pk","lat":26.55,"lon":66.083333},{"id":2208833,"name":"lambi","country":"pk","lat":27.2984,"lon":66.1384},{"id":2231093,"name":"satbai bent","country":"pk","lat":26.5589,"lon":66.4456},{"id":2228794,"name":"sahra bidrang","country":"pk","lat":27.292079,"lon":66.307843},{"id":2204752,"name":"kili shaikh daud","country":"pk","lat":27.3848,"lon":66.3174},{"id":2220676,"name":"nimmi","country":"pk","lat":26.5025,"lon":66.3624},{"id":2204510,"name":"kili jamal khan","country":"pk","lat":27.229221,"lon":66.284814},{"id":2234701,"name":"sinchi","country":"pk","lat":26.5129,"lon":66.3912},{"id":2156330,"name":"bansar","country":"pk","lat":27.042153,"lon":65.527518},{"id":2224199,"name":"pir hasan ziarat","country":"pk","lat":27.0141,"lon":66.2292},{"id":2204488,"name":"kili haji shakar dad karim","country":"pk","lat":27.236575,"lon":66.308799},{"id":2240567,"name":"uchra","country":"pk","lat":27.2177,"lon":66.2317},{"id":2156535,"name":"barani bent","country":"pk","lat":26.972309,"lon":66.114402},{"id":2220849,"name":"nok jo","country":"pk","lat":27.4125,"lon":66.4678},{"id":2223152,"name":"pelar","country":"pk","lat":26.897306,"lon":65.821043},{"id":2195547,"name":"jamsher khan bent","country":"pk","lat":26.5792,"lon":66.4334},{"id":2214083,"name":"mazardan","country":"pk","lat":27.4858,"lon":65.7887},{"id":2178678,"name":"gajar","country":"pk","lat":27.102897,"lon":65.55122},{"id":2204664,"name":"kili murad khan","country":"pk","lat":27.2709,"lon":66.461},{"id":2192859,"name":"hasan khan","country":"pk","lat":26.5274,"lon":65.5016},{"id":2242169,"name":"warh","country":"pk","lat":27.361476,"lon":66.449956},{"id":2238109,"name":"tawari","country":"pk","lat":27.3488,"lon":66.2757},{"id":2209800,"name":"loi boz","country":"pk","lat":27.4113,"lon":66.488},{"id":2196512,"name":"jhalwari","country":"pk","lat":27.0456,"lon":65.55},{"id":2202808,"name":"kharma","country":"pk","lat":27.2515,"lon":66.2886},{"id":2232988,"name":"sham brahim zai","country":"pk","lat":27.3828,"lon":66.4769},{"id":2230656,"name":"sareki","country":"pk","lat":27.066667,"lon":65.55},{"id":2178729,"name":"gajozai","country":"pk","lat":27.233333,"lon":65.7},{"id":2236362,"name":"sunrhi","country":"pk","lat":27.4405,"lon":65.7434},{"id":2150263,"name":"adu","country":"pk","lat":26.629337,"lon":66.097417},{"id":2160408,"name":"belar","country":"pk","lat":27.125289,"lon":66.285339},{"id":2228465,"name":"sadozai","country":"pk","lat":27.216667,"lon":65.7},{"id":2179271,"name":"garahi","country":"pk","lat":26.640983,"lon":65.678648},{"id":2191234,"name":"haji allahdad","country":"pk","lat":26.949392,"lon":66.117696},{"id":2204500,"name":"kili ibrahim","country":"pk","lat":27.3267,"lon":66.4564},{"id":2154685,"name":"bahri","country":"pk","lat":27.3885,"lon":65.8938},{"id":2170654,"name":"chill dasht","country":"pk","lat":27.327,"lon":66.2678},{"id":2238178,"name":"telari","country":"pk","lat":26.681827,"lon":65.677446},{"id":2209620,"name":"lissu","country":"pk","lat":27.320377,"lon":66.145021},{"id":2205149,"name":"kohi","country":"pk","lat":27.2866,"lon":65.7382},{"id":2209778,"name":"lohi","country":"pk","lat":27.3087,"lon":66.4021},{"id":2241508,"name":"wadh","country":"pk","lat":27.3389,"lon":66.3726},{"id":2205235,"name":"kolenj","country":"pk","lat":26.624976,"lon":65.575869},{"id":2204498,"name":"kili hazur bakhsh","country":"pk","lat":27.12042,"lon":66.300759},{"id":2151063,"name":"alam khan shahr","country":"pk","lat":26.941699,"lon":66.110453},{"id":2204493,"name":"kili harun","country":"pk","lat":27.3306,"lon":66.4369},{"id":2154660,"name":"bahram khan","country":"pk","lat":27.4855,"lon":66.1908},{"id":2178903,"name":"gambola","country":"pk","lat":27.4784,"lon":65.9221},{"id":2205380,"name":"kori dan","country":"pk","lat":26.601987,"lon":65.550083},{"id":2204659,"name":"kili mullan karim","country":"pk","lat":27.4393,"lon":66.3278},{"id":2162009,"name":"bibi mailanz","country":"pk","lat":27.4974,"lon":66.1885},{"id":2231482,"name":"serijo","country":"pk","lat":27.311,"lon":65.7461},{"id":2204478,"name":"kili haji pir muhammad","country":"pk","lat":27.3559,"lon":66.3718},{"id":2205006,"name":"kishari bent","country":"pk","lat":26.6639,"lon":66.4964},{"id":2197765,"name":"jor nura","country":"pk","lat":27.297523,"lon":66.367755},{"id":2198601,"name":"kakahir","country":"pk","lat":27.3879,"lon":66.3819},{"id":2203366,"name":"khisun dastari","country":"pk","lat":27.1686,"lon":66.2597},{"id":2154039,"name":"badri","country":"pk","lat":27.342899,"lon":66.319351},{"id":2190813,"name":"gwani kalat","country":"pk","lat":27.466667,"lon":65.9},{"id":2199628,"name":"kandam","country":"pk","lat":27.118622,"lon":65.600491},{"id":2196347,"name":"jebli","country":"pk","lat":27.2981,"lon":65.7423},{"id":2238312,"name":"thaku","country":"pk","lat":26.6702,"lon":66.3721},{"id":2214166,"name":"mehandar","country":"pk","lat":27.3932,"lon":66.4},{"id":2204655,"name":"kili mullah nahud","country":"pk","lat":27.139182,"lon":66.281233},{"id":2204715,"name":"kili saiyed gulab shah","country":"pk","lat":27.184965,"lon":66.256026},{"id":2204480,"name":"kili haji rahmatullah","country":"pk","lat":27.4367,"lon":66.4286},{"id":2204354,"name":"kili alam khan","country":"pk","lat":27.187973,"lon":66.277844},{"id":2213408,"name":"maroi","country":"pk","lat":27.4304,"lon":66.46053},{"id":2204371,"name":"kili bahadar khan","country":"pk","lat":27.198571,"lon":66.277414},{"id":2181257,"name":"gilli","country":"pk","lat":26.7049,"lon":65.6773},{"id":2205385,"name":"kori","country":"pk","lat":26.975983,"lon":66.124791},{"id":2227669,"name":"rindo","country":"pk","lat":27.3062,"lon":66.1442},{"id":2172308,"name":"dan","country":"pk","lat":27.4201,"lon":66.4066},{"id":2179830,"name":"gazki","country":"pk","lat":27.3177,"lon":66.4245},{"id":2235337,"name":"sona bhutti","country":"pk","lat":27.356955,"lon":66.159997},{"id":2156316,"name":"ban rahim bakhsh","country":"pk","lat":27.0655,"lon":65.7808},{"id":2234400,"name":"siah sar","country":"pk","lat":27.4302,"lon":66.3461},{"id":2204573,"name":"kili mahboob ali","country":"pk","lat":27.4044,"lon":66.4259},{"id":2204762,"name":"kili sher muhammad","country":"pk","lat":27.3437,"lon":66.3847},{"id":2156382,"name":"baqal na shahr","country":"pk","lat":26.980833,"lon":66.1175},{"id":2178728,"name":"gajli","country":"pk","lat":27.3419,"lon":65.6966},{"id":2200009,"name":"kanoji","country":"pk","lat":26.866667,"lon":66.316667},{"id":2201295,"name":"kauru khan","country":"pk","lat":26.7707,"lon":65.7041},{"id":2203096,"name":"khazini","country":"pk","lat":27.0056,"lon":66.4022},{"id":2192322,"name":"haman na mujr","country":"pk","lat":27.479,"lon":65.6733},{"id":2225113,"name":"qadirabad","country":"pk","lat":27.4734,"lon":65.5062},{"id":2227925,"name":"rounjan","country":"pk","lat":27.385,"lon":65.7307},{"id":2204709,"name":"kili sadiq","country":"pk","lat":27.166633,"lon":66.32019},{"id":2207823,"name":"kuto","country":"pk","lat":26.603941,"lon":65.710411},{"id":2204724,"name":"kili saleh muhammad","country":"pk","lat":27.3618,"lon":66.3464},{"id":2199043,"name":"kalla bent","country":"pk","lat":27.40169,"lon":66.451368},{"id":2204767,"name":"kili siah jang ja","country":"pk","lat":27.3943,"lon":66.2946},{"id":2176553,"name":"dodaki","country":"pk","lat":27.2655,"lon":66.4563},{"id":2200478,"name":"karimdad","country":"pk","lat":27.4889,"lon":66.1884},{"id":2228893,"name":"said khan bent","country":"pk","lat":26.5179,"lon":66.4232},{"id":2224611,"name":"polegi daf","country":"pk","lat":26.73007,"lon":65.670869},{"id":2176230,"name":"dinari halq","country":"pk","lat":27.322,"lon":65.7517},{"id":2191718,"name":"haji mihrab","country":"pk","lat":27.024968,"lon":66.213552},{"id":2218024,"name":"murgho","country":"pk","lat":27.494121,"lon":66.291824},{"id":2193263,"name":"hazarganji","country":"pk","lat":27.4955,"lon":66.1615},{"id":2172972,"name":"daru kucha","country":"pk","lat":26.8013,"lon":65.7111},{"id":2222689,"name":"parpuki dasht","country":"pk","lat":27.363,"lon":66.2788},{"id":2162671,"name":"bor bhat","country":"pk","lat":27.3688,"lon":66.3449},{"id":2233991,"name":"shindi","country":"pk","lat":26.628676,"lon":65.678113},{"id":2204742,"name":"kili shad ban","country":"pk","lat":27.3977,"lon":66.3449},{"id":2228029,"name":"rungani","country":"pk","lat":26.630874,"lon":65.710641},{"id":2208352,"name":"lakator","country":"pk","lat":26.833333,"lon":66.1},{"id":2160928,"name":"bhakejau","country":"pk","lat":27.474313,"lon":66.476331},{"id":2221012,"name":"nundara badrang","country":"pk","lat":26.701777,"lon":65.591151},{"id":2215470,"name":"mir qadir bakhsh","country":"pk","lat":27.350798,"lon":66.142576},{"id":2204537,"name":"kili khan muhammad","country":"pk","lat":27.108437,"lon":66.276746},{"id":2241520,"name":"wadi","country":"pk","lat":26.5613,"lon":65.6721},{"id":2204333,"name":"kili abdul hakim","country":"pk","lat":27.4027,"lon":66.3549},{"id":2153369,"name":"azam khan shahr","country":"pk","lat":26.977174,"lon":66.12019},{"id":2211503,"name":"makri khand","country":"pk","lat":27.2695,"lon":66.3095},{"id":2190713,"name":"gurk dat scheme","country":"pk","lat":27.4258,"lon":66.1657},{"id":2194169,"name":"indar ghat","country":"pk","lat":27.159197,"lon":66.186656},{"id":2243355,"name":"zarchain","country":"pk","lat":27.3583,"lon":66.339},{"id":2152804,"name":"arzi jhal","country":"pk","lat":27.2541,"lon":66.2668},{"id":2236337,"name":"sunehri","country":"pk","lat":27.4487,"lon":65.7641},{"id":2225762,"name":"rabat","country":"pk","lat":27.4749,"lon":65.8867},{"id":2222747,"name":"parwar","country":"pk","lat":27.021605,"lon":65.542901},{"id":2191771,"name":"haji muhammad khan bent","country":"pk","lat":26.515466,"lon":66.407793},{"id":2204761,"name":"kili sher din","country":"pk","lat":27.4012,"lon":66.3362},{"id":2182490,"name":"goth amir bakhsh jogi","country":"pk","lat":27.4717,"lon":66.1592},{"id":2199201,"name":"kaluk","country":"pk","lat":27.268344,"lon":66.274147}]});