callback({"markets":[{"id":1275321,"name":"sigoisoinan","country":"id","lat":-2.05,"lon":99.65},{"id":1284888,"name":"taigebgem","country":"id","lat":-2.166667,"lon":99.516667},{"id":1292838,"name":"terait","country":"id","lat":-2.25,"lon":99.616667},{"id":1276618,"name":"simpatdegat","country":"id","lat":-2.066667,"lon":99.55},{"id":1200008,"name":"katiet","country":"id","lat":-2.366667,"lon":99.85},{"id":1277516,"name":"sipagugu","country":"id","lat":-2.333333,"lon":99.833333},{"id":1223200,"name":"maileppet","country":"id","lat":-2.233333,"lon":99.583333},{"id":1278256,"name":"siuban","country":"id","lat":-2.183333,"lon":99.716667},{"id":1249141,"name":"patdarai","country":"id","lat":-2.183333,"lon":99.733333},{"id":1226524,"name":"masokut","country":"id","lat":-2.333333,"lon":99.783333},{"id":1148734,"name":"berioelooe","country":"id","lat":-2.316667,"lon":99.716667},{"id":1274308,"name":"siberimanoea","country":"id","lat":-2.15,"lon":99.566667},{"id":1226984,"name":"matobe","country":"id","lat":-2.133333,"lon":99.7},{"id":1275281,"name":"sigici","country":"id","lat":-2.266667,"lon":99.75},{"id":1275764,"name":"silaoinan","country":"id","lat":-2.166667,"lon":99.666667}]});