callback({"markets":[{"id":2540094,"name":"tsepelskiye polyany","country":"ru","lat":60.220691,"lon":58.595704},{"id":2394383,"name":"dvadtsatka","country":"ru","lat":60.452806,"lon":58.658069},{"id":2522062,"name":"solva","country":"ru","lat":60.400429,"lon":59.381642},{"id":2572679,"name":"zolotanka","country":"ru","lat":60.473862,"lon":58.584963},{"id":2516704,"name":"shompa","country":"ru","lat":59.997499,"lon":59.487468},{"id":2546641,"name":"ust-typyl","country":"ru","lat":59.521419,"lon":58.726486},{"id":2546638,"name":"ust-tylay","country":"ru","lat":59.502779,"lon":58.864151},{"id":2422805,"name":"kitlim","country":"ru","lat":59.500494,"lon":59.201595},{"id":2392729,"name":"drazhnyy","country":"ru","lat":60.365632,"lon":59.392004}]});