callback({"markets":[{"id":3005786,"name":"murphy","country":"us","lat":42.3477778,"lon":-123.3322222},{"id":3005183,"name":"central point","country":"us","lat":42.3761111,"lon":-122.9152778},{"id":3005988,"name":"ruch","country":"us","lat":42.2366667,"lon":-123.0411111},{"id":3005422,"name":"fruitdale","country":"us","lat":42.4222222,"lon":-123.3069444},{"id":3005804,"name":"new hope","country":"us","lat":42.3625,"lon":-123.3666667},{"id":3005237,"name":"copper","country":"us","lat":42.0266667,"lon":-123.1455556},{"id":2919930,"name":"hawkinsville","country":"us","lat":41.7608333,"lon":-122.6208333},{"id":3005144,"name":"bybee corner","country":"us","lat":42.3172222,"lon":-122.9508333},{"id":3005278,"name":"dardanelles","country":"us","lat":42.4291667,"lon":-123.0569444},{"id":2919759,"name":"gottsville","country":"us","lat":41.8675,"lon":-122.74},{"id":2920348,"name":"klamath river","country":"us","lat":41.8613889,"lon":-122.8244444},{"id":3005413,"name":"four corners","country":"us","lat":42.3897222,"lon":-122.8841667},{"id":3005328,"name":"eagle point","country":"us","lat":42.4727778,"lon":-122.8016667},{"id":2919576,"name":"fort jones","country":"us","lat":41.6077778,"lon":-122.8391667},{"id":3005630,"name":"lakecreek","country":"us","lat":42.4225,"lon":-122.625},{"id":2919808,"name":"greenview","country":"us","lat":41.5508333,"lon":-122.9044444},{"id":3006238,"name":"wilderville","country":"us","lat":42.3825,"lon":-123.4658333},{"id":3006246,"name":"williams","country":"us","lat":42.2188889,"lon":-123.2727778},{"id":2919330,"name":"eileen","country":"us","lat":41.9630556,"lon":-123.1041667},{"id":2919574,"name":"fort goff","country":"us","lat":41.8622222,"lon":-123.2555556},{"id":2921315,"name":"oakbar","country":"us","lat":41.8375,"lon":-122.9375},{"id":3006102,"name":"talent","country":"us","lat":42.2458333,"lon":-122.7875},{"id":3005148,"name":"california bar","country":"us","lat":42.1197222,"lon":-123.4736111},{"id":2920081,"name":"hoskin","country":"us","lat":41.7088889,"lon":-123.3622222},{"id":3005730,"name":"medford","country":"us","lat":42.3266667,"lon":-122.8744444},{"id":2920076,"name":"hornbrook","country":"us","lat":41.9102778,"lon":-122.5547222},{"id":2920229,"name":"jims camp","country":"us","lat":41.8330556,"lon":-122.5847222},{"id":2918857,"name":"cole","country":"us","lat":42.0022222,"lon":-122.6391667},{"id":2919671,"name":"gazelle","country":"us","lat":41.5208333,"lon":-122.5191667},{"id":3006068,"name":"starvation heights","country":"us","lat":42.4855556,"lon":-123.1669444},{"id":2923281,"name":"yreka","country":"us","lat":41.7355556,"lon":-122.6333333},{"id":3005721,"name":"mckee bridge","country":"us","lat":42.1277778,"lon":-123.075},{"id":2922647,"name":"swiss bar","country":"us","lat":41.8652778,"lon":-122.7125},{"id":2919881,"name":"happy camp","country":"us","lat":41.7933333,"lon":-123.3783333},{"id":2919867,"name":"hamburg","country":"us","lat":41.7830556,"lon":-123.0591667},{"id":3005978,"name":"rogue river","country":"us","lat":42.4361111,"lon":-123.1708333},{"id":3006099,"name":"table rock","country":"us","lat":42.4513889,"lon":-122.9116667},{"id":2919814,"name":"grenada","country":"us","lat":41.6472222,"lon":-122.5188889},{"id":3006233,"name":"white city","country":"us","lat":42.4375,"lon":-122.8577778},{"id":3005942,"name":"redwood","country":"us","lat":42.4222222,"lon":-123.3861111},{"id":2920022,"name":"hilt","country":"us","lat":41.995,"lon":-122.6222222},{"id":2918751,"name":"cheeseville","country":"us","lat":41.5211111,"lon":-122.8986111},{"id":3005129,"name":"buckhorn springs","country":"us","lat":42.1055556,"lon":-122.5305556},{"id":3006005,"name":"sams valley","country":"us","lat":42.4916667,"lon":-122.9741667},{"id":3006132,"name":"tolo","country":"us","lat":42.4244444,"lon":-122.9702778},{"id":3005929,"name":"provolt","country":"us","lat":42.2875,"lon":-123.2291667},{"id":3005022,"name":"ashland","country":"us","lat":42.1947222,"lon":-122.7083333},{"id":2919962,"name":"henley","country":"us","lat":41.9022222,"lon":-122.5622222},{"id":3005577,"name":"jacksonville","country":"us","lat":42.3136111,"lon":-122.9658333},{"id":2922256,"name":"seiad valley","country":"us","lat":41.8405556,"lon":-123.1913889},{"id":3006024,"name":"seven oaks","country":"us","lat":42.3925,"lon":-122.9369444},{"id":3005135,"name":"buncom","country":"us","lat":42.1741667,"lon":-122.9969444},{"id":2922228,"name":"scott bar","country":"us","lat":41.7419444,"lon":-123.0030556},{"id":3005400,"name":"foots creek","country":"us","lat":42.405,"lon":-123.1377778},{"id":3005459,"name":"gold hill","country":"us","lat":42.4319444,"lon":-123.0494444},{"id":3005121,"name":"brownsboro","country":"us","lat":42.4683333,"lon":-122.7088889},{"id":2920078,"name":"horse creek","country":"us","lat":41.8241667,"lon":-122.9958333},{"id":3005217,"name":"climax","country":"us","lat":42.2952778,"lon":-122.6186111},{"id":3005892,"name":"phoenix","country":"us","lat":42.2755556,"lon":-122.8169444},{"id":2921117,"name":"mugginsville","country":"us","lat":41.5736111,"lon":-122.9505556},{"id":3005013,"name":"applegate","country":"us","lat":42.2572222,"lon":-123.1672222},{"id":2921017,"name":"montague","country":"us","lat":41.7283333,"lon":-122.5266667},{"id":2920071,"name":"hooperville","country":"us","lat":41.6788889,"lon":-122.8477778},{"id":3005225,"name":"colestin","country":"us","lat":42.0533333,"lon":-122.65},{"id":2921426,"name":"oro fino","country":"us","lat":41.5805556,"lon":-122.9202778},{"id":3005471,"name":"grants pass","country":"us","lat":42.4391667,"lon":-123.3272222}]});