callback({"markets":[{"id":1973227,"name":"gougaram","country":"ne","lat":18.4825,"lon":7.7844444},{"id":1972160,"name":"elmeki","country":"ne","lat":17.7394444,"lon":8.2747222},{"id":1971159,"name":"dabos","country":"ne","lat":17.8141667,"lon":7.6469444},{"id":1977495,"name":"teouat","country":"ne","lat":18.0388889,"lon":8.1916667},{"id":1973362,"name":"guermat","country":"ne","lat":17.5166667,"lon":8.1166667},{"id":1970063,"name":"aouderas","country":"ne","lat":17.6166667,"lon":8.4333333}]});