callback({"markets":[{"id":889595,"name":"bursa","country":"et","lat":6.583333,"lon":38.6},{"id":887882,"name":"anciora","country":"et","lat":7.35,"lon":39.45},{"id":886799,"name":"adamogne","country":"et","lat":7.016667,"lon":39.016667},{"id":895822,"name":"malche","country":"et","lat":7.016667,"lon":38.616667},{"id":899131,"name":"wendo genet","country":"et","lat":7.016667,"lon":38.583333},{"id":889452,"name":"buccio","country":"et","lat":7.133333,"lon":39.15},{"id":893891,"name":"horancia","country":"et","lat":6.516667,"lon":38.733333},{"id":898930,"name":"waji","country":"et","lat":7.35,"lon":39.0},{"id":891262,"name":"dodolla","country":"et","lat":6.983333,"lon":39.183333},{"id":888761,"name":"bebela","country":"et","lat":6.966667,"lon":38.783333},{"id":887654,"name":"alelu","country":"et","lat":7.216667,"lon":38.6},{"id":890144,"name":"cocossa","country":"et","lat":6.733333,"lon":38.783333},{"id":892969,"name":"gogi","country":"et","lat":6.966667,"lon":38.566667},{"id":894579,"name":"k\u0027ebalenka","country":"et","lat":6.516667,"lon":38.833333},{"id":894302,"name":"jara","country":"et","lat":6.966667,"lon":39.116667},{"id":893311,"name":"guguma","country":"et","lat":6.983333,"lon":38.7},{"id":886767,"name":"adaba","country":"et","lat":7.0,"lon":39.4},{"id":894578,"name":"k\u0027ebaleka","country":"et","lat":6.533333,"lon":38.716667},{"id":896270,"name":"meranyo","country":"et","lat":7.4,"lon":39.283333},{"id":897906,"name":"sisha","country":"et","lat":6.666667,"lon":38.5},{"id":891401,"name":"dugo","country":"et","lat":6.6,"lon":38.616667},{"id":896272,"name":"meraro","country":"et","lat":7.416667,"lon":39.25},{"id":895344,"name":"kuyera dedeba","country":"et","lat":7.266667,"lon":38.65},{"id":895371,"name":"ladu","country":"et","lat":6.833333,"lon":38.5},{"id":893976,"name":"ibano","country":"et","lat":6.866667,"lon":38.75},{"id":895906,"name":"marcos","country":"et","lat":7.366667,"lon":39.233333},{"id":891847,"name":"farichu","country":"et","lat":7.366667,"lon":39.316667},{"id":897375,"name":"sciasciamanne","country":"et","lat":7.2,"lon":38.6},{"id":893870,"name":"hoghiso","country":"et","lat":6.85,"lon":38.7},{"id":898295,"name":"timbite","country":"et","lat":7.35,"lon":39.366667},{"id":899218,"name":"weyge","country":"et","lat":6.966667,"lon":39.45},{"id":887664,"name":"`alem gen","country":"et","lat":7.3,"lon":38.85},{"id":890276,"name":"dabaca","country":"et","lat":7.2,"lon":39.433333},{"id":888662,"name":"banta","country":"et","lat":6.983333,"lon":38.85},{"id":888479,"name":"babbo ghennetio","country":"et","lat":6.9,"lon":38.916667},{"id":895222,"name":"kubsa","country":"et","lat":7.25,"lon":39.333333},{"id":892613,"name":"gheorghis","country":"et","lat":7.283333,"lon":39.15},{"id":893943,"name":"hunt\u0027e","country":"et","lat":7.016667,"lon":39.416667},{"id":888194,"name":"asasa","country":"et","lat":7.1,"lon":39.2},{"id":894768,"name":"keta","country":"et","lat":7.0,"lon":39.316667},{"id":896786,"name":"negele","country":"et","lat":7.35,"lon":38.7},{"id":896076,"name":"medhane `alem","country":"et","lat":7.033333,"lon":38.75},{"id":890424,"name":"dalo galalo","country":"et","lat":6.616667,"lon":38.816667},{"id":893320,"name":"gujicha","country":"et","lat":7.45,"lon":38.933333},{"id":897855,"name":"silt\u0027ana","country":"et","lat":7.4,"lon":39.4},{"id":892850,"name":"giyorgis","country":"et","lat":7.266667,"lon":39.033333},{"id":894014,"name":"iei","country":"et","lat":6.683333,"lon":38.716667},{"id":890484,"name":"dangure ticha","country":"et","lat":6.616667,"lon":38.616667},{"id":891811,"name":"faggi","country":"et","lat":7.166667,"lon":38.966667},{"id":898468,"name":"tuli","country":"et","lat":6.983333,"lon":39.233333},{"id":898099,"name":"tarura","country":"et","lat":6.783333,"lon":38.9},{"id":895004,"name":"kofele","country":"et","lat":7.066667,"lon":38.783333},{"id":897966,"name":"sorfta","country":"et","lat":6.716667,"lon":39.166667},{"id":890590,"name":"daye","country":"et","lat":6.633333,"lon":38.7},{"id":890747,"name":"degaga","country":"et","lat":7.45,"lon":38.816667},{"id":890177,"name":"concessioine colaris","country":"et","lat":7.0,"lon":38.5},{"id":897761,"name":"shire","country":"et","lat":7.233333,"lon":38.983333},{"id":889109,"name":"bilbilo","country":"et","lat":7.4,"lon":39.233333},{"id":893582,"name":"halela aulia","country":"et","lat":7.416667,"lon":39.45},{"id":890893,"name":"denfo","country":"et","lat":7.083333,"lon":39.35},{"id":896181,"name":"melka oda","country":"et","lat":7.216667,"lon":38.616667},{"id":888669,"name":"barado","country":"et","lat":7.266667,"lon":39.4},{"id":892365,"name":"gedeb","country":"et","lat":7.316667,"lon":39.283333},{"id":897648,"name":"shankule","country":"et","lat":7.283333,"lon":39.2},{"id":896733,"name":"nago","country":"et","lat":6.95,"lon":38.866667},{"id":898846,"name":"`urgo","country":"et","lat":7.2,"lon":39.483333},{"id":897985,"name":"suca","country":"et","lat":6.516667,"lon":39.233333},{"id":897948,"name":"sole","country":"et","lat":7.05,"lon":38.616667},{"id":895420,"name":"lanchiccia","country":"et","lat":7.3,"lon":39.416667},{"id":895345,"name":"kuyera","country":"et","lat":7.3,"lon":38.65},{"id":890195,"name":"core","country":"et","lat":7.216667,"lon":38.916667},{"id":889936,"name":"chevenna","country":"et","lat":6.6,"lon":38.816667}]});