callback({"markets":[{"id":155855,"name":"kilkivan","country":"au","lat":-26.086889,"lon":152.234039},{"id":154771,"name":"gooroolba","country":"au","lat":-25.516667,"lon":151.8},{"id":160162,"name":"thinoomba","country":"au","lat":-25.6,"lon":152.45},{"id":161128,"name":"wetheron","country":"au","lat":-25.55,"lon":151.716667},{"id":155349,"name":"hunters hut","country":"au","lat":-25.616667,"lon":152.383333},{"id":157460,"name":"mount debatable","country":"au","lat":-25.616667,"lon":151.516667},{"id":153538,"name":"dangore","country":"au","lat":-26.45,"lon":151.583333},{"id":155376,"name":"ideraway","country":"au","lat":-25.583333,"lon":151.616667},{"id":161265,"name":"windera","country":"au","lat":-26.05,"lon":151.833333},{"id":154458,"name":"gayndah","country":"au","lat":-25.625219,"lon":151.611435},{"id":152910,"name":"cinnabar","country":"au","lat":-26.116667,"lon":152.183333},{"id":155879,"name":"kinbombi","country":"au","lat":-26.2,"lon":152.116667},{"id":159454,"name":"sexton","country":"au","lat":-26.0,"lon":152.433333},{"id":161481,"name":"wooroolin","country":"au","lat":-26.416667,"lon":151.816667},{"id":155250,"name":"hivesville","country":"au","lat":-26.183333,"lon":151.683333},{"id":152081,"name":"braemar","country":"au","lat":-25.65,"lon":152.266667},{"id":157677,"name":"murgon","country":"au","lat":-26.241699,"lon":151.940475},{"id":157217,"name":"mondure","country":"au","lat":-26.183333,"lon":151.766667},{"id":152998,"name":"coalstoun lakes","country":"au","lat":-25.616667,"lon":151.883333},{"id":152502,"name":"byee","country":"au","lat":-26.183333,"lon":151.85},{"id":154201,"name":"fairdale","country":"au","lat":-26.283333,"lon":151.783333},{"id":154779,"name":"gordon brook","country":"au","lat":-26.433333,"lon":151.716667},{"id":154749,"name":"goomeri","country":"au","lat":-26.18383,"lon":152.068665},{"id":155741,"name":"kawl kawl","country":"au","lat":-26.183333,"lon":151.733333},{"id":156761,"name":"manumbar","country":"au","lat":-26.4,"lon":152.283333},{"id":156211,"name":"lakeside","country":"au","lat":-25.583333,"lon":152.133333},{"id":156951,"name":"memerambi","country":"au","lat":-26.45,"lon":151.816667},{"id":151993,"name":"boowoogum","country":"au","lat":-26.033333,"lon":152.416667},{"id":153331,"name":"craigallian","country":"au","lat":-26.083333,"lon":152.466667},{"id":160230,"name":"tingoora","country":"au","lat":-26.366667,"lon":151.816667},{"id":151082,"name":"aramara","country":"au","lat":-25.616667,"lon":152.316667},{"id":152983,"name":"cloyne","country":"au","lat":-26.116667,"lon":151.833333},{"id":161201,"name":"wilkesdale","country":"au","lat":-26.366667,"lon":151.65},{"id":151691,"name":"biggenden","country":"au","lat":-25.508551,"lon":152.0448},{"id":158864,"name":"proston","country":"au","lat":-26.160681,"lon":151.600433},{"id":161360,"name":"wondai","country":"au","lat":-26.317699,"lon":151.872421},{"id":156767,"name":"manyung","country":"au","lat":-26.2,"lon":152.033333},{"id":153486,"name":"dadamarine","country":"au","lat":-25.866667,"lon":151.983333},{"id":153859,"name":"dundarrah","country":"au","lat":-25.65,"lon":151.883333},{"id":151388,"name":"barlil","country":"au","lat":-26.2,"lon":151.883333},{"id":156762,"name":"manumbar mill","country":"au","lat":-26.416667,"lon":152.366667},{"id":153542,"name":"dappil","country":"au","lat":-25.55,"lon":151.633333},{"id":155922,"name":"kinleymore","country":"au","lat":-26.183333,"lon":151.65},{"id":152858,"name":"cherbourg","country":"au","lat":-26.29191,"lon":151.952133},{"id":152219,"name":"brooweena","country":"au","lat":-25.6,"lon":152.266667},{"id":152220,"name":"brooyar","country":"au","lat":-26.016667,"lon":152.4},{"id":151950,"name":"boompa","country":"au","lat":-25.583333,"lon":152.183333},{"id":152514,"name":"byrnestown","country":"au","lat":-25.516667,"lon":151.75},{"id":157284,"name":"moondooner","country":"au","lat":-26.233333,"lon":152.0},{"id":161449,"name":"woolooga","country":"au","lat":-26.05,"lon":152.4},{"id":158270,"name":"oakview","country":"au","lat":-26.083333,"lon":152.333333},{"id":160607,"name":"upper widgee","country":"au","lat":-26.2,"lon":152.433333}]});