callback({"markets":[{"id":310641,"name":"pintos negreiro","country":"br","lat":-22.3,"lon":-45.216667},{"id":315199,"name":"sant\u0027anna do capivary","country":"br","lat":-22.233333,"lon":-44.933333},{"id":291954,"name":"cabritos","country":"br","lat":-21.566667,"lon":-44.716667},{"id":295538,"name":"conceicao do rio verde","country":"br","lat":-21.883333,"lon":-45.083333},{"id":286472,"name":"alagoa","country":"br","lat":-22.166667,"lon":-44.633333},{"id":292747,"name":"campanha","country":"br","lat":-21.833333,"lon":-45.4},{"id":309892,"name":"pedralva","country":"br","lat":-22.233333,"lon":-45.466667},{"id":286389,"name":"aguas de contendas","country":"br","lat":-21.9,"lon":-45.016667},{"id":286351,"name":"aguape","country":"br","lat":-21.9,"lon":-45.266667},{"id":304918,"name":"luminarias","country":"br","lat":-21.5,"lon":-44.9},{"id":292700,"name":"cambuquira","country":"br","lat":-21.85,"lon":-45.3},{"id":309407,"name":"passa quatro","country":"br","lat":-22.383333,"lon":-44.966667},{"id":294051,"name":"carrancas","country":"br","lat":-21.5,"lon":-44.65},{"id":310591,"name":"pinheirinhos","country":"br","lat":-22.433333,"lon":-44.983333},{"id":303633,"name":"juriti","country":"br","lat":-21.6,"lon":-45.383333},{"id":306553,"name":"minduri","country":"br","lat":-21.683333,"lon":-44.616667},{"id":294403,"name":"cava","country":"br","lat":-21.516667,"lon":-45.333333},{"id":301831,"name":"itajuba","country":"br","lat":-22.433333,"lon":-45.45},{"id":290145,"name":"batinga","country":"br","lat":-21.683333,"lon":-45.05},{"id":306754,"name":"modelo","country":"br","lat":-21.8,"lon":-45.433333},{"id":317806,"name":"silvestre-ferraz","country":"br","lat":-22.116667,"lon":-45.133333},{"id":325960,"name":"tacho","country":"br","lat":-21.566667,"lon":-45.3},{"id":317391,"name":"sengo","country":"br","lat":-22.116667,"lon":-44.95},{"id":295488,"name":"conceicao da pedra","country":"br","lat":-22.15,"lon":-45.45},{"id":301881,"name":"itamonte","country":"br","lat":-22.283333,"lon":-44.883333},{"id":327889,"name":"vargem do laje","country":"br","lat":-22.133333,"lon":-44.816667},{"id":316994,"name":"sao sebastiao do rio verde","country":"br","lat":-22.216667,"lon":-44.966667},{"id":328849,"name":"virginia","country":"br","lat":-22.333333,"lon":-45.1},{"id":288412,"name":"baependi","country":"br","lat":-21.95,"lon":-44.883333},{"id":288296,"name":"avelar","country":"br","lat":-21.666667,"lon":-45.3},{"id":306633,"name":"mirantao","country":"br","lat":-22.25,"lon":-44.5},{"id":307720,"name":"ninfas","country":"br","lat":-21.783333,"lon":-45.083333},{"id":325374,"name":"soledade","country":"br","lat":-22.066667,"lon":-45.05},{"id":286448,"name":"aiuruoca","country":"br","lat":-21.966667,"lon":-44.6},{"id":312650,"name":"queimada","country":"br","lat":-22.45,"lon":-45.15},{"id":301892,"name":"itanhandu","country":"br","lat":-22.3,"lon":-44.95},{"id":293545,"name":"capelinha do embirizal","country":"br","lat":-22.033333,"lon":-45.433333},{"id":328362,"name":"vidinha","country":"br","lat":-22.133333,"lon":-44.95},{"id":306288,"name":"maua","country":"br","lat":-22.333333,"lon":-44.55},{"id":304829,"name":"lourenco velho","country":"br","lat":-22.366667,"lon":-45.316667},{"id":294856,"name":"christina","country":"br","lat":-22.216667,"lon":-45.266667},{"id":303006,"name":"jesuania","country":"br","lat":-22.0,"lon":-45.3},{"id":309797,"name":"pe do morro","country":"br","lat":-22.333333,"lon":-44.95},{"id":296272,"name":"cruzilia","country":"br","lat":-21.833333,"lon":-44.8},{"id":327819,"name":"valinhos","country":"br","lat":-21.933333,"lon":-45.183333},{"id":304346,"name":"lamins","country":"br","lat":-22.383333,"lon":-44.916667},{"id":299043,"name":"feliciano","country":"br","lat":-21.833333,"lon":-45.166667},{"id":327925,"name":"varginha","country":"br","lat":-21.55,"lon":-45.433333},{"id":305816,"name":"maria da fe","country":"br","lat":-22.3,"lon":-45.383333},{"id":317599,"name":"serranos","country":"br","lat":-21.85,"lon":-44.5},{"id":304328,"name":"lambari","country":"br","lat":-21.966667,"lon":-45.35},{"id":306777,"name":"moinho","country":"br","lat":-21.7,"lon":-45.416667},{"id":305905,"name":"mario pinto","country":"br","lat":-21.733333,"lon":-45.083333},{"id":300836,"name":"horizonte","country":"br","lat":-22.483333,"lon":-44.516667},{"id":300373,"name":"grotao","country":"br","lat":-21.633333,"lon":-45.283333},{"id":316499,"name":"sao jose dos campos","country":"br","lat":-22.166667,"lon":-45.1},{"id":317077,"name":"sao tome das letras","country":"br","lat":-21.716667,"lon":-44.983333},{"id":287274,"name":"andre resende","country":"br","lat":-21.566667,"lon":-45.183333},{"id":289773,"name":"barra mansa","country":"br","lat":-21.633333,"lon":-45.05},{"id":289761,"name":"barra grande","country":"br","lat":-22.2,"lon":-45.333333},{"id":316579,"name":"sao lourenco","country":"br","lat":-22.116667,"lon":-45.05},{"id":308348,"name":"olimpio noronha","country":"br","lat":-22.066667,"lon":-45.266667},{"id":297324,"name":"eremita","country":"br","lat":-21.583333,"lon":-45.066667},{"id":294442,"name":"caxambu","country":"br","lat":-21.983333,"lon":-44.933333},{"id":304838,"name":"luanda","country":"br","lat":-21.733333,"lon":-45.216667},{"id":308136,"name":"nucleo maua","country":"br","lat":-22.316667,"lon":-44.566667},{"id":313765,"name":"rio claro","country":"br","lat":-22.416667,"lon":-45.266667},{"id":317479,"name":"seritinga","country":"br","lat":-21.9,"lon":-44.5},{"id":327098,"name":"tres coracoes","country":"br","lat":-21.7,"lon":-45.266667},{"id":305900,"name":"marins","country":"br","lat":-22.45,"lon":-45.133333},{"id":311160,"name":"poiso alto","country":"br","lat":-22.183333,"lon":-44.966667}]});