callback({"markets":[{"id":326275,"name":"tapurucuara","country":"br","lat":-0.4,"lon":-65.033333},{"id":312423,"name":"primavera","country":"br","lat":-0.433333,"lon":-65.316667},{"id":302392,"name":"jacruaru","country":"br","lat":-0.383333,"lon":-64.5},{"id":316192,"name":"sao joao de marauhia","country":"br","lat":-0.4,"lon":-65.266667},{"id":308969,"name":"papera","country":"br","lat":-0.416667,"lon":-64.6},{"id":305298,"name":"maloca apuii","country":"br","lat":-0.1,"lon":-65.083333},{"id":301206,"name":"ilha grande","country":"br","lat":-0.45,"lon":-65.033333},{"id":294802,"name":"chico herrera","country":"br","lat":-0.316667,"lon":-65.383333}]});