callback({"markets":[{"id":2086884,"name":"atimaono","country":"pf","lat":-17.7666667,"lon":-149.4666667},{"id":2086879,"name":"ataiti","country":"pf","lat":-17.75,"lon":-149.3833333},{"id":2086856,"name":"afatauri","country":"pf","lat":-17.7833333,"lon":-149.1333333},{"id":2087169,"name":"tiripoa","country":"pf","lat":-17.7166667,"lon":-149.3},{"id":2086905,"name":"faarumai","country":"pf","lat":-17.5166667,"lon":-149.3833333},{"id":2087013,"name":"nivee","country":"pf","lat":-17.5166667,"lon":-149.4},{"id":2087077,"name":"paui","country":"pf","lat":-17.75,"lon":-149.3333333},{"id":2087038,"name":"otutara","country":"pf","lat":-17.7666667,"lon":-149.4166667},{"id":2086907,"name":"faauanu","country":"pf","lat":-17.5333333,"lon":-149.35},{"id":2087198,"name":"vaionifa","country":"pf","lat":-17.7666667,"lon":-149.1333333},{"id":2086981,"name":"mahina","country":"pf","lat":-17.5,"lon":-149.45},{"id":2087212,"name":"vaitoto","country":"pf","lat":-17.7666667,"lon":-149.1166667},{"id":2087023,"name":"onoheha","country":"pf","lat":-17.5333333,"lon":-149.3666667},{"id":2087007,"name":"nairiri","country":"pf","lat":-17.7666667,"lon":-149.4333333},{"id":2087087,"name":"port vairao","country":"pf","lat":-17.7833333,"lon":-149.2833333},{"id":2087037,"name":"otuofai","country":"pf","lat":-17.65,"lon":-149.3166667},{"id":2086953,"name":"hauturua","country":"pf","lat":-17.75,"lon":-149.35},{"id":2086959,"name":"hotapuu","country":"pf","lat":-17.8666667,"lon":-149.1666667},{"id":2086990,"name":"matahiva","country":"pf","lat":-17.5333333,"lon":-149.3333333},{"id":2086894,"name":"auaue","country":"pf","lat":-17.75,"lon":-149.1333333},{"id":2087197,"name":"vaihi","country":"pf","lat":-17.7666667,"lon":-149.3},{"id":2087156,"name":"teruafaroa","country":"pf","lat":-17.6666667,"lon":-149.3},{"id":2087035,"name":"otiaroa","country":"pf","lat":-17.7666667,"lon":-149.4},{"id":2087015,"name":"nutae","country":"pf","lat":-17.7333333,"lon":-149.25},{"id":2087157,"name":"teruamao","country":"pf","lat":-17.8333333,"lon":-149.1333333},{"id":2087160,"name":"tetira","country":"pf","lat":-17.6166667,"lon":-149.3},{"id":2086932,"name":"haapape","country":"pf","lat":-17.5,"lon":-149.4833333},{"id":2087173,"name":"toanoano","country":"pf","lat":-17.85,"lon":-149.2166667},{"id":2087171,"name":"toahotu","country":"pf","lat":-17.75,"lon":-149.3166667},{"id":2087051,"name":"paofai","country":"pf","lat":-17.8,"lon":-149.1166667},{"id":2087189,"name":"uritutua","country":"pf","lat":-17.8,"lon":-149.2833333},{"id":2086992,"name":"mataiva","country":"pf","lat":-17.75,"lon":-149.1833333},{"id":2086936,"name":"haapupuri","country":"pf","lat":-17.5333333,"lon":-149.3833333},{"id":2086874,"name":"araiteva","country":"pf","lat":-17.7666667,"lon":-149.45},{"id":2087093,"name":"pucu","country":"pf","lat":-17.7333333,"lon":-149.2166667},{"id":2086993,"name":"mataorio","country":"pf","lat":-17.5833333,"lon":-149.3},{"id":2087130,"name":"tautira","country":"pf","lat":-17.7333333,"lon":-149.15},{"id":2087205,"name":"vairo","country":"pf","lat":-17.85,"lon":-149.1333333},{"id":2086955,"name":"hitia","country":"pf","lat":-17.6,"lon":-149.3},{"id":2086854,"name":"afaahiti","country":"pf","lat":-17.75,"lon":-149.2833333},{"id":2086976,"name":"mahaena","country":"pf","lat":-17.5666667,"lon":-149.3166667},{"id":2086914,"name":"farauo","country":"pf","lat":-17.8166667,"lon":-149.1166667},{"id":2087010,"name":"niumaa","country":"pf","lat":-17.7333333,"lon":-149.2333333},{"id":2087048,"name":"pahua","country":"pf","lat":-17.7166667,"lon":-149.2833333},{"id":2086995,"name":"matiti","country":"pf","lat":-17.8166667,"lon":-149.2833333},{"id":2087179,"name":"tuara","country":"pf","lat":-17.75,"lon":-149.15},{"id":2086988,"name":"mariuti","country":"pf","lat":-17.5833333,"lon":-149.4333333},{"id":2087029,"name":"orofura","country":"pf","lat":-17.5,"lon":-149.4666667},{"id":2086999,"name":"mitirapa","country":"pf","lat":-17.7333333,"lon":-149.3},{"id":2086974,"name":"maaea","country":"pf","lat":-17.75,"lon":-149.3666667},{"id":2086906,"name":"faatautia","country":"pf","lat":-17.6333333,"lon":-149.3166667},{"id":2087075,"name":"paturoa","country":"pf","lat":-17.7333333,"lon":-149.2},{"id":2087124,"name":"taravao","country":"pf","lat":-17.7333333,"lon":-149.3166667},{"id":2086985,"name":"maraeapai","country":"pf","lat":-17.7333333,"lon":-149.2666667},{"id":2087134,"name":"teahupo","country":"pf","lat":-17.8333333,"lon":-149.2666667}]});