callback({"markets":[{"id":1844807,"name":"hicheegiin dugang","country":"mn","lat":49.9166667,"lon":106.25},{"id":1842843,"name":"bayan hara","country":"mn","lat":49.915,"lon":106.1866667},{"id":1843544,"name":"ch\u0027ia-k\u0027o-t\u0027u","country":"mn","lat":50.3155556,"lon":106.4986111},{"id":2537990,"name":"torgan-usinskaya","country":"ru","lat":50.429722,"lon":106.033611},{"id":1844241,"name":"dzuunburen","country":"mn","lat":50.0675,"lon":105.8805556},{"id":1843242,"name":"buduun","country":"mn","lat":50.1,"lon":105.7833333},{"id":1847240,"name":"togotuin dugang","country":"mn","lat":49.8,"lon":106.0833333},{"id":1846525,"name":"orkhon","country":"mn","lat":49.8325,"lon":106.1363889},{"id":1842619,"name":"banga","country":"mn","lat":50.0,"lon":105.6666667},{"id":1848033,"name":"ulyasuty-dugun","country":"mn","lat":50.0833333,"lon":106.1666667},{"id":1844619,"name":"hadatayn bayshin","country":"mn","lat":50.2166667,"lon":105.75},{"id":2419846,"name":"khoronkhoy","country":"ru","lat":50.468611,"lon":106.1525},{"id":2379943,"name":"botsiy","country":"ru","lat":50.4758,"lon":105.6523},{"id":1845149,"name":"ingital","country":"mn","lat":49.6666667,"lon":105.8166667},{"id":2440965,"name":"kyakhta","country":"ru","lat":50.350833,"lon":106.449444},{"id":1843792,"name":"darkhan","country":"mn","lat":49.6166667,"lon":106.35},{"id":1845206,"name":"javhlant","country":"mn","lat":49.6666667,"lon":106.3333333},{"id":2539737,"name":"tsagan-aral","country":"ru","lat":50.333333,"lon":106.066667},{"id":2441600,"name":"lager","country":"ru","lat":50.45,"lon":106.4},{"id":1844753,"name":"hashiatu sumu","country":"mn","lat":49.5,"lon":105.6166667},{"id":1843881,"name":"delgerhaan","country":"mn","lat":50.1038889,"lon":106.1916667},{"id":1845151,"name":"inshete tala","country":"mn","lat":49.65,"lon":105.9166667},{"id":1846790,"name":"shabartayn-dugan","country":"mn","lat":49.55,"lon":105.5},{"id":1847003,"name":"suhe batar","country":"mn","lat":50.2313889,"lon":106.2077778},{"id":1847558,"name":"tserengiyn-dugan","country":"mn","lat":50.25,"lon":106.4166667},{"id":2465447,"name":"naushki","country":"ru","lat":50.382778,"lon":106.105556},{"id":1845488,"name":"khittyn bayshing","country":"mn","lat":49.75,"lon":105.5666667}]});