callback({"markets":[{"id":2097001,"name":"paku","country":"pg","lat":-7.5166667,"lon":145.4333333},{"id":2091177,"name":"hepea","country":"pg","lat":-7.7666667,"lon":145.4833333},{"id":2091005,"name":"haiara","country":"pg","lat":-7.8833333,"lon":145.3833333},{"id":2091438,"name":"iarivill","country":"pg","lat":-7.6833333,"lon":145.0666667},{"id":2095422,"name":"miae","country":"pg","lat":-7.9,"lon":145.3833333},{"id":2089896,"name":"ebala","country":"pg","lat":-7.5333333,"lon":145.1666667},{"id":2095542,"name":"mirimairau","country":"pg","lat":-7.6333333,"lon":144.5833333},{"id":2091095,"name":"harevavo","country":"pg","lat":-7.85,"lon":145.2833333},{"id":2092263,"name":"kamaua","country":"pg","lat":-7.6,"lon":144.7666667},{"id":2092673,"name":"kauravi","country":"pg","lat":-7.7666667,"lon":144.8666667},{"id":2094981,"name":"mapaio","country":"pg","lat":-7.65,"lon":145.05},{"id":2096676,"name":"old iari","country":"pg","lat":-7.6666667,"lon":145.15},{"id":2097382,"name":"poiva","country":"pg","lat":-7.9333333,"lon":145.4666667},{"id":2100011,"name":"varia","country":"pg","lat":-7.7833333,"lon":144.95},{"id":2092993,"name":"kilave","country":"pg","lat":-7.7666667,"lon":145.2666667},{"id":2090027,"name":"epebiamo","country":"pg","lat":-7.95,"lon":145.4833333},{"id":2096870,"name":"orokolo","country":"pg","lat":-7.8666667,"lon":145.3166667},{"id":2090088,"name":"evarra","country":"pg","lat":-7.5833333,"lon":144.95},{"id":2087336,"name":"ahia","country":"pg","lat":-7.6833333,"lon":145.45},{"id":2091103,"name":"harora","country":"pg","lat":-7.9166667,"lon":145.4833333},{"id":2092402,"name":"kapai","country":"pg","lat":-7.8166667,"lon":145.1166667},{"id":2091873,"name":"ivira","country":"pg","lat":-7.85,"lon":145.2},{"id":2088846,"name":"bivaro","country":"pg","lat":-7.7833333,"lon":145.25},{"id":2087375,"name":"aikavaravi","country":"pg","lat":-7.6833333,"lon":145.1333333},{"id":2087860,"name":"arihavo","country":"pg","lat":-7.85,"lon":145.3},{"id":2094254,"name":"larihairu","country":"pg","lat":-7.85,"lon":145.3166667},{"id":2095730,"name":"moravamu","country":"pg","lat":-7.6,"lon":144.75},{"id":2096806,"name":"opa","country":"pg","lat":-7.8833333,"lon":145.45},{"id":2099994,"name":"vailala west","country":"pg","lat":-7.9333333,"lon":145.4166667},{"id":2087786,"name":"apiope","country":"pg","lat":-7.85,"lon":145.1666667},{"id":2094451,"name":"little upoia","country":"pg","lat":-7.6666667,"lon":145.45},{"id":2092114,"name":"kaimare","country":"pg","lat":-7.75,"lon":144.8833333},{"id":2097719,"name":"ravikivau number 1","country":"pg","lat":-7.65,"lon":145.15},{"id":2096982,"name":"pairera","country":"pg","lat":-7.8333333,"lon":145.3333333},{"id":2087471,"name":"akoma","country":"pg","lat":-7.8166667,"lon":145.0333333},{"id":2092538,"name":"karokaro","country":"pg","lat":-7.9166667,"lon":145.4333333},{"id":2088138,"name":"avioua","country":"pg","lat":-7.7833333,"lon":144.5},{"id":2093981,"name":"kwaipea","country":"pg","lat":-7.8,"lon":145.3333333},{"id":2087842,"name":"arehava 2","country":"pg","lat":-7.8333333,"lon":145.2833333},{"id":2096725,"name":"omaumere","country":"pg","lat":-7.5833333,"lon":144.6},{"id":2092164,"name":"kakarravi","country":"pg","lat":-7.8,"lon":145.0},{"id":2091145,"name":"heawoa","country":"pg","lat":-7.7166667,"lon":145.45},{"id":2099914,"name":"urika","country":"pg","lat":-7.8,"lon":145.0666667},{"id":2093119,"name":"kivaumai number 1","country":"pg","lat":-7.65,"lon":144.6666667},{"id":2096426,"name":"nomu","country":"pg","lat":-7.85,"lon":145.2166667},{"id":2091175,"name":"hepa","country":"pg","lat":-7.55,"lon":145.45},{"id":2093488,"name":"koravaki","country":"pg","lat":-7.55,"lon":144.8833333},{"id":2094376,"name":"lepokera","country":"pg","lat":-7.9,"lon":145.4166667},{"id":2094653,"name":"maiaki","country":"pg","lat":-7.6,"lon":144.65},{"id":2092154,"name":"kaivu","country":"pg","lat":-7.5333333,"lon":144.6333333},{"id":2099992,"name":"vailala kukipi","country":"pg","lat":-7.9333333,"lon":145.4},{"id":2094659,"name":"maiara","country":"pg","lat":-7.6,"lon":144.6166667},{"id":2093061,"name":"kinomere","country":"pg","lat":-7.5833333,"lon":144.6166667},{"id":2096993,"name":"pakawabu","country":"pg","lat":-7.8833333,"lon":145.3666667},{"id":2088283,"name":"baimuru","country":"pg","lat":-7.5,"lon":144.8166667},{"id":2093195,"name":"kogiki","country":"pg","lat":-7.6666667,"lon":145.0666667},{"id":2094253,"name":"lariau","country":"pg","lat":-7.8666667,"lon":145.35},{"id":2099993,"name":"vailala","country":"pg","lat":-7.95,"lon":145.45},{"id":2092527,"name":"karimia","country":"pg","lat":-7.6,"lon":144.6333333},{"id":2095068,"name":"mareke","country":"pg","lat":-7.85,"lon":145.3333333},{"id":2097715,"name":"ravikaupara","country":"pg","lat":-7.6666667,"lon":145.1333333},{"id":2087780,"name":"apiapi","country":"pg","lat":-7.8166667,"lon":145.1333333},{"id":2087425,"name":"aivei","country":"pg","lat":-7.8333333,"lon":145.15},{"id":2094550,"name":"lui","country":"pg","lat":-7.9166667,"lon":145.45},{"id":2095099,"name":"maripepea","country":"pg","lat":-7.5333333,"lon":144.6833333},{"id":2093210,"name":"koialahu","country":"pg","lat":-7.95,"lon":145.4666667},{"id":2088563,"name":"beara","country":"pg","lat":-7.55,"lon":144.9},{"id":2088115,"name":"avavu","country":"pg","lat":-7.7833333,"lon":145.2666667},{"id":2100009,"name":"varaibari","country":"pg","lat":-7.65,"lon":144.5},{"id":2092136,"name":"kairava","country":"pg","lat":-7.7,"lon":145.4666667},{"id":2095534,"name":"mira","country":"pg","lat":-7.75,"lon":144.85},{"id":2089508,"name":"damaibari","country":"pg","lat":-7.6666667,"lon":144.55},{"id":2099990,"name":"vailala east","country":"pg","lat":-7.95,"lon":145.4166667},{"id":2092137,"name":"kairimai","country":"pg","lat":-7.5666667,"lon":144.9833333},{"id":2093056,"name":"kinipu","country":"pg","lat":-7.7666667,"lon":144.95},{"id":2093120,"name":"kivaumai number 2","country":"pg","lat":-7.65,"lon":144.65},{"id":2093684,"name":"kukora","country":"pg","lat":-7.5833333,"lon":145.4666667},{"id":2094179,"name":"lali","country":"pg","lat":-7.6666667,"lon":145.2333333},{"id":2091221,"name":"hiloi","country":"pg","lat":-7.9,"lon":145.4666667},{"id":2097783,"name":"romilly sawmill","country":"pg","lat":-7.5833333,"lon":144.9666667},{"id":2095907,"name":"muro mission","country":"pg","lat":-7.8,"lon":145.2666667},{"id":2087892,"name":"aroaro","country":"pg","lat":-7.8166667,"lon":145.4},{"id":2092404,"name":"kapai number 2","country":"pg","lat":-7.8166667,"lon":145.1},{"id":2096882,"name":"orovoi","country":"pg","lat":-7.7333333,"lon":145.4333333},{"id":2094708,"name":"maipenaru","country":"pg","lat":-7.8,"lon":145.0833333},{"id":2097193,"name":"peavora","country":"pg","lat":-7.7833333,"lon":145.4333333},{"id":2094466,"name":"lohiki","country":"pg","lat":-7.6666667,"lon":145.4833333},{"id":2091547,"name":"ihu","country":"pg","lat":-7.9166667,"lon":145.4},{"id":2087467,"name":"a-ki-ravi","country":"pg","lat":-7.6,"lon":145.0},{"id":2097521,"name":"pularia","country":"pg","lat":-7.9,"lon":145.4333333},{"id":2097721,"name":"ravikivau","country":"pg","lat":-7.7666667,"lon":145.1833333},{"id":2087787,"name":"apiravi","country":"pg","lat":-7.7833333,"lon":144.8833333}]});