callback({"markets":[{"id":3130708,"name":"matolong","country":"za","lat":-27.581154,"lon":24.753119},{"id":3125694,"name":"diretsaneng","country":"za","lat":-27.581112,"lon":24.641916},{"id":3135002,"name":"taungs","country":"za","lat":-27.531126,"lon":24.786587},{"id":3130404,"name":"manokwane","country":"za","lat":-27.552921,"lon":24.801011},{"id":3131407,"name":"mokgareng","country":"za","lat":-27.55989,"lon":24.693157},{"id":3130077,"name":"magogong","country":"za","lat":-27.654717,"lon":24.815276},{"id":3125170,"name":"christiana","country":"za","lat":-27.914023,"lon":25.161111},{"id":3131511,"name":"mookaothupa","country":"za","lat":-27.628121,"lon":24.609502},{"id":3136152,"name":"westhuyzen","country":"za","lat":-27.516667,"lon":25.483333},{"id":3130050,"name":"magagaaphiri","country":"za","lat":-27.683333,"lon":24.8},{"id":3134525,"name":"smith\u0027s mine","country":"za","lat":-28.25,"lon":24.516667},{"id":3124225,"name":"bankdrif","country":"za","lat":-27.690609,"lon":24.676007},{"id":3135413,"name":"tswedintlhe","country":"za","lat":-27.533333,"lon":24.833333},{"id":3135178,"name":"thota va tau","country":"za","lat":-28.066855,"lon":24.544372},{"id":3128247,"name":"khibitswane","country":"za","lat":-27.521135,"lon":24.765081},{"id":3130161,"name":"majeng","country":"za","lat":-28.141788,"lon":24.609726},{"id":3125313,"name":"content","country":"za","lat":-28.233333,"lon":24.85},{"id":3133001,"name":"pampierstad","country":"za","lat":-27.783235,"lon":24.687685},{"id":3129647,"name":"lokammona","country":"za","lat":-27.587744,"lon":24.652821},{"id":3134160,"name":"sekhing","country":"za","lat":-27.845609,"lon":24.62813},{"id":3130767,"name":"mayeakgoro","country":"za","lat":-27.783333,"lon":24.666667},{"id":3135157,"name":"thomeng","country":"za","lat":-27.694875,"lon":24.60376},{"id":3133206,"name":"pitsong","country":"za","lat":-27.594276,"lon":24.86554},{"id":3129690,"name":"losasaneno","country":"za","lat":-28.023955,"lon":24.530752},{"id":3126470,"name":"futchersplaas","country":"za","lat":-28.233333,"lon":24.716667},{"id":3126651,"name":"ga-mokake","country":"za","lat":-27.599096,"lon":24.846411},{"id":3136014,"name":"warrenton","country":"za","lat":-28.113955,"lon":24.847526},{"id":3131627,"name":"motsweding","country":"za","lat":-27.692762,"lon":24.669066},{"id":3130403,"name":"manoko","country":"za","lat":-27.566667,"lon":24.8},{"id":3128502,"name":"kokomeng","country":"za","lat":-27.627085,"lon":25.050065},{"id":3133151,"name":"pholoholo","country":"za","lat":-27.637282,"lon":24.983529},{"id":3129666,"name":"longaneng","country":"za","lat":-27.628313,"lon":24.944278},{"id":3126850,"name":"geelblom","country":"za","lat":-27.75,"lon":25.1},{"id":3127425,"name":"hartswater","country":"za","lat":-27.749639,"lon":24.797115},{"id":3136253,"name":"windsorton","country":"za","lat":-28.333333,"lon":24.716667},{"id":3130416,"name":"manthestad","country":"za","lat":-27.554268,"lon":24.893668},{"id":3131606,"name":"mothanthanyaneng","country":"za","lat":-27.661968,"lon":24.906812},{"id":3130467,"name":"maphoitsile","country":"za","lat":-27.594025,"lon":24.797234},{"id":3129753,"name":"lower mayeakgoro","country":"za","lat":-27.776547,"lon":24.661646},{"id":3133150,"name":"pholofolo","country":"za","lat":-27.666667,"lon":25.016667},{"id":3135765,"name":"veertien strome","country":"za","lat":-28.066667,"lon":24.883333},{"id":3125669,"name":"dikhuting","country":"za","lat":-27.632693,"lon":24.862107},{"id":3126723,"name":"ganspan","country":"za","lat":-27.970009,"lon":24.76184},{"id":3134982,"name":"talsen","country":"za","lat":-28.012446,"lon":25.355524},{"id":3131588,"name":"moshoso","country":"za","lat":-27.546771,"lon":24.882512},{"id":3131437,"name":"mololema","country":"za","lat":-27.655803,"lon":25.00485},{"id":3133804,"name":"rooiwal","country":"za","lat":-27.568754,"lon":24.726284},{"id":3131403,"name":"mokasa i","country":"za","lat":-27.627675,"lon":24.7007},{"id":3136252,"name":"windsortonweg","country":"za","lat":-28.34646,"lon":24.822117},{"id":3128407,"name":"klipdam","country":"za","lat":-28.324721,"lon":24.655585},{"id":3125830,"name":"drift hotel","country":"za","lat":-28.083333,"lon":24.866667},{"id":3135461,"name":"tweelingspan","country":"za","lat":-27.55874,"lon":25.005324},{"id":3130318,"name":"mammutla","country":"za","lat":-28.069679,"lon":24.517544},{"id":3131402,"name":"mokasa ii","country":"za","lat":-27.610067,"lon":24.677203},{"id":3129549,"name":"lethola","country":"za","lat":-27.55,"lon":24.766667},{"id":3126252,"name":"erickswill","country":"za","lat":-28.283333,"lon":25.4},{"id":3134968,"name":"takaneng","country":"za","lat":-27.587104,"lon":24.614407},{"id":3124027,"name":"andalusia","country":"za","lat":-27.922456,"lon":24.830515},{"id":3132476,"name":"norlim","country":"za","lat":-27.616667,"lon":24.633333},{"id":3134986,"name":"tamasikwa","country":"za","lat":-27.612965,"lon":24.609708},{"id":3135713,"name":"valspan","country":"za","lat":-27.915503,"lon":24.813784},{"id":3134128,"name":"sedu kung","country":"za","lat":-27.658889,"lon":24.95439}]});