callback({"markets":[{"id":2492522,"name":"pokoyniki","country":"ru","lat":53.7,"lon":109.016667},{"id":2461311,"name":"monakhovo","country":"ru","lat":53.65,"lon":109.05},{"id":2362235,"name":"angakan","country":"ru","lat":53.833333,"lon":109.05},{"id":2438650,"name":"kurbulik","country":"ru","lat":53.716667,"lon":109.1},{"id":2562981,"name":"yelizikha","country":"ru","lat":53.6,"lon":108.9},{"id":2437658,"name":"kulikov","country":"ru","lat":53.616667,"lon":108.916667},{"id":2549155,"name":"vaulino","country":"ru","lat":53.566667,"lon":109.483333},{"id":2572897,"name":"zorina","country":"ru","lat":53.516667,"lon":109.366667},{"id":2415585,"name":"katun","country":"ru","lat":53.683333,"lon":109.066667},{"id":2387503,"name":"chivyrkuy","country":"ru","lat":53.866667,"lon":109.283333}]});