callback({"markets":[{"id":1949942,"name":"chefe paxua","country":"mz","lat":-16.1405556,"lon":38.3219444},{"id":1958985,"name":"morracha","country":"mz","lat":-15.8747222,"lon":37.7183333},{"id":1963531,"name":"regulo inturro","country":"mz","lat":-16.3025,"lon":37.6447222},{"id":1949115,"name":"chefe inchoro","country":"mz","lat":-16.1113889,"lon":37.5947222},{"id":1950092,"name":"chefe tavera","country":"mz","lat":-16.1902778,"lon":38.0869444},{"id":1960124,"name":"murrua","country":"mz","lat":-16.3172222,"lon":37.9302778},{"id":1957836,"name":"meconela","country":"mz","lat":-16.2355556,"lon":37.5502778},{"id":1954769,"name":"loliva","country":"mz","lat":-16.2,"lon":37.95},{"id":1946395,"name":"arria","country":"mz","lat":-16.4233333,"lon":37.7352778},{"id":1964051,"name":"saite","country":"mz","lat":-15.5583333,"lon":37.8325},{"id":1949761,"name":"chefe namaica","country":"mz","lat":-16.1827778,"lon":38.3036111},{"id":1965359,"name":"tocome","country":"mz","lat":-15.6552778,"lon":38.0552778},{"id":1961222,"name":"napalaca","country":"mz","lat":-15.9936111,"lon":37.7830556},{"id":1959509,"name":"mucorra","country":"mz","lat":-15.6330556,"lon":37.7405556},{"id":1963783,"name":"requele","country":"mz","lat":-15.7630556,"lon":37.7716667},{"id":1960490,"name":"nacolo","country":"mz","lat":-16.0647222,"lon":37.5366667},{"id":1955550,"name":"macuo","country":"mz","lat":-16.3794444,"lon":37.7744444},{"id":1947035,"name":"bulela","country":"mz","lat":-16.1833333,"lon":37.7169444},{"id":1958283,"name":"metala","country":"mz","lat":-16.4702778,"lon":37.6952778},{"id":1946351,"name":"apua","country":"mz","lat":-15.7422222,"lon":38.0508333},{"id":1958727,"name":"mnissa","country":"mz","lat":-15.6133333,"lon":37.8416667},{"id":1960548,"name":"nacuo","country":"mz","lat":-15.8358333,"lon":37.9002778},{"id":1965149,"name":"techantechorro","country":"mz","lat":-16.3844444,"lon":37.9794444},{"id":1960368,"name":"muzalo","country":"mz","lat":-15.9630556,"lon":37.5738889},{"id":1962039,"name":"nicuatua","country":"mz","lat":-15.6908333,"lon":37.795},{"id":1962041,"name":"nicucuamare","country":"mz","lat":-15.88,"lon":38.3972222},{"id":1962509,"name":"pambuela","country":"mz","lat":-15.745,"lon":38.2555556},{"id":1959960,"name":"munembo","country":"mz","lat":-15.7755556,"lon":37.6913889},{"id":1960426,"name":"nacalaua","country":"mz","lat":-16.1991667,"lon":37.7786111},{"id":1958025,"name":"menauarrane","country":"mz","lat":-16.0797222,"lon":37.5247222},{"id":1964000,"name":"sacatchi","country":"mz","lat":-15.53,"lon":37.5905556},{"id":1959804,"name":"muinamba","country":"mz","lat":-15.5533333,"lon":38.3069444},{"id":1956212,"name":"malesso","country":"mz","lat":-15.85,"lon":38.4333333},{"id":1949804,"name":"chefe napacala","country":"mz","lat":-16.05,"lon":38.0616667},{"id":1962346,"name":"oliva","country":"mz","lat":-15.6733333,"lon":37.7416667},{"id":1960731,"name":"namanca","country":"mz","lat":-15.6791667,"lon":37.8361111},{"id":1947305,"name":"cabo mario","country":"mz","lat":-16.205,"lon":38.2563889},{"id":1965682,"name":"uaila","country":"mz","lat":-16.2622222,"lon":38.1136111},{"id":1949729,"name":"chefe mutequela","country":"mz","lat":-16.2144444,"lon":38.0238889},{"id":1957824,"name":"mecoeciua","country":"mz","lat":-16.2005556,"lon":37.6619444},{"id":1966083,"name":"vaissele","country":"mz","lat":-16.2830556,"lon":38.2347222},{"id":1949985,"name":"chefe queba","country":"mz","lat":-16.1219444,"lon":38.2672222},{"id":1958987,"name":"morra","country":"mz","lat":-15.9955556,"lon":38.1961111},{"id":1963691,"name":"regulo namurrua","country":"mz","lat":-16.33,"lon":38.2108333},{"id":1953838,"name":"iocalima","country":"mz","lat":-16.0872222,"lon":38.0691667},{"id":1959123,"name":"m\u0027tala","country":"mz","lat":-15.9269444,"lon":37.7986111},{"id":1960274,"name":"mutela","country":"mz","lat":-15.5275,"lon":37.5888889},{"id":1953813,"name":"inrule","country":"mz","lat":-15.9630556,"lon":38.3747222},{"id":1949569,"name":"chefe mualua","country":"mz","lat":-16.3130556,"lon":37.5522222},{"id":1965282,"name":"tila","country":"mz","lat":-15.5591667,"lon":38.4783333},{"id":1960473,"name":"nachirre","country":"mz","lat":-15.5458333,"lon":37.7191667},{"id":1949693,"name":"chefe munhoga","country":"mz","lat":-16.4225,"lon":37.6202778},{"id":1947247,"name":"cabo macama","country":"mz","lat":-16.2136111,"lon":38.3536111},{"id":1961241,"name":"napeta","country":"mz","lat":-16.1752778,"lon":38.1675},{"id":1960922,"name":"namirropa","country":"mz","lat":-15.7091667,"lon":37.5805556},{"id":1965776,"name":"uaparrolha","country":"mz","lat":-16.0666667,"lon":37.9047222},{"id":1965875,"name":"uelela","country":"mz","lat":-16.0030556,"lon":37.9727778},{"id":1951582,"name":"colue","country":"mz","lat":-15.785,"lon":37.6661111},{"id":1949127,"name":"chefe intimua","country":"mz","lat":-16.2491667,"lon":37.5691667},{"id":1964103,"name":"samassoa","country":"mz","lat":-16.3272222,"lon":37.6113889},{"id":1962243,"name":"novanana","country":"mz","lat":-15.7563889,"lon":37.7741667},{"id":1951674,"name":"conea","country":"mz","lat":-15.8108333,"lon":38.4166667},{"id":1952730,"name":"fernando","country":"mz","lat":-16.1166667,"lon":38.3863889},{"id":1961352,"name":"natopue","country":"mz","lat":-16.3155556,"lon":37.7527778},{"id":1961312,"name":"nassecua","country":"mz","lat":-16.0325,"lon":37.9188889},{"id":1956932,"name":"marreca","country":"mz","lat":-16.2477778,"lon":37.6525},{"id":1965154,"name":"techera","country":"mz","lat":-16.1358333,"lon":37.8588889},{"id":1949339,"name":"chefe manepa","country":"mz","lat":-16.285,"lon":38.0713889},{"id":1961651,"name":"nhacaua","country":"mz","lat":-16.4605556,"lon":37.7025},{"id":1958999,"name":"morrua","country":"mz","lat":-16.2672222,"lon":37.8722222},{"id":1956912,"name":"marques","country":"mz","lat":-16.2355556,"lon":38.3983333},{"id":1960231,"name":"mutala","country":"mz","lat":-15.9166667,"lon":37.8533333},{"id":1949501,"name":"chefe mina","country":"mz","lat":-16.2922222,"lon":37.5236111},{"id":1958576,"name":"mimale","country":"mz","lat":-15.7444444,"lon":38.3180556},{"id":1949131,"name":"chefe invassel","country":"mz","lat":-16.2633333,"lon":38.2444444},{"id":1961263,"name":"napua","country":"mz","lat":-16.0105556,"lon":37.5477778},{"id":1959203,"name":"mualea","country":"mz","lat":-15.9655556,"lon":38.4711111},{"id":1952433,"name":"ecole","country":"mz","lat":-15.5397222,"lon":37.6638889},{"id":1949697,"name":"chefe muoro","country":"mz","lat":-16.3513889,"lon":37.6166667},{"id":1959745,"name":"mugulama","country":"mz","lat":-16.0322222,"lon":37.5269444},{"id":1951662,"name":"conco","country":"mz","lat":-15.9144444,"lon":37.8891667},{"id":1951576,"name":"coloma","country":"mz","lat":-15.6747222,"lon":37.6},{"id":1961315,"name":"nasseruma","country":"mz","lat":-16.0416667,"lon":37.5544444},{"id":1949953,"name":"chefe pilima","country":"mz","lat":-16.1483333,"lon":38.2372222},{"id":1959615,"name":"mueihiua","country":"mz","lat":-15.8041667,"lon":38.4502778},{"id":1960977,"name":"nampua","country":"mz","lat":-15.9847222,"lon":37.6325},{"id":1952499,"name":"entata","country":"mz","lat":-15.8258333,"lon":38.3536111},{"id":1963316,"name":"ranhea","country":"mz","lat":-15.7905556,"lon":38.2936111},{"id":1948141,"name":"casua","country":"mz","lat":-15.7227778,"lon":38.1527778},{"id":1960936,"name":"namoga","country":"mz","lat":-16.3166667,"lon":38.4},{"id":1952976,"name":"garcia","country":"mz","lat":-16.0030556,"lon":37.5258333},{"id":1960340,"name":"muuco","country":"mz","lat":-16.0122222,"lon":38.0505556},{"id":1963837,"name":"rixoa","country":"mz","lat":-15.9436111,"lon":37.8016667},{"id":1949589,"name":"chefe muatiua","country":"mz","lat":-16.0841667,"lon":37.6213889},{"id":1956809,"name":"maquina","country":"mz","lat":-16.3213889,"lon":37.9094444},{"id":1960424,"name":"nacala","country":"mz","lat":-15.6980556,"lon":38.2836111},{"id":1960126,"name":"murruanlepa","country":"mz","lat":-15.6263889,"lon":38.4011111},{"id":1958506,"name":"miali","country":"mz","lat":-16.2511111,"lon":38.0327778},{"id":1961281,"name":"naputo","country":"mz","lat":-15.9733333,"lon":37.5472222},{"id":1960431,"name":"nacama","country":"mz","lat":-16.1663889,"lon":37.6183333},{"id":1965158,"name":"techocolo","country":"mz","lat":-16.2661111,"lon":38.0666667},{"id":1965705,"name":"ualiua","country":"mz","lat":-15.5475,"lon":38.3005556},{"id":1965778,"name":"uape","country":"mz","lat":-16.0930556,"lon":38.0286111},{"id":1962876,"name":"pimpao","country":"mz","lat":-15.6930556,"lon":37.6738889},{"id":1958137,"name":"mepula","country":"mz","lat":-15.9927778,"lon":37.515},{"id":1960116,"name":"murroa","country":"mz","lat":-15.8113889,"lon":37.5797222},{"id":1963364,"name":"raul","country":"mz","lat":-16.2933333,"lon":38.0827778},{"id":1961024,"name":"namuilasse","country":"mz","lat":-15.7319444,"lon":37.5127778},{"id":1958350,"name":"metequela","country":"mz","lat":-16.3697222,"lon":37.9683333},{"id":1949776,"name":"chefe namigo","country":"mz","lat":-16.0683333,"lon":38.1744444},{"id":1966304,"name":"vinte","country":"mz","lat":-16.2319444,"lon":37.9894444},{"id":1960851,"name":"namela","country":"mz","lat":-15.6161111,"lon":37.7572222},{"id":1957506,"name":"maulo","country":"mz","lat":-16.0272222,"lon":38.3483333},{"id":1951593,"name":"comaliana","country":"mz","lat":-16.3047222,"lon":37.8263889},{"id":1961982,"name":"nicaca","country":"mz","lat":-15.6605556,"lon":37.5625},{"id":1950136,"name":"chefe uape","country":"mz","lat":-16.1133333,"lon":38.0816667},{"id":1966017,"name":"upua","country":"mz","lat":-16.2527778,"lon":37.7075},{"id":1948943,"name":"chefe chivere","country":"mz","lat":-16.1841667,"lon":38.3219444},{"id":1961023,"name":"namuila","country":"mz","lat":-15.6227778,"lon":37.7108333},{"id":1959944,"name":"munalili","country":"mz","lat":-15.9861111,"lon":37.8477778},{"id":1962247,"name":"novateiua","country":"mz","lat":-16.0980556,"lon":37.7586111},{"id":1946119,"name":"alto lighona","country":"mz","lat":-15.5116667,"lon":38.2591667},{"id":1954182,"name":"joaquim","country":"mz","lat":-16.1636111,"lon":37.8322222},{"id":1961439,"name":"ncolocha","country":"mz","lat":-15.5,"lon":37.9666667},{"id":1959841,"name":"muite","country":"mz","lat":-15.6063889,"lon":37.9572222},{"id":1950119,"name":"chefe tucumela","country":"mz","lat":-16.2755556,"lon":37.9016667},{"id":1946183,"name":"amice","country":"mz","lat":-16.2347222,"lon":38.0997222},{"id":1951259,"name":"chocolo","country":"mz","lat":-15.7394444,"lon":37.6855556},{"id":1957276,"name":"materre","country":"mz","lat":-16.4577778,"lon":37.5205556},{"id":1949791,"name":"chefe namurramue","country":"mz","lat":-16.2847222,"lon":37.6327778},{"id":1949609,"name":"chefe mucaua","country":"mz","lat":-16.0280556,"lon":38.405},{"id":1966196,"name":"vetiua","country":"mz","lat":-16.3311111,"lon":37.6297222},{"id":1960269,"name":"mutechemua","country":"mz","lat":-16.3322222,"lon":37.8308333},{"id":1965409,"name":"tome","country":"mz","lat":-16.2941667,"lon":37.5677778},{"id":1960292,"name":"mutia","country":"mz","lat":-15.7411111,"lon":38.3847222},{"id":1952450,"name":"elate","country":"mz","lat":-16.2219444,"lon":38.395},{"id":1952435,"name":"econe","country":"mz","lat":-15.7116667,"lon":37.7069444},{"id":1964348,"name":"secoliua","country":"mz","lat":-16.0666667,"lon":37.6158333},{"id":1950015,"name":"chefe ripa","country":"mz","lat":-16.2852778,"lon":37.98},{"id":1965002,"name":"tatano","country":"mz","lat":-15.6286111,"lon":37.9086111},{"id":1948285,"name":"cavala","country":"mz","lat":-15.7577778,"lon":38.4658333},{"id":1960533,"name":"nacuco","country":"mz","lat":-16.3175,"lon":37.8025},{"id":1961363,"name":"natuva","country":"mz","lat":-15.6944444,"lon":37.6497222},{"id":1963339,"name":"rapua","country":"mz","lat":-15.905,"lon":38.2783333},{"id":1949621,"name":"chefe mucolo","country":"mz","lat":-16.0069444,"lon":37.8780556},{"id":1950149,"name":"chefe urrapa","country":"mz","lat":-16.0219444,"lon":37.6291667},{"id":1948967,"name":"chefe colia","country":"mz","lat":-16.2025,"lon":37.7258333},{"id":1955692,"name":"maeco","country":"mz","lat":-15.9211111,"lon":37.6408333},{"id":1954677,"name":"linda","country":"mz","lat":-16.05,"lon":37.935},{"id":1947131,"name":"cabo cavala","country":"mz","lat":-16.1944444,"lon":38.3088889},{"id":1962072,"name":"nimala","country":"mz","lat":-15.5491667,"lon":37.5413889},{"id":1963204,"name":"quimeca","country":"mz","lat":-15.9408333,"lon":37.8294444},{"id":1954933,"name":"maara","country":"mz","lat":-16.1375,"lon":38.0997222},{"id":1963649,"name":"regulo mugulama","country":"mz","lat":-16.0719444,"lon":37.5886111},{"id":1956351,"name":"mamuca","country":"mz","lat":-16.2155556,"lon":37.6652778},{"id":1962066,"name":"nihuro","country":"mz","lat":-15.8586111,"lon":37.8663889},{"id":1959065,"name":"m\u0027pama","country":"mz","lat":-15.5038889,"lon":37.6725},{"id":1949327,"name":"chefe malolo","country":"mz","lat":-16.3375,"lon":37.7044444},{"id":1960963,"name":"nampassa","country":"mz","lat":-16.2572222,"lon":37.5372222},{"id":1950257,"name":"cherrea","country":"mz","lat":-15.7266667,"lon":37.7688889},{"id":1960137,"name":"murrula","country":"mz","lat":-16.1472222,"lon":37.6022222},{"id":1958213,"name":"messaiua","country":"mz","lat":-16.3180556,"lon":37.7736111},{"id":1954232,"name":"jomali","country":"mz","lat":-16.2166667,"lon":37.8333333},{"id":1961256,"name":"napo","country":"mz","lat":-15.6969444,"lon":38.335},{"id":1949952,"name":"chefe pilicue","country":"mz","lat":-16.0488889,"lon":38.4},{"id":1960724,"name":"namalue","country":"mz","lat":-15.695,"lon":37.8016667},{"id":1960281,"name":"mutequela","country":"mz","lat":-16.2797222,"lon":38.0225},{"id":1963932,"name":"rui fabula","country":"mz","lat":-16.2461111,"lon":38.0733333},{"id":1954291,"name":"jose","country":"mz","lat":-16.0194444,"lon":37.8883333},{"id":1961458,"name":"necauane","country":"mz","lat":-16.1594444,"lon":37.6036111},{"id":1959400,"name":"mucarrea","country":"mz","lat":-15.6072222,"lon":37.7230556},{"id":1945522,"name":"acampamento sena sugar","country":"mz","lat":-16.4261111,"lon":37.5383333},{"id":1961920,"name":"nheaarra","country":"mz","lat":-16.2469444,"lon":37.5391667},{"id":1960721,"name":"namalocanha","country":"mz","lat":-16.3511111,"lon":37.7763889},{"id":1949316,"name":"chefe malalela","country":"mz","lat":-16.3608333,"lon":37.6038889},{"id":1959403,"name":"mucata","country":"mz","lat":-16.1347222,"lon":37.5661111},{"id":1962160,"name":"nivila","country":"mz","lat":-16.4258333,"lon":37.6072222},{"id":1950006,"name":"chefe rataue","country":"mz","lat":-16.3425,"lon":37.5902778},{"id":1952028,"name":"cussupa","country":"mz","lat":-16.1613889,"lon":38.2708333},{"id":1963811,"name":"richoa","country":"mz","lat":-15.7780556,"lon":37.6163889},{"id":1965826,"name":"uatepa","country":"mz","lat":-16.4127778,"lon":37.9697222},{"id":1960774,"name":"namarripa","country":"mz","lat":-15.7175,"lon":37.7330556},{"id":1959534,"name":"mucubelo","country":"mz","lat":-16.3,"lon":37.6},{"id":1949109,"name":"chefe impolia","country":"mz","lat":-16.4986111,"lon":37.6872222},{"id":1958187,"name":"merreca","country":"mz","lat":-16.1836111,"lon":37.6344444},{"id":1965697,"name":"ualeleca","country":"mz","lat":-15.7130556,"lon":37.8416667},{"id":1949675,"name":"chefe muleviva","country":"mz","lat":-16.115,"lon":37.6733333},{"id":1959900,"name":"mulevala","country":"mz","lat":-16.4330556,"lon":37.5927778},{"id":1961335,"name":"natarre","country":"mz","lat":-16.0527778,"lon":37.6452778},{"id":1962477,"name":"palame","country":"mz","lat":-16.1191667,"lon":38.4427778},{"id":1951490,"name":"cocarra","country":"mz","lat":-16.2741667,"lon":37.5272222},{"id":1958849,"name":"molocue","country":"mz","lat":-15.6355556,"lon":37.6883333},{"id":1964270,"name":"sapari","country":"mz","lat":-16.2366667,"lon":37.6708333},{"id":1960536,"name":"nacueia","country":"mz","lat":-16.2566667,"lon":37.7333333},{"id":1950045,"name":"chefe santos","country":"mz","lat":-16.0230556,"lon":38.0344444},{"id":1954669,"name":"lima","country":"mz","lat":-15.94,"lon":37.5377778},{"id":1963849,"name":"roanacua","country":"mz","lat":-16.1152778,"lon":37.725},{"id":1964786,"name":"sulevai","country":"mz","lat":-16.42,"lon":37.5752778},{"id":1960100,"name":"murrela","country":"mz","lat":-15.6438889,"lon":38.3855556},{"id":1964278,"name":"saraiva","country":"mz","lat":-16.2072222,"lon":38.4838889},{"id":1956858,"name":"maria","country":"mz","lat":-16.2086111,"lon":37.6727778},{"id":1957763,"name":"mecanico","country":"mz","lat":-15.6008333,"lon":37.7305556},{"id":1948053,"name":"carpinteiro","country":"mz","lat":-16.0558333,"lon":38.085},{"id":1955139,"name":"macarrar","country":"mz","lat":-15.7166667,"lon":37.5613889},{"id":1956049,"name":"maipeca","country":"mz","lat":-15.8519444,"lon":37.6480556},{"id":1962736,"name":"pedro","country":"mz","lat":-15.9388889,"lon":38.3261111},{"id":1960885,"name":"nametuma","country":"mz","lat":-16.2652778,"lon":37.7025},{"id":1950127,"name":"chefe uaila","country":"mz","lat":-16.2569444,"lon":38.1330556},{"id":1953830,"name":"invassel","country":"mz","lat":-16.2602778,"lon":38.2552778},{"id":1961994,"name":"nicaraua","country":"mz","lat":-15.6180556,"lon":37.8158333},{"id":1963654,"name":"regulo mulevala","country":"mz","lat":-16.4577778,"lon":37.5108333},{"id":1960084,"name":"murracanha","country":"mz","lat":-15.7391667,"lon":37.7261111},{"id":1963674,"name":"regulo nahuo","country":"mz","lat":-16.1355556,"lon":38.2336111},{"id":1950097,"name":"chefe teniua","country":"mz","lat":-16.0213889,"lon":38.2333333},{"id":1960410,"name":"nabula","country":"mz","lat":-16.2602778,"lon":38.3383333},{"id":1961588,"name":"neturro","country":"mz","lat":-16.2994444,"lon":37.6458333},{"id":1959579,"name":"mucuti","country":"mz","lat":-16.3919444,"lon":37.6408333},{"id":1960320,"name":"mutui","country":"mz","lat":-16.0383333,"lon":37.5927778},{"id":1961874,"name":"nharuco","country":"mz","lat":-16.3238889,"lon":37.9622222},{"id":1948977,"name":"chefe conco","country":"mz","lat":-16.2022222,"lon":38.4727778},{"id":1960902,"name":"namigo","country":"mz","lat":-16.0019444,"lon":38.1655556},{"id":1961099,"name":"nanepa","country":"mz","lat":-16.4166667,"lon":37.5166667},{"id":1948793,"name":"chefe cacoitiano","country":"mz","lat":-16.2338889,"lon":37.9016667},{"id":1949795,"name":"chefe nancorro","country":"mz","lat":-16.3111111,"lon":37.5897222},{"id":1949516,"name":"chefe mitucula","country":"mz","lat":-16.2283333,"lon":37.6688889},{"id":1962070,"name":"niirrimua","country":"mz","lat":-16.4677778,"lon":37.8119444},{"id":1963756,"name":"regulo tuturro","country":"mz","lat":-16.4086111,"lon":37.5066667},{"id":1965012,"name":"taua","country":"mz","lat":-15.6208333,"lon":37.7941667},{"id":1949931,"name":"chefe pangai","country":"mz","lat":-16.2072222,"lon":38.2938889},{"id":1949924,"name":"chefe pacar","country":"mz","lat":-16.1622222,"lon":37.7094444},{"id":1948750,"name":"chefe baessa","country":"mz","lat":-16.2297222,"lon":38.3036111},{"id":1961207,"name":"naoloxe","country":"mz","lat":-15.9525,"lon":37.7038889},{"id":1963636,"name":"regulo mucata","country":"mz","lat":-16.2016667,"lon":37.6822222},{"id":1964778,"name":"sulai","country":"mz","lat":-16.2313889,"lon":38.0272222},{"id":1953046,"name":"gile","country":"mz","lat":-16.145,"lon":38.3711111},{"id":1960909,"name":"namingo","country":"mz","lat":-16.0891667,"lon":38.1744444},{"id":1953543,"name":"ielo","country":"mz","lat":-15.8455556,"lon":38.3619444},{"id":1965796,"name":"uarrica","country":"mz","lat":-15.9347222,"lon":38.2933333},{"id":1966152,"name":"vavia","country":"mz","lat":-15.505,"lon":37.5544444},{"id":1955422,"name":"maco","country":"mz","lat":-16.1319444,"lon":37.7044444},{"id":1963699,"name":"regulo napido","country":"mz","lat":-16.2941667,"lon":37.9322222},{"id":1959763,"name":"muiaiaga","country":"mz","lat":-15.7352778,"lon":38.3558333},{"id":1948986,"name":"chefe correia","country":"mz","lat":-16.2625,"lon":37.6063889},{"id":1964705,"name":"sopamutur","country":"mz","lat":-16.0813889,"lon":38.0833333},{"id":1965691,"name":"ualane","country":"mz","lat":-15.9688889,"lon":37.5980556},{"id":1959437,"name":"muchema","country":"mz","lat":-15.5355556,"lon":37.8072222},{"id":1965944,"name":"umpua","country":"mz","lat":-15.9680556,"lon":38.4427778},{"id":1956284,"name":"malua","country":"mz","lat":-15.6783333,"lon":37.6063889},{"id":1963929,"name":"rufine","country":"mz","lat":-16.0919444,"lon":38.1691667},{"id":1958928,"name":"monteia","country":"mz","lat":-16.1661111,"lon":38.1577778},{"id":1950132,"name":"chefe ualiua","country":"mz","lat":-16.0433333,"lon":38.4366667},{"id":1963466,"name":"regula","country":"mz","lat":-15.9947222,"lon":37.76},{"id":1959985,"name":"munhale","country":"mz","lat":-15.8069444,"lon":37.5386111},{"id":1959390,"name":"mucanheia","country":"mz","lat":-15.9625,"lon":37.6613889},{"id":1966531,"name":"zamotiua","country":"mz","lat":-16.1355556,"lon":37.5869444},{"id":1965366,"name":"tocuene","country":"mz","lat":-15.5544444,"lon":37.7211111},{"id":1948835,"name":"chefe castela","country":"mz","lat":-16.0105556,"lon":38.2888889},{"id":1949077,"name":"chefe girimula","country":"mz","lat":-16.0886111,"lon":38.3969444},{"id":1956978,"name":"marruria","country":"mz","lat":-15.8397222,"lon":38.1791667},{"id":1948998,"name":"chefe cudupa","country":"mz","lat":-16.2969444,"lon":37.5341667},{"id":1962614,"name":"parage","country":"mz","lat":-16.0797222,"lon":37.8872222},{"id":1961255,"name":"napito","country":"mz","lat":-16.4516667,"lon":37.9119444},{"id":1959272,"name":"muano","country":"mz","lat":-15.7583333,"lon":38.0791667},{"id":1949702,"name":"chefe muquela","country":"mz","lat":-16.1783333,"lon":38.4630556},{"id":1963673,"name":"regulo nadala","country":"mz","lat":-16.3675,"lon":37.6386111},{"id":1950100,"name":"chefe tibiua","country":"mz","lat":-16.4905556,"lon":37.6458333},{"id":1957835,"name":"mecona","country":"mz","lat":-16.0519444,"lon":37.5519444},{"id":1952536,"name":"erripa","country":"mz","lat":-16.4727778,"lon":37.9358333},{"id":1949414,"name":"chefe matagala","country":"mz","lat":-16.4494444,"lon":37.5452778},{"id":1949032,"name":"chefe domingo","country":"mz","lat":-16.1102778,"lon":38.4319444},{"id":1951623,"name":"comeria","country":"mz","lat":-16.2333333,"lon":37.9833333},{"id":1960140,"name":"murruma","country":"mz","lat":-16.1363889,"lon":37.5666667},{"id":1959087,"name":"m\u0027peue","country":"mz","lat":-15.9855556,"lon":37.6738889},{"id":1949097,"name":"chefe harrabela","country":"mz","lat":-16.3952778,"lon":37.7080556},{"id":1948925,"name":"chefe chipia","country":"mz","lat":-16.2411111,"lon":38.2711111},{"id":1961399,"name":"navanana","country":"mz","lat":-15.7852778,"lon":37.77},{"id":1965199,"name":"tenda","country":"mz","lat":-16.0038889,"lon":38.3336111},{"id":1949505,"name":"chefe mipito","country":"mz","lat":-16.3902778,"lon":37.5902778},{"id":1960094,"name":"murravorro","country":"mz","lat":-15.5647222,"lon":37.7261111},{"id":1946268,"name":"anecone","country":"mz","lat":-16.2622222,"lon":37.9680556},{"id":1949570,"name":"chefe muamarrumela","country":"mz","lat":-16.2669444,"lon":37.6494444},{"id":1949812,"name":"chefe napoxocola","country":"mz","lat":-16.1069444,"lon":38.1313889},{"id":1958411,"name":"metotoa","country":"mz","lat":-16.3016667,"lon":37.7483333},{"id":1962077,"name":"nimoli","country":"mz","lat":-16.0394444,"lon":37.6772222},{"id":1963640,"name":"regulo mucubela","country":"mz","lat":-16.3438889,"lon":37.7602778},{"id":1948957,"name":"chefe claudio","country":"mz","lat":-16.1327778,"lon":38.4241667},{"id":1959839,"name":"muitemere","country":"mz","lat":-15.6144444,"lon":37.9375},{"id":1950060,"name":"chefe seriuaro","country":"mz","lat":-16.2491667,"lon":38.1413889},{"id":1965902,"name":"uisque","country":"mz","lat":-16.1761111,"lon":38.245},{"id":1966174,"name":"velha","country":"mz","lat":-15.9147222,"lon":37.7658333},{"id":1958290,"name":"metama","country":"mz","lat":-15.5772222,"lon":37.5816667},{"id":1959335,"name":"muaua","country":"mz","lat":-15.7033333,"lon":37.8888889},{"id":1957829,"name":"mecolome","country":"mz","lat":-16.2261111,"lon":38.0058333},{"id":1965365,"name":"tocua","country":"mz","lat":-15.8972222,"lon":37.8130556},{"id":1960535,"name":"nacuea","country":"mz","lat":-15.8983333,"lon":37.8475},{"id":1964974,"name":"tapiua","country":"mz","lat":-15.5827778,"lon":37.7483333},{"id":1956927,"name":"marrapo","country":"mz","lat":-16.3997222,"lon":37.6830556},{"id":1949272,"name":"chefe maeria","country":"mz","lat":-16.025,"lon":38.4625},{"id":1951811,"name":"cristo rei","country":"mz","lat":-16.2280556,"lon":38.0291667},{"id":1961367,"name":"naua","country":"mz","lat":-16.1658333,"lon":38.2183333},{"id":1949044,"name":"chefe ecotol","country":"mz","lat":-16.2197222,"lon":37.6383333},{"id":1962015,"name":"nicomo","country":"mz","lat":-15.5125,"lon":37.5725},{"id":1956933,"name":"marreco","country":"mz","lat":-16.2666667,"lon":37.65},{"id":1951768,"name":"costa","country":"mz","lat":-15.6372222,"lon":37.5611111},{"id":1963923,"name":"rucula","country":"mz","lat":-15.915,"lon":37.7383333},{"id":1947567,"name":"cagema","country":"mz","lat":-16.0288889,"lon":38.1116667},{"id":1951729,"name":"coroa","country":"mz","lat":-16.3541667,"lon":37.6063889},{"id":1959566,"name":"mucumua","country":"mz","lat":-15.7675,"lon":38.2794444},{"id":1961210,"name":"naorra","country":"mz","lat":-15.8916667,"lon":38.3311111},{"id":1957390,"name":"matos","country":"mz","lat":-15.8266667,"lon":37.5605556},{"id":1960341,"name":"muue","country":"mz","lat":-16.3002778,"lon":37.6319444},{"id":1957777,"name":"mecena","country":"mz","lat":-15.5180556,"lon":38.2802778},{"id":1947907,"name":"cantoneiro","country":"mz","lat":-16.0730556,"lon":38.3930556},{"id":1956632,"name":"manueba","country":"mz","lat":-16.4833333,"lon":38.45},{"id":1953588,"name":"incane","country":"mz","lat":-16.2186111,"lon":38.2138889},{"id":1950009,"name":"chefe raul","country":"mz","lat":-16.2161111,"lon":38.3305556},{"id":1947764,"name":"campiria","country":"mz","lat":-15.9080556,"lon":37.6452778},{"id":1965837,"name":"uatua","country":"mz","lat":-16.0947222,"lon":38.0836111},{"id":1961247,"name":"napipe","country":"mz","lat":-16.0494444,"lon":37.5975},{"id":1963890,"name":"ropia","country":"mz","lat":-16.1163889,"lon":38.2016667},{"id":1965416,"name":"tomote","country":"mz","lat":-16.2786111,"lon":38.0827778},{"id":1959665,"name":"mueria","country":"mz","lat":-15.6372222,"lon":37.5702778},{"id":1962392,"name":"orapula","country":"mz","lat":-16.3,"lon":37.56},{"id":1965488,"name":"trigo","country":"mz","lat":-15.6763889,"lon":37.6861111},{"id":1949944,"name":"chefe pedro","country":"mz","lat":-16.0077778,"lon":38.3338889},{"id":1959396,"name":"mucare","country":"mz","lat":-16.045,"lon":37.6786111},{"id":1963528,"name":"regulo inlocoa","country":"mz","lat":-16.0930556,"lon":38.4430556},{"id":1949138,"name":"chefe jaime","country":"mz","lat":-16.2080556,"lon":38.2341667},{"id":1949814,"name":"chefe napula","country":"mz","lat":-16.3161111,"lon":37.5688889},{"id":1945596,"name":"ainhecio","country":"mz","lat":-16.1344444,"lon":38.1408333},{"id":1963701,"name":"regulo napula","country":"mz","lat":-16.2091667,"lon":38.3458333},{"id":1966123,"name":"vanhiua","country":"mz","lat":-16.0791667,"lon":37.9505556},{"id":1960677,"name":"namacuafo","country":"mz","lat":-15.7458333,"lon":37.7777778},{"id":1955518,"name":"maculi","country":"mz","lat":-15.5936111,"lon":37.61},{"id":1965695,"name":"ualefa","country":"mz","lat":-15.7436111,"lon":37.7083333},{"id":1959855,"name":"muixana","country":"mz","lat":-15.6452778,"lon":37.8777778},{"id":1963533,"name":"regulo jajo","country":"mz","lat":-16.27,"lon":37.5191667},{"id":1964288,"name":"sareia","country":"mz","lat":-16.21,"lon":37.7427778},{"id":1955886,"name":"magueia","country":"mz","lat":-15.5363889,"lon":37.6236111},{"id":1959325,"name":"muatiua","country":"mz","lat":-16.0838889,"lon":37.7480556},{"id":1945523,"name":"acamp montegiro","country":"mz","lat":-16.1386111,"lon":38.3861111},{"id":1949980,"name":"chefe pupe","country":"mz","lat":-16.1686111,"lon":38.3861111},{"id":1964026,"name":"saguati","country":"mz","lat":-16.3652778,"lon":37.7336111},{"id":1958197,"name":"merrua","country":"mz","lat":-16.3327778,"lon":38.1369444}]});