callback({"markets":[{"id":2061949,"name":"bahuanizo","country":"pe","lat":-8.5166667,"lon":-74.4166667},{"id":2062591,"name":"caimito","country":"pe","lat":-8.8580556,"lon":-74.3138889},{"id":2082504,"name":"santa fe","country":"pe","lat":-8.7355556,"lon":-74.0536111},{"id":2082622,"name":"santa rosa de dinamarca","country":"pe","lat":-8.6922222,"lon":-74.4138889},{"id":2078288,"name":"pashaininti","country":"pe","lat":-8.7605556,"lon":-74.1763889},{"id":2085318,"name":"tushma","country":"pe","lat":-8.6358333,"lon":-74.3769444},{"id":2086075,"name":"vinoncuro","country":"pe","lat":-8.8575,"lon":-74.0261111},{"id":2074223,"name":"limon","country":"pe","lat":-8.5152778,"lon":-74.4041667},{"id":2076734,"name":"nuevo bagazan","country":"pe","lat":-8.5297222,"lon":-74.3822222},{"id":2064351,"name":"chacra","country":"pe","lat":-9.35,"lon":-73.7666667},{"id":2083979,"name":"tamaya","country":"pe","lat":-8.5822222,"lon":-74.2422222},{"id":2068681,"name":"fundo charasmana","country":"pe","lat":-8.6761111,"lon":-74.2219444},{"id":2086152,"name":"vista alegre","country":"pe","lat":-8.7666667,"lon":-74.4955556},{"id":2079772,"name":"puerto eduardo","country":"pe","lat":-8.5166667,"lon":-74.3333333},{"id":2086081,"name":"vinuncura","country":"pe","lat":-8.8,"lon":-73.9666667},{"id":2076698,"name":"nuaya","country":"pe","lat":-8.8333333,"lon":-73.65},{"id":2071152,"name":"huariman","country":"pe","lat":-8.7833333,"lon":-73.7833333},{"id":2061958,"name":"bajo masisea","country":"pe","lat":-9.3666667,"lon":-74.3833333},{"id":2068252,"name":"el tambo","country":"pe","lat":-8.8594444,"lon":-74.1433333},{"id":2078040,"name":"panuco","country":"pe","lat":-8.8008333,"lon":-74.2002778},{"id":2079101,"name":"platanal","country":"pe","lat":-8.8166667,"lon":-73.6666667},{"id":2082203,"name":"san miguel agua blanca","country":"pe","lat":-8.7066667,"lon":-74.0061111},{"id":2079749,"name":"puerto consuelo","country":"pe","lat":-8.5030556,"lon":-74.2747222},{"id":2076730,"name":"nuevo ancash","country":"pe","lat":-8.5727778,"lon":-74.2491667},{"id":2085083,"name":"tres islas","country":"pe","lat":-8.5341667,"lon":-74.2741667},{"id":2085564,"name":"union vecinal","country":"pe","lat":-8.8516667,"lon":-74.2133333},{"id":2072850,"name":"junin pablo","country":"pe","lat":-8.8508333,"lon":-74.1977778},{"id":2064758,"name":"charasmama","country":"pe","lat":-8.6919444,"lon":-74.2036111},{"id":2083785,"name":"tabacoas","country":"pe","lat":-9.15,"lon":-74.4333333},{"id":2080184,"name":"purin","country":"pe","lat":-8.7686111,"lon":-74.1930556},{"id":2076735,"name":"nuevo barranco","country":"pe","lat":-8.5238889,"lon":-74.3908333},{"id":2084054,"name":"tambo nuevo","country":"pe","lat":-9.3833333,"lon":-73.9166667},{"id":2074161,"name":"libertad","country":"pe","lat":-8.7116667,"lon":-74.0411111},{"id":2064586,"name":"chanajao","country":"pe","lat":-8.5116667,"lon":-74.4377778},{"id":2080200,"name":"purma gomez","country":"pe","lat":-9.4166667,"lon":-73.7166667},{"id":2062354,"name":"buenos aires","country":"pe","lat":-8.8413889,"lon":-74.3961111},{"id":2079393,"name":"preferida","country":"pe","lat":-8.6644444,"lon":-74.2430556},{"id":2084433,"name":"tercera union","country":"pe","lat":-8.5136111,"lon":-74.3855556},{"id":2077657,"name":"palmera","country":"pe","lat":-8.6455556,"lon":-74.4158333},{"id":2082983,"name":"senor de los milagros","country":"pe","lat":-8.7925,"lon":-74.2091667},{"id":2079689,"name":"puerto alfonzo","country":"pe","lat":-8.5,"lon":-74.35},{"id":2073114,"name":"la colpa","country":"pe","lat":-9.3666667,"lon":-73.8333333},{"id":2062390,"name":"cabana","country":"pe","lat":-8.9422222,"lon":-74.4952778},{"id":2064120,"name":"ceilan","country":"pe","lat":-8.6266667,"lon":-74.2741667},{"id":2062123,"name":"bella flor","country":"pe","lat":-8.8513889,"lon":-74.2669444},{"id":2082115,"name":"san juan","country":"pe","lat":-8.505,"lon":-74.4138889},{"id":2075524,"name":"masisea","country":"pe","lat":-8.6052778,"lon":-74.3047222},{"id":2085802,"name":"vargas llosa","country":"pe","lat":-8.5425,"lon":-74.2575},{"id":2063516,"name":"carumana","country":"pe","lat":-8.7327778,"lon":-74.1733333},{"id":2076751,"name":"nuevo loreto","country":"pe","lat":-8.8763889,"lon":-74.3530556},{"id":2082582,"name":"santa maria","country":"pe","lat":-8.5811111,"lon":-74.3786111},{"id":2080038,"name":"pumancaya","country":"pe","lat":-9.15,"lon":-74.4666667},{"id":2082138,"name":"san lorenzo","country":"pe","lat":-8.5294444,"lon":-74.4194444},{"id":2072004,"name":"indio piro","country":"pe","lat":-8.8333333,"lon":-73.6333333},{"id":2079687,"name":"puerto alegre","country":"pe","lat":-8.7213889,"lon":-74.1788889},{"id":2068358,"name":"escuela","country":"pe","lat":-8.5063889,"lon":-74.3569444}]});