callback({"markets":[{"id":1888374,"name":"llano grande","country":"mx","lat":22.966667,"lon":-104.4},{"id":1903585,"name":"remedios","country":"mx","lat":23.4,"lon":-103.833333},{"id":1916568,"name":"valle de ameca","country":"mx","lat":23.25,"lon":-104.033333},{"id":1889960,"name":"los moros","country":"mx","lat":22.766667,"lon":-104.1},{"id":1897594,"name":"piedras azules","country":"mx","lat":23.433333,"lon":-103.916667},{"id":1893594,"name":"muralla","country":"mx","lat":22.716667,"lon":-103.983333},{"id":1890127,"name":"los perez","country":"mx","lat":22.833333,"lon":-103.883333},{"id":1905285,"name":"san antonio de padua","country":"mx","lat":22.566667,"lon":-103.85},{"id":1865223,"name":"chilapa","country":"mx","lat":22.85,"lon":-104.433333},{"id":1886996,"name":"la soyatera","country":"mx","lat":22.566667,"lon":-104.283333},{"id":1892084,"name":"mesa del cristo","country":"mx","lat":22.683333,"lon":-103.816667},{"id":1871280,"name":"el chorro","country":"mx","lat":23.016667,"lon":-103.775},{"id":1915379,"name":"tonala","country":"mx","lat":23.316667,"lon":-104.0},{"id":1870201,"name":"el astillero","country":"mx","lat":22.641667,"lon":-103.625},{"id":1877249,"name":"francisco i. madero","country":"mx","lat":22.65,"lon":-104.283333},{"id":1867517,"name":"corralito","country":"mx","lat":23.016667,"lon":-104.0},{"id":1892167,"name":"mesa la gloria","country":"mx","lat":23.116667,"lon":-104.3},{"id":1886391,"name":"las flores","country":"mx","lat":22.85,"lon":-104.366667},{"id":1859576,"name":"aserradero los charcos","country":"mx","lat":23.016667,"lon":-104.3},{"id":1857730,"name":"agua fria de arriba","country":"mx","lat":22.8,"lon":-103.583333},{"id":1863273,"name":"capulin de la sierra","country":"mx","lat":22.816667,"lon":-103.583333},{"id":1878276,"name":"guajolotes","country":"mx","lat":23.083333,"lon":-103.633333},{"id":1877560,"name":"gambula","country":"mx","lat":22.75,"lon":-103.55},{"id":1897254,"name":"pereyra","country":"mx","lat":23.0,"lon":-103.633333},{"id":1882238,"name":"la campana","country":"mx","lat":23.0,"lon":-103.5},{"id":1899287,"name":"puerta de cadena","country":"mx","lat":22.866667,"lon":-103.5},{"id":1871634,"name":"el credito","country":"mx","lat":23.05,"lon":-103.716667},{"id":1870747,"name":"el capulin","country":"mx","lat":22.933333,"lon":-104.366667},{"id":1858300,"name":"aleman","country":"mx","lat":23.35,"lon":-104.166667},{"id":1871744,"name":"el cuitaste","country":"mx","lat":22.85,"lon":-104.166667},{"id":1859827,"name":"atotonilco","country":"mx","lat":22.783333,"lon":-103.583333},{"id":1858735,"name":"ameca","country":"mx","lat":22.933333,"lon":-104.016667},{"id":1879850,"name":"huixtle","country":"mx","lat":22.633333,"lon":-103.916667},{"id":1903516,"name":"refugio de los pozos","country":"mx","lat":23.15,"lon":-103.733333},{"id":1857897,"name":"agua zarca","country":"mx","lat":23.166667,"lon":-104.466667},{"id":1914525,"name":"tierras coloradas","country":"mx","lat":22.833333,"lon":-104.366667},{"id":1916865,"name":"ventanas","country":"mx","lat":23.166667,"lon":-103.833333},{"id":1912722,"name":"tapetatita","country":"mx","lat":23.091667,"lon":-103.916667},{"id":1895317,"name":"oregano","country":"mx","lat":22.8,"lon":-104.05},{"id":1885937,"name":"las atarjeas","country":"mx","lat":22.633333,"lon":-103.625},{"id":1886937,"name":"la soledad del sur","country":"mx","lat":23.375,"lon":-103.891667},{"id":1908168,"name":"san martin de la palma","country":"mx","lat":22.7,"lon":-103.55},{"id":1914555,"name":"tigres","country":"mx","lat":22.55,"lon":-103.7},{"id":1859413,"name":"arroyo del agua","country":"mx","lat":23.383333,"lon":-103.7},{"id":1904250,"name":"romerillo","country":"mx","lat":22.65,"lon":-103.583333},{"id":1889897,"name":"los medina","country":"mx","lat":22.966667,"lon":-104.066667},{"id":1906666,"name":"san jeronimo","country":"mx","lat":22.683333,"lon":-104.433333},{"id":1892731,"name":"minillas","country":"mx","lat":22.5,"lon":-103.65},{"id":1863596,"name":"carrizalillo","country":"mx","lat":23.016667,"lon":-103.85},{"id":1916007,"name":"tulillo","country":"mx","lat":22.5,"lon":-104.083333},{"id":1892402,"name":"mezquital","country":"mx","lat":23.483333,"lon":-104.383333},{"id":1872587,"name":"el indio","country":"mx","lat":23.133333,"lon":-103.933333},{"id":1886772,"name":"las margaritas","country":"mx","lat":23.283333,"lon":-104.283333},{"id":1912153,"name":"taberna","country":"mx","lat":22.666667,"lon":-104.35},{"id":1882221,"name":"la camotita","country":"mx","lat":23.116667,"lon":-103.95},{"id":1880653,"name":"jamaica","country":"mx","lat":22.875,"lon":-103.5},{"id":1907721,"name":"san juan","country":"mx","lat":23.45,"lon":-104.133333},{"id":1905243,"name":"san antonio de los bancos","country":"mx","lat":23.15,"lon":-103.8},{"id":1900642,"name":"rancho de arriba","country":"mx","lat":22.55,"lon":-103.516667},{"id":1876840,"name":"estancia de san nicolas","country":"mx","lat":22.5,"lon":-103.833333},{"id":1891146,"name":"manga del chorro","country":"mx","lat":23.033333,"lon":-103.683333},{"id":1886084,"name":"las canoas","country":"mx","lat":22.616667,"lon":-104.3},{"id":1884862,"name":"la nopalera","country":"mx","lat":23.05,"lon":-103.991667},{"id":1875080,"name":"el saltito","country":"mx","lat":22.833333,"lon":-104.033333},{"id":1896585,"name":"paso de corrales","country":"mx","lat":23.2,"lon":-103.666667},{"id":1874462,"name":"el puentillo","country":"mx","lat":22.9,"lon":-104.1},{"id":1860342,"name":"bajio soto","country":"mx","lat":22.8,"lon":-103.716667},{"id":1903131,"name":"ranchos las bonitas","country":"mx","lat":22.85,"lon":-104.283333},{"id":1913355,"name":"temascal","country":"mx","lat":23.4,"lon":-104.233333},{"id":1863047,"name":"canelos","country":"mx","lat":22.95,"lon":-104.041667},{"id":1884100,"name":"la junta","country":"mx","lat":22.516667,"lon":-103.65},{"id":1861208,"name":"blurnenheim","country":"mx","lat":23.2,"lon":-103.533333},{"id":1890425,"name":"los tanques","country":"mx","lat":22.608333,"lon":-104.033333},{"id":1869671,"name":"ejido nino artillero","country":"mx","lat":23.2,"lon":-103.5},{"id":1886009,"name":"las bocas","country":"mx","lat":23.45,"lon":-103.7},{"id":1908919,"name":"san pedro de la sierra","country":"mx","lat":22.775,"lon":-103.95},{"id":1863896,"name":"cayetano","country":"mx","lat":22.65,"lon":-103.95},{"id":1893392,"name":"morga","country":"mx","lat":23.35,"lon":-104.266667},{"id":1889224,"name":"los chaires","country":"mx","lat":22.9,"lon":-103.916667},{"id":1857138,"name":"acalita de ameca","country":"mx","lat":22.816667,"lon":-104.083333},{"id":1880957,"name":"jimulco","country":"mx","lat":22.666667,"lon":-103.916667},{"id":1914671,"name":"tinaja","country":"mx","lat":22.833333,"lon":-103.966667},{"id":1877454,"name":"gachontita","country":"mx","lat":22.716667,"lon":-104.466667},{"id":1907084,"name":"san jose de los ranchos","country":"mx","lat":23.466667,"lon":-103.783333},{"id":1858773,"name":"amoles","country":"mx","lat":23.016667,"lon":-104.45},{"id":1890174,"name":"los pinos","country":"mx","lat":22.85,"lon":-104.05},{"id":1881245,"name":"joyitas","country":"mx","lat":22.8,"lon":-104.45},{"id":1886373,"name":"las espinas","country":"mx","lat":22.65,"lon":-104.483333},{"id":1859460,"name":"arroyo hondo","country":"mx","lat":23.183333,"lon":-104.433333},{"id":1871712,"name":"el cucharillo","country":"mx","lat":22.658333,"lon":-104.191667},{"id":1889109,"name":"los bueyes","country":"mx","lat":22.566667,"lon":-104.233333},{"id":1914503,"name":"tierra limpia","country":"mx","lat":23.216667,"lon":-103.5},{"id":1886788,"name":"las marias","country":"mx","lat":22.666667,"lon":-104.05},{"id":1879477,"name":"huazamota","country":"mx","lat":22.633333,"lon":-104.45},{"id":1890902,"name":"magueyitos","country":"mx","lat":22.616667,"lon":-104.433333},{"id":1912002,"name":"soyate","country":"mx","lat":22.683333,"lon":-104.283333},{"id":1888934,"name":"los amotes","country":"mx","lat":22.55,"lon":-104.166667},{"id":1896673,"name":"paso del rio","country":"mx","lat":22.533333,"lon":-103.5},{"id":1886939,"name":"la soledad de piedra","country":"mx","lat":23.425,"lon":-103.933333},{"id":1876520,"name":"escobedo","country":"mx","lat":23.033333,"lon":-103.833333},{"id":1887600,"name":"la tinaja","country":"mx","lat":22.583333,"lon":-103.566667},{"id":1861094,"name":"bernalejo","country":"mx","lat":22.7,"lon":-104.216667},{"id":1860320,"name":"bajio del pino","country":"mx","lat":22.983333,"lon":-103.616667},{"id":1907937,"name":"san lucas del valle","country":"mx","lat":22.866667,"lon":-103.716667},{"id":1865778,"name":"ciano de arriba","country":"mx","lat":22.783333,"lon":-103.516667},{"id":1877519,"name":"gallegos","country":"mx","lat":22.633333,"lon":-103.683333},{"id":1873901,"name":"el paso de huazamota","country":"mx","lat":22.65,"lon":-104.05},{"id":1904168,"name":"robles","country":"mx","lat":23.15,"lon":-104.45},{"id":1892632,"name":"mimbre","country":"mx","lat":22.866667,"lon":-103.55},{"id":1904908,"name":"san agustin del vergel","country":"mx","lat":22.8,"lon":-103.5},{"id":1915364,"name":"tonalampa","country":"mx","lat":22.633333,"lon":-104.433333},{"id":1900691,"name":"rancho de los reyes","country":"mx","lat":22.766667,"lon":-103.55},{"id":1877676,"name":"gavilanes","country":"mx","lat":22.716667,"lon":-104.25},{"id":1889006,"name":"los arroyos del agua","country":"mx","lat":22.666667,"lon":-103.966667},{"id":1891416,"name":"maria teresa","country":"mx","lat":22.9,"lon":-104.016667},{"id":1894798,"name":"obscuras","country":"mx","lat":22.683333,"lon":-104.4},{"id":1867853,"name":"cruces","country":"mx","lat":22.7,"lon":-103.666667},{"id":1865777,"name":"ciano de abajo","country":"mx","lat":22.783333,"lon":-103.533333},{"id":1877603,"name":"garcia","country":"mx","lat":22.65,"lon":-103.833333},{"id":1875051,"name":"el salitre","country":"mx","lat":23.416667,"lon":-104.416667},{"id":1895060,"name":"ojo de agua la batea","country":"mx","lat":23.183333,"lon":-103.616667},{"id":1889636,"name":"los hornillos","country":"mx","lat":22.95,"lon":-103.933333},{"id":1873155,"name":"el mesteno","country":"mx","lat":23.45,"lon":-103.683333},{"id":1882397,"name":"la carretas","country":"mx","lat":23.1,"lon":-103.9},{"id":1874778,"name":"el resbalon","country":"mx","lat":22.75,"lon":-103.566667},{"id":1879541,"name":"huejuquilla","country":"mx","lat":22.6,"lon":-103.866667},{"id":1883211,"name":"la estacion","country":"mx","lat":23.366667,"lon":-103.6},{"id":1905013,"name":"san andres del teul","country":"mx","lat":23.166667,"lon":-104.083333},{"id":1893337,"name":"morelia de agua zarca","country":"mx","lat":23.366667,"lon":-103.9},{"id":1883658,"name":"laguna de tortugas","country":"mx","lat":23.366667,"lon":-103.8},{"id":1860673,"name":"barranquillas","country":"mx","lat":23.133333,"lon":-103.766667},{"id":1860317,"name":"bajio de los muchachos","country":"mx","lat":22.816667,"lon":-103.75},{"id":1895239,"name":"olvido","country":"mx","lat":23.1,"lon":-104.133333},{"id":1907415,"name":"san juan capistrano","country":"mx","lat":22.616667,"lon":-104.083333},{"id":1863369,"name":"cardenche","country":"mx","lat":22.85,"lon":-104.45},{"id":1912359,"name":"tamales","country":"mx","lat":22.866667,"lon":-104.45},{"id":1872600,"name":"el infierno","country":"mx","lat":23.166667,"lon":-103.916667},{"id":1864553,"name":"chalchihuites","country":"mx","lat":23.483333,"lon":-103.883333},{"id":1872042,"name":"el escritorio","country":"mx","lat":23.433333,"lon":-103.683333},{"id":1883326,"name":"la florida","country":"mx","lat":22.683333,"lon":-103.6},{"id":1875779,"name":"el torzon","country":"mx","lat":22.883333,"lon":-103.833333},{"id":1891348,"name":"margarita","country":"mx","lat":22.583333,"lon":-103.8},{"id":1893609,"name":"muruguate","country":"mx","lat":22.733333,"lon":-104.45},{"id":1907554,"name":"san juan del refugio","country":"mx","lat":23.45,"lon":-103.716667},{"id":1884506,"name":"la margarita","country":"mx","lat":22.6,"lon":-103.816667},{"id":1865807,"name":"cienaga del oro","country":"mx","lat":23.083333,"lon":-104.35},{"id":1886816,"name":"las mesas","country":"mx","lat":22.8,"lon":-104.366667},{"id":1859524,"name":"arroyo verde","country":"mx","lat":23.183333,"lon":-104.166667},{"id":1886837,"name":"las mestenas","country":"mx","lat":23.033333,"lon":-103.75},{"id":1875196,"name":"el saurin","country":"mx","lat":23.066667,"lon":-103.633333},{"id":1886122,"name":"las casas","country":"mx","lat":22.683333,"lon":-103.666667},{"id":1901977,"name":"rancho la silla","country":"mx","lat":22.85,"lon":-104.4},{"id":1889548,"name":"los gavilanes","country":"mx","lat":22.85,"lon":-104.3},{"id":1860306,"name":"bajio del alamito","country":"mx","lat":22.583333,"lon":-104.25},{"id":1910061,"name":"santa isabel","country":"mx","lat":22.583333,"lon":-104.066667},{"id":1882001,"name":"la bonanza","country":"mx","lat":23.266667,"lon":-103.866667},{"id":1864560,"name":"chaliguey","country":"mx","lat":22.716667,"lon":-104.066667},{"id":1912641,"name":"tanque los gatos","country":"mx","lat":22.5,"lon":-103.716667},{"id":1889706,"name":"los jerezanos","country":"mx","lat":23.316667,"lon":-103.983333},{"id":1893009,"name":"molina","country":"mx","lat":23.383333,"lon":-103.866667},{"id":1892416,"name":"mezquite blanco","country":"mx","lat":23.116667,"lon":-103.883333},{"id":1875308,"name":"el sombrero","country":"mx","lat":22.65,"lon":-103.566667},{"id":1862803,"name":"campo uno","country":"mx","lat":23.25,"lon":-103.516667},{"id":1881015,"name":"joconoxtle","country":"mx","lat":23.233333,"lon":-104.433333},{"id":1857395,"name":"adobes","country":"mx","lat":22.6,"lon":-103.833333},{"id":1865242,"name":"chilarillo","country":"mx","lat":22.65,"lon":-104.216667},{"id":1861097,"name":"bernalejo","country":"mx","lat":22.7,"lon":-104.225},{"id":1890024,"name":"los nopales","country":"mx","lat":22.85,"lon":-103.95},{"id":1873229,"name":"el mimbre","country":"mx","lat":23.15,"lon":-103.916667},{"id":1861828,"name":"burros","country":"mx","lat":22.916667,"lon":-104.366667},{"id":1914482,"name":"tierra colorada","country":"mx","lat":23.0,"lon":-104.35},{"id":1907947,"name":"san lucas","country":"mx","lat":22.55,"lon":-104.4},{"id":1916330,"name":"union de chacuaco","country":"mx","lat":22.633333,"lon":-103.558333},{"id":1882590,"name":"la cienaga de toyana","country":"mx","lat":22.933333,"lon":-104.216667},{"id":1891504,"name":"martinez","country":"mx","lat":22.866667,"lon":-104.433333},{"id":1893447,"name":"morucha","country":"mx","lat":23.266667,"lon":-103.816667},{"id":1903376,"name":"ratones","country":"mx","lat":23.233333,"lon":-103.666667},{"id":1875883,"name":"el tulillo","country":"mx","lat":22.525,"lon":-104.216667},{"id":1864473,"name":"chachamoles","country":"mx","lat":22.533333,"lon":-104.4},{"id":1883361,"name":"la fragua","country":"mx","lat":23.05,"lon":-103.6},{"id":1887358,"name":"las tranca","country":"mx","lat":23.05,"lon":-103.8},{"id":1903853,"name":"rincon de san jose de maderas","country":"mx","lat":22.7,"lon":-103.85},{"id":1883664,"name":"laguna el chivo","country":"mx","lat":23.15,"lon":-104.266667},{"id":1871129,"name":"el chapulin","country":"mx","lat":23.45,"lon":-103.816667},{"id":1882637,"name":"la cieneguilla","country":"mx","lat":23.416667,"lon":-103.816667},{"id":1865786,"name":"cienaga","country":"mx","lat":22.766667,"lon":-104.283333},{"id":1858757,"name":"amilpas","country":"mx","lat":23.3,"lon":-104.383333},{"id":1917408,"name":"vinata","country":"mx","lat":23.183333,"lon":-104.25},{"id":1908451,"name":"san miguel de temoaya","country":"mx","lat":23.3,"lon":-104.15},{"id":1898550,"name":"potrero de enmedio","country":"mx","lat":23.216667,"lon":-103.716667},{"id":1864552,"name":"chalchihuites","country":"mx","lat":22.7,"lon":-104.483333},{"id":1911829,"name":"soledad","country":"mx","lat":22.733333,"lon":-104.3},{"id":1909248,"name":"san ramon","country":"mx","lat":22.5,"lon":-103.5},{"id":1892587,"name":"milpas","country":"mx","lat":23.083333,"lon":-104.416667},{"id":1909450,"name":"santa ana de arriba","country":"mx","lat":22.666667,"lon":-103.533333},{"id":1872025,"name":"el ermitano","country":"mx","lat":23.316667,"lon":-103.9},{"id":1911259,"name":"sauces de abajo","country":"mx","lat":23.283333,"lon":-103.816667},{"id":1897131,"name":"penasco blanco","country":"mx","lat":22.833333,"lon":-104.383333},{"id":1888849,"name":"los alamitos","country":"mx","lat":22.833333,"lon":-103.75},{"id":1886115,"name":"las carreras","country":"mx","lat":22.516667,"lon":-103.683333},{"id":1872224,"name":"el gallinero","country":"mx","lat":22.966667,"lon":-103.616667},{"id":1916648,"name":"valparaiso","country":"mx","lat":22.766667,"lon":-103.566667},{"id":1919012,"name":"zocoyol","country":"mx","lat":22.666667,"lon":-104.4},{"id":1875539,"name":"el tejujan","country":"mx","lat":22.766667,"lon":-103.625},{"id":1865896,"name":"cienega san pedro","country":"mx","lat":23.25,"lon":-103.75},{"id":1884164,"name":"la laguna","country":"mx","lat":22.833333,"lon":-104.45},{"id":1862626,"name":"campo dos","country":"mx","lat":23.233333,"lon":-103.533333},{"id":1893884,"name":"navio","country":"mx","lat":22.7,"lon":-104.416667},{"id":1909167,"name":"san rafael de las tablas","country":"mx","lat":22.8,"lon":-104.1},{"id":1897170,"name":"penitas de oriente","country":"mx","lat":22.716667,"lon":-103.5}]});