callback({"markets":[{"id":2380022,"name":"boyarskaya","country":"ru","lat":64.2245,"lon":41.8481},{"id":2448539,"name":"lyshiny","country":"ru","lat":64.2543,"lon":41.8112},{"id":2431306,"name":"kozhinskaya","country":"ru","lat":63.8342,"lon":41.6189},{"id":2566620,"name":"zadvorskaya","country":"ru","lat":63.883333,"lon":41.633333},{"id":2567547,"name":"zalyvye","country":"ru","lat":64.2498,"lon":41.7944},{"id":2538694,"name":"tretya aleksandrovskaya","country":"ru","lat":64.2739,"lon":41.6789},{"id":2470324,"name":"nizhnyaya palenga","country":"ru","lat":64.113632,"lon":42.142832},{"id":2496889,"name":"prilutskoye","country":"ru","lat":63.55,"lon":41.883333},{"id":2469363,"name":"nizhniye karyery","country":"ru","lat":64.0257,"lon":41.7675},{"id":2419355,"name":"kholmogory","country":"ru","lat":64.2229,"lon":41.656},{"id":2520823,"name":"sobino","country":"ru","lat":64.1715,"lon":41.8904},{"id":2420017,"name":"khotchino","country":"ru","lat":64.2016,"lon":41.5855},{"id":2448548,"name":"lysitsa","country":"ru","lat":63.5945,"lon":41.7651},{"id":2556550,"name":"voronovskoye","country":"ru","lat":64.0205,"lon":41.7255},{"id":2374558,"name":"boloto","country":"ru","lat":63.633,"lon":41.7916},{"id":2490954,"name":"podborskaya","country":"ru","lat":63.7978,"lon":41.538},{"id":2572050,"name":"zimnik","country":"ru","lat":64.1348,"lon":41.7404},{"id":2499251,"name":"pustyshi","country":"ru","lat":63.6373,"lon":41.7729},{"id":2413057,"name":"kanzovo","country":"ru","lat":63.8475,"lon":41.6092},{"id":2546427,"name":"ustreka","country":"ru","lat":63.5569,"lon":41.9389},{"id":2362068,"name":"andriyanovskaya","country":"ru","lat":64.221,"lon":41.8655},{"id":2378292,"name":"bolshoy orlets","country":"ru","lat":64.0004,"lon":41.7951},{"id":2551437,"name":"verkhniye karyery","country":"ru","lat":64.0049,"lon":41.8124},{"id":2417990,"name":"kharlovo","country":"ru","lat":64.1846,"lon":41.6557},{"id":2375676,"name":"bolshaya vashkaranda","country":"ru","lat":64.2782,"lon":41.7368},{"id":2371597,"name":"berezy","country":"ru","lat":64.1669,"lon":41.8983},{"id":2538278,"name":"tovra","country":"ru","lat":64.1048,"lon":41.7179},{"id":2472214,"name":"novina","country":"ru","lat":64.2855,"lon":41.8638},{"id":2369906,"name":"belogorskaya","country":"ru","lat":64.194,"lon":41.6125},{"id":2454986,"name":"markovo","country":"ru","lat":64.2426,"lon":41.8399},{"id":2499665,"name":"pyatkovo","country":"ru","lat":63.9467,"lon":41.6907},{"id":2401918,"name":"gorka-ladkovshchina","country":"ru","lat":63.8002,"lon":41.5495},{"id":2374202,"name":"bogoyavlenskaya gorka","country":"ru","lat":64.2739,"lon":41.7259},{"id":2450916,"name":"malaya tovra","country":"ru","lat":64.113,"lon":41.7218},{"id":2549173,"name":"vavchuga","country":"ru","lat":64.2258,"lon":41.9327},{"id":2546803,"name":"ust-yemtsa","country":"ru","lat":63.5367,"lon":41.8757},{"id":2400112,"name":"glukhoye","country":"ru","lat":64.3,"lon":41.833333},{"id":2421414,"name":"kichizhenskoye","country":"ru","lat":64.2539,"lon":41.5174},{"id":2480804,"name":"orletsy","country":"ru","lat":63.9966,"lon":41.7915},{"id":2415103,"name":"kashino","country":"ru","lat":64.2972,"lon":41.728},{"id":2533438,"name":"tarasitsa","country":"ru","lat":63.5196,"lon":41.9437},{"id":2523960,"name":"srednepogostskaya","country":"ru","lat":64.2665,"lon":41.8374},{"id":2400541,"name":"goldobykha","country":"ru","lat":63.9332,"lon":41.6736},{"id":2383339,"name":"bystrokurye","country":"ru","lat":64.1867,"lon":41.8494},{"id":2362044,"name":"andrianovskaya","country":"ru","lat":64.2906,"lon":41.6642},{"id":2546398,"name":"ust-pinega","country":"ru","lat":64.1408,"lon":41.928},{"id":2573289,"name":"zuyevshchina","country":"ru","lat":63.6354,"lon":41.7893},{"id":2469134,"name":"nizhneye zapolye","country":"ru","lat":63.5223,"lon":41.8418},{"id":2465484,"name":"navolochek","country":"ru","lat":63.9181,"lon":41.6431},{"id":2567970,"name":"zapan pechni","country":"ru","lat":64.1271,"lon":41.9526},{"id":2481393,"name":"osina gora","country":"ru","lat":64.2413,"lon":41.7556},{"id":2552361,"name":"verkhnyaya gora","country":"ru","lat":63.7101,"lon":41.5116},{"id":2495700,"name":"potashevskaya vtoraya","country":"ru","lat":64.2714,"lon":41.8345},{"id":2514249,"name":"sheinskaya","country":"ru","lat":64.2958,"lon":41.7012},{"id":2520498,"name":"smolnikovskaya","country":"ru","lat":64.2702,"lon":41.5293},{"id":2557489,"name":"vozhdoroma","country":"ru","lat":64.3366,"lon":41.5105},{"id":2498697,"name":"pukshenga","country":"ru","lat":63.6008,"lon":41.8586},{"id":2559287,"name":"vysokoye","country":"ru","lat":63.6175,"lon":41.6341},{"id":2446203,"name":"lomonosovo","country":"ru","lat":64.2276,"lon":41.7386},{"id":2430657,"name":"kotlovskaya","country":"ru","lat":63.6,"lon":41.883333},{"id":2551109,"name":"verkhneye","country":"ru","lat":63.7959,"lon":41.509},{"id":2439591,"name":"kushevo","country":"ru","lat":64.1819,"lon":41.6711},{"id":2543130,"name":"ugzenga","country":"ru","lat":64.208523,"lon":42.497548},{"id":2569786,"name":"zelenyy gorodok","country":"ru","lat":63.8394,"lon":41.5938},{"id":2384103,"name":"chasovenskoye","country":"ru","lat":63.8109,"lon":41.5191},{"id":2498675,"name":"pukhtakovka","country":"ru","lat":63.9174,"lon":41.6239},{"id":2537385,"name":"toloknovo","country":"ru","lat":63.6276,"lon":41.6198},{"id":2549579,"name":"velikodvorskoye","country":"ru","lat":63.8344,"lon":41.5781},{"id":2514709,"name":"shepitsy","country":"ru","lat":64.1825,"lon":41.8679},{"id":2377348,"name":"bolshoye kuchino","country":"ru","lat":64.2206,"lon":41.8862},{"id":2509766,"name":"selishcha","country":"ru","lat":64.108,"lon":41.7836},{"id":2395450,"name":"elektrostantsiya","country":"ru","lat":64.3505,"lon":41.7677},{"id":2567889,"name":"zaozero","country":"ru","lat":63.527,"lon":41.9609},{"id":2434936,"name":"krichevskoye","country":"ru","lat":63.9293,"lon":41.671},{"id":2395959,"name":"fabriki","country":"ru","lat":64.1611,"lon":41.6358},{"id":2529159,"name":"stupino","country":"ru","lat":63.9645,"lon":41.7435},{"id":2452566,"name":"maloye zalesye","country":"ru","lat":64.2455,"lon":41.7304},{"id":2423294,"name":"kleshchevshchina","country":"ru","lat":63.6336,"lon":41.7818},{"id":2432488,"name":"krasnaya zarya","country":"ru","lat":64.1223,"lon":41.8389},{"id":2543961,"name":"ulyanovo","country":"ru","lat":63.8279,"lon":41.5591},{"id":2501938,"name":"rembuyevskaya","country":"ru","lat":64.3194,"lon":41.5954},{"id":2439930,"name":"kutozerskaya","country":"ru","lat":64.1729,"lon":41.7124},{"id":2377501,"name":"bolshoye nizhneye","country":"ru","lat":63.9114,"lon":41.6159},{"id":2369913,"name":"belogorskij","country":"ru","lat":64.25,"lon":41.866667},{"id":2406513,"name":"ilakhino","country":"ru","lat":63.5317,"lon":41.9531},{"id":2490665,"name":"poboishche","country":"ru","lat":64.2796,"lon":41.5148},{"id":2539301,"name":"troynaya","country":"ru","lat":64.3143,"lon":41.6089},{"id":2361674,"name":"anashkino","country":"ru","lat":64.2639,"lon":41.5238},{"id":2548219,"name":"varda","country":"ru","lat":64.165,"lon":41.9353},{"id":2406055,"name":"ichkovo","country":"ru","lat":63.9335,"lon":41.7341},{"id":2416772,"name":"kenitsy","country":"ru","lat":64.312,"lon":41.7967},{"id":2489319,"name":"pingisha","country":"ru","lat":63.5221,"lon":41.9209},{"id":2447524,"name":"lukovetskiy","country":"ru","lat":64.2956,"lon":41.9211},{"id":2435246,"name":"krivoye","country":"ru","lat":63.904158,"lon":41.617779},{"id":2446960,"name":"lubyanki","country":"ru","lat":64.2157,"lon":41.9284},{"id":2440983,"name":"kyarnysh","country":"ru","lat":63.604889,"lon":42.390125},{"id":2375635,"name":"bolshaya tovra","country":"ru","lat":64.0826,"lon":41.7108},{"id":2385548,"name":"chernaya gryaz","country":"ru","lat":64.1406,"lon":41.7692},{"id":2568507,"name":"zaruchey","country":"ru","lat":63.5824,"lon":41.7803},{"id":2525080,"name":"staraya melnitsa","country":"ru","lat":63.6053,"lon":41.6208},{"id":2547648,"name":"vakhnovo","country":"ru","lat":63.5102,"lon":41.9414},{"id":2511698,"name":"setigory","country":"ru","lat":64.3157,"lon":41.7454},{"id":2392440,"name":"dorokhovo","country":"ru","lat":63.6442,"lon":41.7669},{"id":2440799,"name":"kuzopolye","country":"ru","lat":64.2444,"lon":41.5},{"id":2555968,"name":"volost khoribritsa","country":"ru","lat":63.583333,"lon":41.783333},{"id":2501888,"name":"rekhachevy","country":"ru","lat":63.5554,"lon":41.5435},{"id":2384658,"name":"chelmokhta","country":"ru","lat":63.6594,"lon":41.7215},{"id":2573214,"name":"zunino","country":"ru","lat":63.966667,"lon":41.75},{"id":2413059,"name":"kanzuyevskaya","country":"ru","lat":63.85,"lon":41.6},{"id":2567334,"name":"zalebedka","country":"ru","lat":63.5507,"lon":41.5672},{"id":2495279,"name":"poselok stupinskikh karyerov","country":"ru","lat":63.9813,"lon":41.761},{"id":2389906,"name":"demidovo","country":"ru","lat":63.9051,"lon":41.6068},{"id":2466774,"name":"neverovo","country":"ru","lat":64.2305,"lon":41.8868},{"id":2481245,"name":"oseredskaya","country":"ru","lat":63.8146,"lon":41.5298},{"id":2458393,"name":"mikesha","country":"ru","lat":64.133333,"lon":41.833333},{"id":2552672,"name":"verkhnyaya pilenga","country":"ru","lat":64.15301,"lon":42.287636},{"id":2440764,"name":"kuznetsy","country":"ru","lat":63.5477,"lon":41.9595},{"id":2464483,"name":"nadruchey","country":"ru","lat":64.1891,"lon":41.6511},{"id":2518971,"name":"siyskoye","country":"ru","lat":63.633333,"lon":41.65},{"id":2555536,"name":"volkovo","country":"ru","lat":64.3112,"lon":41.6264},{"id":2369512,"name":"belaya gora","country":"ru","lat":63.6458,"lon":41.6274},{"id":2411830,"name":"kalyaginskaya","country":"ru","lat":63.833333,"lon":41.55},{"id":2384038,"name":"chashchino","country":"ru","lat":63.9002,"lon":41.6158},{"id":2439664,"name":"kushovo","country":"ru","lat":64.1769,"lon":41.6853},{"id":2486409,"name":"perelesok","country":"ru","lat":63.5528,"lon":41.9508},{"id":2434687,"name":"krenikha","country":"ru","lat":63.7072,"lon":41.5092},{"id":2427826,"name":"kopachevo","country":"ru","lat":63.9533,"lon":41.6972},{"id":2500494,"name":"rakula","country":"ru","lat":63.807704,"lon":41.563708},{"id":2416345,"name":"kazenshchina","country":"ru","lat":63.8457,"lon":41.6562},{"id":2568723,"name":"zastava","country":"ru","lat":64.1469,"lon":41.9313}]});