callback({"markets":[{"id":3051658,"name":"chandir","country":"uz","lat":38.8938889,"lon":65.2125},{"id":3050982,"name":"ak\u0027yalsurcha","country":"uz","lat":39.0125,"lon":64.9802778},{"id":3053187,"name":"kerchi","country":"uz","lat":38.8833333,"lon":65.3833333},{"id":3052669,"name":"jo\u0027ynoy","country":"uz","lat":38.9311111,"lon":65.2675},{"id":3054278,"name":"mirichkar","country":"uz","lat":38.8908333,"lon":65.3183333},{"id":3053884,"name":"kurama","country":"uz","lat":38.9833333,"lon":65.3166667},{"id":3052767,"name":"kalyk","country":"uz","lat":39.0994444,"lon":65.35},{"id":3053156,"name":"kazbi","country":"uz","lat":38.95,"lon":65.4},{"id":3055227,"name":"shekh","country":"uz","lat":39.2313889,"lon":65.1458333},{"id":3053513,"name":"kipchak","country":"uz","lat":39.0852778,"lon":65.4711111},{"id":3052015,"name":"dinau","country":"uz","lat":38.85,"lon":65.4666667},{"id":3055062,"name":"saryk","country":"uz","lat":39.2138889,"lon":65.1680556},{"id":3052292,"name":"fazil","country":"uz","lat":38.8191667,"lon":65.4675},{"id":3050895,"name":"ak-dzhangal\u0027","country":"uz","lat":39.0430556,"lon":65.4775},{"id":3051377,"name":"bazarchi","country":"uz","lat":39.4333333,"lon":64.95},{"id":3054404,"name":"naistan","country":"uz","lat":38.9833333,"lon":65.2666667},{"id":3053370,"name":"khodzhakhayron","country":"uz","lat":38.9833333,"lon":65.35},{"id":3054133,"name":"maburek","country":"uz","lat":39.2552778,"lon":65.1527778},{"id":3053876,"name":"kunya-shaar","country":"uz","lat":39.2441667,"lon":65.1113889},{"id":3054326,"name":"mug\u0027lon","country":"uz","lat":38.9211111,"lon":65.4055556},{"id":3052781,"name":"kamlen","country":"uz","lat":39.005,"lon":65.4305556},{"id":3053392,"name":"khodzha-mubarek","country":"uz","lat":39.1844444,"lon":65.2430556},{"id":3054324,"name":"muglan","country":"uz","lat":38.9333333,"lon":65.4166667},{"id":3054779,"name":"pomuq","country":"uz","lat":39.0291667,"lon":65.0972222},{"id":3051536,"name":"bo\u0027zachi","country":"uz","lat":39.4011111,"lon":64.9544444},{"id":3053354,"name":"khodzha-bay","country":"uz","lat":39.1166667,"lon":64.7166667},{"id":3055539,"name":"talishbi","country":"uz","lat":38.9833333,"lon":65.45},{"id":3056447,"name":"zimovki","country":"uz","lat":38.6666667,"lon":65.2833333},{"id":3051155,"name":"atcha","country":"uz","lat":38.7166667,"lon":65.1166667},{"id":3052997,"name":"karkara","country":"uz","lat":38.7,"lon":65.3666667},{"id":3051201,"name":"ayzavat","country":"uz","lat":38.9666667,"lon":65.3},{"id":3054253,"name":"messet","country":"uz","lat":39.0166667,"lon":65.2166667},{"id":3054430,"name":"narzim","country":"uz","lat":39.25,"lon":65.05},{"id":3053873,"name":"kunya-fazil\u0027","country":"uz","lat":38.7666667,"lon":65.2833333},{"id":3055272,"name":"shor chah","country":"uz","lat":39.0166667,"lon":65.0833333},{"id":3055293,"name":"shukurdzhoy","country":"uz","lat":38.9333333,"lon":65.4833333},{"id":3053457,"name":"khtay","country":"uz","lat":39.1083333,"lon":65.4225},{"id":3054232,"name":"maynamak","country":"uz","lat":39.0561111,"lon":65.4211111},{"id":3056446,"name":"zimovki","country":"uz","lat":39.4166667,"lon":64.8833333},{"id":3052354,"name":"gatagon","country":"uz","lat":39.0455556,"lon":65.4580556},{"id":3052717,"name":"kakyrdyk-shurcha","country":"uz","lat":38.9833333,"lon":65.0833333}]});