callback({"markets":[{"id":988772,"name":"bridge of orchy","country":"gb","lat":56.5,"lon":-4.766667},{"id":986626,"name":"achlain","country":"gb","lat":57.166667,"lon":-4.85},{"id":989368,"name":"cannich","country":"gb","lat":57.35,"lon":-4.766667},{"id":990459,"name":"corpach","country":"gb","lat":56.85,"lon":-5.1},{"id":986616,"name":"achentee","country":"gb","lat":57.4,"lon":-5.45},{"id":991056,"name":"dalchreichart","country":"gb","lat":57.2,"lon":-4.8},{"id":996574,"name":"lochtreighead","country":"gb","lat":56.783333,"lon":-4.733333},{"id":998294,"name":"north lorn","country":"gb","lat":56.583333,"lon":-5.2},{"id":989981,"name":"cilmalieu","country":"gb","lat":56.633333,"lon":-5.433333},{"id":992173,"name":"eskadale","country":"gb","lat":57.433333,"lon":-4.566667},{"id":991538,"name":"duisky","country":"gb","lat":56.833333,"lon":-5.25},{"id":990532,"name":"coulags","country":"gb","lat":57.433333,"lon":-5.4},{"id":987418,"name":"ballachuhsh","country":"gb","lat":56.666667,"lon":-5.116667},{"id":998545,"name":"onich","country":"gb","lat":56.7,"lon":-5.216667},{"id":990723,"name":"creagan ferry","country":"gb","lat":56.55,"lon":-5.3},{"id":994706,"name":"invercannich","country":"gb","lat":57.35,"lon":-4.733333},{"id":999168,"name":"port appin","country":"gb","lat":56.55,"lon":-5.4},{"id":994652,"name":"inchlaggan","country":"gb","lat":57.05,"lon":-5.0},{"id":993007,"name":"glenfinnan","country":"gb","lat":56.866667,"lon":-5.45},{"id":988335,"name":"bohuntine","country":"gb","lat":56.9,"lon":-4.816667},{"id":990174,"name":"clunes","country":"gb","lat":56.95,"lon":-4.966667},{"id":994711,"name":"invercoe","country":"gb","lat":56.683333,"lon":-5.1},{"id":991818,"name":"east laroch","country":"gb","lat":56.666667,"lon":-5.133333},{"id":1002294,"name":"tomich","country":"gb","lat":57.3,"lon":-4.8},{"id":1001129,"name":"spean bridge","country":"gb","lat":56.883333,"lon":-4.9},{"id":1002318,"name":"torcastle","country":"gb","lat":56.866667,"lon":-5.066667},{"id":997588,"name":"monessie","country":"gb","lat":56.883333,"lon":-4.8},{"id":986600,"name":"achagate","country":"gb","lat":57.3,"lon":-4.9},{"id":990659,"name":"craig","country":"gb","lat":57.483333,"lon":-5.266667},{"id":1003289,"name":"west laroch","country":"gb","lat":56.666667,"lon":-5.15},{"id":994759,"name":"inverwick","country":"gb","lat":57.183333,"lon":-4.8},{"id":995472,"name":"knockfin","country":"gb","lat":57.3,"lon":-4.816667},{"id":994753,"name":"invershiel","country":"gb","lat":57.216667,"lon":-5.416667},{"id":992601,"name":"fort augustus","country":"gb","lat":57.133333,"lon":-4.683333},{"id":994939,"name":"kentallen","country":"gb","lat":56.65,"lon":-5.25},{"id":994752,"name":"inversanda","country":"gb","lat":56.683333,"lon":-5.366667},{"id":1001568,"name":"strathcarron","country":"gb","lat":57.433333,"lon":-5.416667},{"id":997489,"name":"millton","country":"gb","lat":57.35,"lon":-4.5},{"id":995280,"name":"kintail","country":"gb","lat":57.216667,"lon":-5.45},{"id":992996,"name":"glenceitlein","country":"gb","lat":56.566667,"lon":-5.016667},{"id":990701,"name":"craskie","country":"gb","lat":57.366667,"lon":-4.8},{"id":1000217,"name":"sallachy","country":"gb","lat":57.316667,"lon":-5.483333},{"id":994741,"name":"invermeran","country":"gb","lat":56.533333,"lon":-4.566667},{"id":991712,"name":"eassifern","country":"gb","lat":56.866667,"lon":-5.266667},{"id":999229,"name":"portnacroish","country":"gb","lat":56.566667,"lon":-5.366667},{"id":987420,"name":"ballachulist","country":"gb","lat":56.7,"lon":-5.183333},{"id":995256,"name":"kinlochmore","country":"gb","lat":56.716667,"lon":-4.95},{"id":989328,"name":"camban","country":"gb","lat":57.216667,"lon":-5.233333},{"id":992328,"name":"fasnakyle","country":"gb","lat":57.316667,"lon":-4.8},{"id":1002192,"name":"tigh na cruach","country":"gb","lat":56.65,"lon":-4.666667},{"id":1001625,"name":"struy","country":"gb","lat":57.4,"lon":-4.65},{"id":994739,"name":"inver mallie","country":"gb","lat":56.95,"lon":-5.066667},{"id":994727,"name":"inverinate","country":"gb","lat":57.233333,"lon":-5.466667},{"id":997705,"name":"morvich","country":"gb","lat":57.216667,"lon":-5.383333},{"id":988228,"name":"blaich","country":"gb","lat":56.833333,"lon":-5.2},{"id":995855,"name":"lewiston","country":"gb","lat":57.316667,"lon":-4.5},{"id":1002321,"name":"torgulbin","country":"gb","lat":56.916667,"lon":-4.566667},{"id":986602,"name":"achaladair","country":"gb","lat":56.55,"lon":-4.733333},{"id":992841,"name":"garvan","country":"gb","lat":56.833333,"lon":-5.316667},{"id":989245,"name":"cadderlie","country":"gb","lat":56.5,"lon":-5.166667},{"id":987775,"name":"bearnock","country":"gb","lat":57.333333,"lon":-4.65},{"id":991576,"name":"dundreggan","country":"gb","lat":57.2,"lon":-4.766667},{"id":989473,"name":"carnach","country":"gb","lat":56.683333,"lon":-5.083333},{"id":992775,"name":"gairlochy","country":"gb","lat":56.916667,"lon":-5.0},{"id":987234,"name":"athnamulloch","country":"gb","lat":57.25,"lon":-5.1},{"id":987536,"name":"banavie","country":"gb","lat":56.85,"lon":-5.083333},{"id":995055,"name":"killilan","country":"gb","lat":57.316667,"lon":-5.416667},{"id":990464,"name":"corrimany","country":"gb","lat":57.316667,"lon":-4.683333},{"id":986612,"name":"acharra","country":"gb","lat":56.633333,"lon":-5.283333},{"id":992615,"name":"fort william","country":"gb","lat":56.816667,"lon":-5.116667},{"id":988774,"name":"bridge of roy","country":"gb","lat":56.883333,"lon":-4.85},{"id":986803,"name":"alltsigh","country":"gb","lat":57.233333,"lon":-4.55},{"id":1002292,"name":"tomcrasky","country":"gb","lat":57.166667,"lon":-4.866667},{"id":995034,"name":"kilfinnan","country":"gb","lat":57.016667,"lon":-4.833333},{"id":997241,"name":"meallgarve","country":"gb","lat":57.016667,"lon":-4.533333},{"id":990468,"name":"corrlarach","country":"gb","lat":56.783333,"lon":-5.333333},{"id":994738,"name":"inverlair","country":"gb","lat":56.883333,"lon":-4.733333},{"id":987518,"name":"balnacarn","country":"gb","lat":57.183333,"lon":-4.866667},{"id":987011,"name":"ardmaddy","country":"gb","lat":56.5,"lon":-5.116667},{"id":1002293,"name":"tomdoun","country":"gb","lat":57.066667,"lon":-5.05},{"id":995091,"name":"kilmorack","country":"gb","lat":57.466667,"lon":-4.533333},{"id":991049,"name":"dail","country":"gb","lat":56.5,"lon":-5.15},{"id":986800,"name":"alltbeath","country":"gb","lat":57.233333,"lon":-5.183333},{"id":998043,"name":"new kelso","country":"gb","lat":57.433333,"lon":-5.45},{"id":994716,"name":"invergarry","country":"gb","lat":57.033333,"lon":-4.783333},{"id":990925,"name":"cuil","country":"gb","lat":56.633333,"lon":-5.3},{"id":991084,"name":"dalness","country":"gb","lat":56.616667,"lon":-4.983333},{"id":990165,"name":"clovulin","country":"gb","lat":56.716667,"lon":-5.3},{"id":987002,"name":"ardgour","country":"gb","lat":56.716667,"lon":-5.25},{"id":993377,"name":"greenfield","country":"gb","lat":57.05,"lon":-4.95},{"id":997771,"name":"moy","country":"gb","lat":56.9,"lon":-4.6},{"id":995249,"name":"kinlocheil","country":"gb","lat":56.85,"lon":-5.333333},{"id":995251,"name":"kinloch hourn","country":"gb","lat":57.1,"lon":-5.366667},{"id":990531,"name":"cougie","country":"gb","lat":57.233333,"lon":-4.933333},{"id":994749,"name":"inverness-shire","country":"gb","lat":57.083333,"lon":-4.666667},{"id":990461,"name":"corran","country":"gb","lat":56.716667,"lon":-5.233333},{"id":995836,"name":"letterfinlay","country":"gb","lat":56.983333,"lon":-4.866667},{"id":986598,"name":"achafubil","country":"gb","lat":56.833333,"lon":-5.133333},{"id":994744,"name":"invermoriston","country":"gb","lat":57.216667,"lon":-4.633333},{"id":995254,"name":"kinlochleven","country":"gb","lat":56.7,"lon":-4.966667}]});