callback({"markets":[{"id":2075480,"name":"marihuacha","country":"pe","lat":-10.4,"lon":-77.5},{"id":2072284,"name":"jaigua","country":"pe","lat":-9.5333333,"lon":-78.0833333},{"id":2062705,"name":"calavera grande","country":"pe","lat":-9.55,"lon":-78.1666667},{"id":2085294,"name":"tupuc","country":"pe","lat":-10.1833333,"lon":-77.6666667},{"id":2075179,"name":"malvas","country":"pe","lat":-9.9166667,"lon":-77.6833333},{"id":2074378,"name":"llama rumi","country":"pe","lat":-10.2333333,"lon":-77.5666667},{"id":2069342,"name":"hacienda huaraspampa","country":"pe","lat":-9.5166667,"lon":-78.1333333},{"id":2066972,"name":"coris","country":"pe","lat":-9.8333333,"lon":-77.75},{"id":2068890,"name":"gramadal","country":"pe","lat":-10.3833333,"lon":-77.9833333},{"id":2082864,"name":"sauce","country":"pe","lat":-10.4333333,"lon":-77.7333333},{"id":2070864,"name":"huancuato","country":"pe","lat":-9.9833333,"lon":-77.7},{"id":2067729,"name":"cuzmo","country":"pe","lat":-9.8333333,"lon":-78.0166667},{"id":2079514,"name":"puca ranca fundo","country":"pe","lat":-10.0166667,"lon":-77.5666667},{"id":2075994,"name":"mogote","country":"pe","lat":-10.15,"lon":-77.5},{"id":2069515,"name":"hacienda molina","country":"pe","lat":-9.8833333,"lon":-78.1166667},{"id":2083029,"name":"shamllau","country":"pe","lat":-10.15,"lon":-77.6},{"id":2065291,"name":"chimu","country":"pe","lat":-10.3166667,"lon":-77.5833333},{"id":2077232,"name":"pacar","country":"pe","lat":-10.0833333,"lon":-77.5},{"id":2085311,"name":"turripampa","country":"pe","lat":-9.85,"lon":-78.0666667},{"id":2084426,"name":"ten-ten","country":"pe","lat":-9.8666667,"lon":-78.1},{"id":2069993,"name":"harquis","country":"pe","lat":-10.2833333,"lon":-77.6},{"id":2066152,"name":"chururo","country":"pe","lat":-10.1333333,"lon":-77.5333333},{"id":2071610,"name":"huichay","country":"pe","lat":-9.9833333,"lon":-77.7666667},{"id":2071567,"name":"huayup","country":"pe","lat":-9.9166667,"lon":-77.8333333},{"id":2080564,"name":"quilipe","country":"pe","lat":-10.0666667,"lon":-78.1666667},{"id":2071598,"name":"huertas","country":"pe","lat":-10.1166667,"lon":-77.5833333},{"id":2065442,"name":"chiquiahuanca","country":"pe","lat":-10.3333333,"lon":-77.6166667},{"id":2069007,"name":"hacienda alguay","country":"pe","lat":-10.0666667,"lon":-78.1},{"id":2070280,"name":"huacllan","country":"pe","lat":-9.8,"lon":-77.6833333},{"id":2074366,"name":"llama huashan","country":"pe","lat":-10.0166667,"lon":-77.6166667},{"id":2081912,"name":"san isidro","country":"pe","lat":-10.0,"lon":-77.7166667},{"id":2080805,"name":"quisquis","country":"pe","lat":-9.5,"lon":-78.0166667},{"id":2079230,"name":"pomay","country":"pe","lat":-10.1666667,"lon":-77.55},{"id":2074090,"name":"la zorra","country":"pe","lat":-10.2833333,"lon":-78.0333333},{"id":2067137,"name":"coto","country":"pe","lat":-10.0166667,"lon":-77.6},{"id":2066610,"name":"colquioc","country":"pe","lat":-10.2833333,"lon":-77.5333333},{"id":2076157,"name":"monte grande","country":"pe","lat":-10.45,"lon":-77.7333333},{"id":2083895,"name":"taica","country":"pe","lat":-10.0166667,"lon":-78.0833333},{"id":2078949,"name":"pirauya","country":"pe","lat":-9.9833333,"lon":-77.75},{"id":2073481,"name":"la merced","country":"pe","lat":-9.7333333,"lon":-77.6166667},{"id":2065137,"name":"chilcal","country":"pe","lat":-10.0166667,"lon":-78.05},{"id":2076566,"name":"navin","country":"pe","lat":-9.5333333,"lon":-78.1333333},{"id":2064649,"name":"chanquillo","country":"pe","lat":-9.55,"lon":-78.2166667},{"id":2066386,"name":"cocopoto","country":"pe","lat":-9.5333333,"lon":-78.0666667},{"id":2060988,"name":"ampanu","country":"pe","lat":-9.9166667,"lon":-78.1666667},{"id":2079116,"name":"playa grande","country":"pe","lat":-9.7666667,"lon":-78.2333333},{"id":2064543,"name":"chamana","country":"pe","lat":-10.2,"lon":-77.5666667},{"id":2079637,"name":"pueblo viejo colquioc","country":"pe","lat":-10.3,"lon":-77.5666667},{"id":2071269,"name":"huaspec","country":"pe","lat":-10.2,"lon":-77.65},{"id":2078187,"name":"pariacoto","country":"pe","lat":-9.5166667,"lon":-77.8833333},{"id":2061530,"name":"arenal","country":"pe","lat":-10.0666667,"lon":-78.1333333},{"id":2075167,"name":"malpaso","country":"pe","lat":-10.0166667,"lon":-77.8833333},{"id":2086069,"name":"vindoc","country":"pe","lat":-10.2666667,"lon":-77.5},{"id":2078111,"name":"parapaco","country":"pe","lat":-10.3666667,"lon":-77.5},{"id":2079052,"name":"pitec","country":"pe","lat":-10.0833333,"lon":-77.55},{"id":2075998,"name":"mojeque","country":"pe","lat":-9.5333333,"lon":-78.2333333},{"id":2080827,"name":"quita sombrero","country":"pe","lat":-9.9333333,"lon":-78.2},{"id":2081397,"name":"sacsa","country":"pe","lat":-10.0666667,"lon":-77.7},{"id":2066321,"name":"cochan","country":"pe","lat":-9.85,"lon":-78.0833333},{"id":2080153,"name":"puquio grande","country":"pe","lat":-9.5666667,"lon":-78.2},{"id":2064571,"name":"champa","country":"pe","lat":-9.8333333,"lon":-78.0},{"id":2086386,"name":"yanampa","country":"pe","lat":-10.0333333,"lon":-77.5},{"id":2063601,"name":"casa vieja","country":"pe","lat":-10.4333333,"lon":-77.5},{"id":2070785,"name":"huancar alto","country":"pe","lat":-10.3666667,"lon":-77.6666667},{"id":2085295,"name":"tuquilla","country":"pe","lat":-10.0166667,"lon":-78.1833333},{"id":2083489,"name":"son son","country":"pe","lat":-10.0166667,"lon":-78.0166667},{"id":2069046,"name":"hacienda barbacay","country":"pe","lat":-10.0166667,"lon":-77.9833333},{"id":2084830,"name":"toma pampa","country":"pe","lat":-10.0333333,"lon":-77.5333333},{"id":2063487,"name":"carricillo","country":"pe","lat":-9.9166667,"lon":-78.1833333},{"id":2077216,"name":"pacan","country":"pe","lat":-10.1166667,"lon":-77.6833333},{"id":2078541,"name":"pay-pay","country":"pe","lat":-10.0833333,"lon":-78.15},{"id":2083151,"name":"shurac","country":"pe","lat":-10.1833333,"lon":-77.6333333},{"id":2079798,"name":"puerto huarmey","country":"pe","lat":-10.1,"lon":-78.1833333},{"id":2068321,"name":"equiparco","country":"pe","lat":-9.9666667,"lon":-77.65},{"id":2065358,"name":"chinchipi","country":"pe","lat":-10.0666667,"lon":-77.5166667},{"id":2070980,"name":"huaquion","country":"pe","lat":-10.1,"lon":-77.6},{"id":2082880,"name":"sausal","country":"pe","lat":-10.0333333,"lon":-78.0833333},{"id":2066424,"name":"colcabamba","country":"pe","lat":-9.5833333,"lon":-77.8166667},{"id":2078947,"name":"pira","country":"pe","lat":-9.5666667,"lon":-77.7166667},{"id":2078121,"name":"pararin","country":"pe","lat":-10.05,"lon":-77.6833333},{"id":2071355,"name":"huayan","country":"pe","lat":-9.8666667,"lon":-77.7333333},{"id":2080954,"name":"ranra ragra","country":"pe","lat":-9.9833333,"lon":-77.5333333},{"id":2085842,"name":"ventana","country":"pe","lat":-10.1,"lon":-77.85},{"id":2067728,"name":"cuz-cuz","country":"pe","lat":-10.0666667,"lon":-78.1166667},{"id":2067119,"name":"cotaparaco","country":"pe","lat":-10.0,"lon":-77.6},{"id":2074309,"name":"llacllin","country":"pe","lat":-10.0666667,"lon":-77.6166667},{"id":2069498,"name":"hacienda maria cristina","country":"pe","lat":-10.0,"lon":-77.9},{"id":2067329,"name":"cuchipuro","country":"pe","lat":-9.5166667,"lon":-78.05},{"id":2082222,"name":"san miguel","country":"pe","lat":-10.0166667,"lon":-77.65},{"id":2071142,"name":"huaricanga","country":"pe","lat":-10.4833333,"lon":-77.7666667},{"id":2066337,"name":"cochapeti","country":"pe","lat":-9.9833333,"lon":-77.65},{"id":2080176,"name":"purgatorio","country":"pe","lat":-9.5333333,"lon":-78.2166667},{"id":2075333,"name":"maquia","country":"pe","lat":-10.1166667,"lon":-77.6333333},{"id":2064792,"name":"chasquitambo","country":"pe","lat":-10.3,"lon":-77.6},{"id":2068687,"name":"fundo cutatambo","country":"pe","lat":-10.4833333,"lon":-77.75},{"id":2073151,"name":"la cruz","country":"pe","lat":-10.0666667,"lon":-78.15},{"id":2086558,"name":"yautan","country":"pe","lat":-9.5166667,"lon":-78.0},{"id":2079294,"name":"portada alta","country":"pe","lat":-9.5166667,"lon":-78.1},{"id":2067657,"name":"cusmo","country":"pe","lat":-9.85,"lon":-78.0166667},{"id":2069821,"name":"hacienda santa rosa","country":"pe","lat":-10.0,"lon":-77.95},{"id":2071095,"name":"huaras","country":"pe","lat":-9.5333333,"lon":-77.5333333},{"id":2064807,"name":"chaucayan","country":"pe","lat":-10.1833333,"lon":-77.5666667},{"id":2081109,"name":"rinconada","country":"pe","lat":-10.4166667,"lon":-77.7333333},{"id":2085997,"name":"villa culebras","country":"pe","lat":-9.9333333,"lon":-78.2166667},{"id":2085847,"name":"ventanilla","country":"pe","lat":-10.0,"lon":-77.5166667},{"id":2067426,"name":"culebras","country":"pe","lat":-9.8833333,"lon":-78.1},{"id":2078409,"name":"patazca","country":"pe","lat":-9.55,"lon":-78.2},{"id":2084189,"name":"tapacocha","country":"pe","lat":-10.0166667,"lon":-77.5833333},{"id":2060862,"name":"alonso","country":"pe","lat":-10.15,"lon":-77.5333333},{"id":2065117,"name":"chilan","country":"pe","lat":-9.5833333,"lon":-77.5333333},{"id":2066806,"name":"congoncillo","country":"pe","lat":-9.9,"lon":-78.1333333},{"id":2079159,"name":"pocor","country":"pe","lat":-10.2666667,"lon":-77.5833333},{"id":2070616,"name":"huamba","country":"pe","lat":-9.95,"lon":-77.8666667},{"id":2066900,"name":"copavilca","country":"pe","lat":-10.4333333,"lon":-77.5333333},{"id":2069114,"name":"hacienda casa blanca","country":"pe","lat":-9.5,"lon":-78.1333333},{"id":2074417,"name":"llanqui","country":"pe","lat":-10.0833333,"lon":-77.6166667},{"id":2071455,"name":"huayllapampa","country":"pe","lat":-10.0333333,"lon":-77.5666667},{"id":2063489,"name":"carrizal","country":"pe","lat":-9.6666667,"lon":-78.2833333},{"id":2080875,"name":"raipa","country":"pe","lat":-9.65,"lon":-77.9166667},{"id":2082242,"name":"san nicolas","country":"pe","lat":-10.0833333,"lon":-78.1666667},{"id":2077249,"name":"pacay","country":"pe","lat":-9.5333333,"lon":-78.15},{"id":2062704,"name":"calavera chico","country":"pe","lat":-9.5666667,"lon":-78.1666667},{"id":2073659,"name":"la ponderosa","country":"pe","lat":-9.6166667,"lon":-78.3333333},{"id":2062508,"name":"cachipampa","country":"pe","lat":-9.5166667,"lon":-78.0333333},{"id":2071690,"name":"huinac","country":"pe","lat":-9.6,"lon":-77.6666667},{"id":2072846,"name":"junco","country":"pe","lat":-9.85,"lon":-78.0333333},{"id":2061286,"name":"anta","country":"pe","lat":-10.3833333,"lon":-77.6833333},{"id":2083055,"name":"shaura","country":"pe","lat":-10.4166667,"lon":-77.7166667},{"id":2075219,"name":"manache","country":"pe","lat":-10.0666667,"lon":-78.1833333},{"id":2070567,"name":"huamancay","country":"pe","lat":-10.1,"lon":-77.5166667},{"id":2060647,"name":"aija","country":"pe","lat":-9.7666667,"lon":-77.6333333},{"id":2070460,"name":"hualhuayoc","country":"pe","lat":-9.5166667,"lon":-78.1166667}]});