callback({"markets":[{"id":2057887,"name":"los chacones","country":"pa","lat":7.8333333,"lon":-80.3833333},{"id":2057872,"name":"los cedros","country":"pa","lat":7.6,"lon":-80.35},{"id":2056020,"name":"espigadilla arriba","country":"pa","lat":7.8666667,"lon":-80.3833333},{"id":2058764,"name":"pan de azucar","country":"pa","lat":8.3833333,"lon":-80.4333333},{"id":2059150,"name":"puerto limon","country":"pa","lat":8.0,"lon":-80.4833333},{"id":2057119,"name":"la playa del jobo","country":"pa","lat":7.8,"lon":-80.2},{"id":2056046,"name":"farallon","country":"pa","lat":8.35,"lon":-80.1333333},{"id":2059824,"name":"santa isabel","country":"pa","lat":7.7666667,"lon":-80.35},{"id":2057059,"name":"la pasera","country":"pa","lat":7.8,"lon":-80.3},{"id":2057883,"name":"los cerros","country":"pa","lat":7.5833333,"lon":-80.1666667},{"id":2056367,"name":"hondura","country":"pa","lat":7.6166667,"lon":-80.3833333},{"id":2053738,"name":"bajo corral","country":"pa","lat":7.6,"lon":-80.2666667},{"id":2057423,"name":"las pinas","country":"pa","lat":8.45,"lon":-80.0833333},{"id":2057972,"name":"los jacintos","country":"pa","lat":7.7166667,"lon":-80.4333333},{"id":2058241,"name":"madrono","country":"pa","lat":7.5,"lon":-80.2666667},{"id":2055148,"name":"el bongo","country":"pa","lat":7.9166667,"lon":-80.4666667},{"id":2059532,"name":"rio hondo","country":"pa","lat":7.7166667,"lon":-80.35},{"id":2054456,"name":"cerrezuela","country":"pa","lat":8.3666667,"lon":-80.4666667},{"id":2054103,"name":"buen retiro","country":"pa","lat":8.4166667,"lon":-80.2333333},{"id":2054284,"name":"cana brava numero dos","country":"pa","lat":7.8833333,"lon":-80.4833333},{"id":2060182,"name":"uveral","country":"pa","lat":7.5833333,"lon":-80.0333333},{"id":2058831,"name":"pedasi","country":"pa","lat":7.5333333,"lon":-80.0333333},{"id":2056948,"name":"la loma","country":"pa","lat":7.55,"lon":-80.3333333},{"id":2058780,"name":"paraiso","country":"pa","lat":7.6833333,"lon":-80.1666667},{"id":2057428,"name":"las placetas","country":"pa","lat":7.5666667,"lon":-80.4833333},{"id":2055556,"name":"el jobo","country":"pa","lat":7.8166667,"lon":-80.2833333},{"id":2058773,"name":"paradero del mogollon","country":"pa","lat":7.65,"lon":-80.45},{"id":2056156,"name":"galera","country":"pa","lat":7.7666667,"lon":-80.45},{"id":2058315,"name":"maranon","country":"pa","lat":7.5666667,"lon":-80.2166667},{"id":2057658,"name":"llano grande","country":"pa","lat":8.4333333,"lon":-80.1833333},{"id":2059225,"name":"purio","country":"pa","lat":7.6,"lon":-80.0833333},{"id":2058204,"name":"los yescos","country":"pa","lat":7.5,"lon":-80.1333333},{"id":2058052,"name":"los negros","country":"pa","lat":7.6666667,"lon":-80.4833333},{"id":2060223,"name":"via hernandez","country":"pa","lat":8.4833333,"lon":-80.4},{"id":2056649,"name":"la chumicosa","country":"pa","lat":8.4333333,"lon":-80.0166667},{"id":2056910,"name":"la laguna","country":"pa","lat":7.6333333,"lon":-80.1166667},{"id":2058650,"name":"oliver estate","country":"pa","lat":8.3833333,"lon":-80.1},{"id":2059102,"name":"pueblo nuevo","country":"pa","lat":8.3833333,"lon":-80.2},{"id":2059279,"name":"quebrada del medio","country":"pa","lat":7.7333333,"lon":-80.3833333},{"id":2056485,"name":"juan diaz","country":"pa","lat":8.4666667,"lon":-80.2833333},{"id":2057249,"name":"las cruces","country":"pa","lat":7.8333333,"lon":-80.4333333},{"id":2054779,"name":"ciruelito","country":"pa","lat":8.45,"lon":-80.45},{"id":2053900,"name":"berrio","country":"pa","lat":7.6166667,"lon":-80.05},{"id":2053972,"name":"boca de parita","country":"pa","lat":8.0166667,"lon":-80.45},{"id":2057736,"name":"loma de los corozos","country":"pa","lat":7.7166667,"lon":-80.45},{"id":2058044,"name":"los naranjitos","country":"pa","lat":7.55,"lon":-80.2833333},{"id":2057846,"name":"los cabimos","country":"pa","lat":7.5166667,"lon":-80.3833333},{"id":2053742,"name":"bajo de corozal","country":"pa","lat":8.4833333,"lon":-80.0166667},{"id":2057548,"name":"la vibora","country":"pa","lat":7.65,"lon":-80.1166667},{"id":2055477,"name":"el hatillo","country":"pa","lat":8.4833333,"lon":-80.0},{"id":2055356,"name":"el dormilon","country":"pa","lat":7.8666667,"lon":-80.35},{"id":2058300,"name":"manon","country":"pa","lat":7.6,"lon":-80.2333333},{"id":2055940,"name":"el toro","country":"pa","lat":7.55,"lon":-80.1833333},{"id":2055655,"name":"el nance","country":"pa","lat":8.4666667,"lon":-79.9666667},{"id":2056751,"name":"la espigadilla","country":"pa","lat":7.8833333,"lon":-80.3833333},{"id":2056939,"name":"la loma del agallal","country":"pa","lat":8.45,"lon":-80.05},{"id":2057438,"name":"las quebraditas","country":"pa","lat":7.75,"lon":-80.4333333},{"id":2056889,"name":"lajamina","country":"pa","lat":7.5833333,"lon":-80.1333333},{"id":2058662,"name":"oria abajo","country":"pa","lat":7.6,"lon":-80.4166667},{"id":2057228,"name":"las brujas","country":"pa","lat":8.3833333,"lon":-80.15},{"id":2054955,"name":"cucula","country":"pa","lat":7.7,"lon":-80.4166667},{"id":2058726,"name":"palmira","country":"pa","lat":7.6666667,"lon":-80.35},{"id":2057908,"name":"los corralitos","country":"pa","lat":7.7666667,"lon":-80.4333333},{"id":2058718,"name":"palma seca","country":"pa","lat":8.45,"lon":-80.1833333},{"id":2056462,"name":"jobal","country":"pa","lat":8.4666667,"lon":-80.0166667},{"id":2055135,"name":"el bijao","country":"pa","lat":7.7166667,"lon":-80.2833333},{"id":2059547,"name":"rio mar","country":"pa","lat":8.45,"lon":-79.9666667},{"id":2057936,"name":"los gomez","country":"pa","lat":7.5666667,"lon":-80.1666667},{"id":2057411,"name":"las penas","country":"pa","lat":7.9,"lon":-80.4166667},{"id":2056263,"name":"guarico","country":"pa","lat":7.65,"lon":-80.4666667},{"id":2058245,"name":"maestro victor","country":"pa","lat":7.65,"lon":-80.3833333},{"id":2056117,"name":"flor amarilla","country":"pa","lat":7.6666667,"lon":-80.3833333},{"id":2053869,"name":"bayano","country":"pa","lat":7.6333333,"lon":-80.3833333},{"id":2060201,"name":"valle rico","country":"pa","lat":7.6166667,"lon":-80.35},{"id":2058002,"name":"los madronos","country":"pa","lat":7.85,"lon":-80.3833333},{"id":2056224,"name":"guabas abajo","country":"pa","lat":8.3833333,"lon":-80.2833333},{"id":2057614,"name":"llano bonito","country":"pa","lat":7.9666667,"lon":-80.4333333},{"id":2054286,"name":"cana brava numero uno","country":"pa","lat":7.8666667,"lon":-80.4666667},{"id":2059730,"name":"san jose","country":"pa","lat":7.6666667,"lon":-80.25},{"id":2058476,"name":"monagrillo","country":"pa","lat":7.9833333,"lon":-80.4333333},{"id":2055360,"name":"el ejido","country":"pa","lat":7.9166667,"lon":-80.3833333},{"id":2056858,"name":"la honda","country":"pa","lat":7.9,"lon":-80.3166667},{"id":2057451,"name":"las tetillas","country":"pa","lat":7.8,"lon":-80.3166667},{"id":2054463,"name":"cerro agudo","country":"pa","lat":7.7,"lon":-80.3166667},{"id":2059851,"name":"santa teresita","country":"pa","lat":8.4833333,"lon":-79.95},{"id":2055620,"name":"el mangote","country":"pa","lat":7.85,"lon":-80.3166667},{"id":2057797,"name":"los angeles","country":"pa","lat":7.8833333,"lon":-80.35},{"id":2058453,"name":"mirador","country":"pa","lat":8.4333333,"lon":-80.2833333},{"id":2056135,"name":"foster","country":"pa","lat":8.3833333,"lon":-80.1166667},{"id":2057252,"name":"las cucharitas","country":"pa","lat":7.8,"lon":-80.2333333},{"id":2060101,"name":"tres quebrada abajo","country":"pa","lat":7.85,"lon":-80.4},{"id":2059469,"name":"rincon grande","country":"pa","lat":7.8166667,"lon":-80.4333333},{"id":2055794,"name":"el ponton","country":"pa","lat":7.7166667,"lon":-80.4666667},{"id":2056760,"name":"la estrella","country":"pa","lat":7.7,"lon":-80.2333333},{"id":2059152,"name":"puerto mensabe","country":"pa","lat":7.7666667,"lon":-80.1666667},{"id":2054731,"name":"chumico","country":"pa","lat":8.4333333,"lon":-80.0833333},{"id":2054234,"name":"calle larga","country":"pa","lat":8.4666667,"lon":-80.0},{"id":2054009,"name":"boca nueva","country":"pa","lat":8.3,"lon":-80.2666667},{"id":2057232,"name":"las cajas","country":"pa","lat":8.4833333,"lon":-80.0666667},{"id":2055842,"name":"el rincon","country":"pa","lat":8.3833333,"lon":-80.1833333},{"id":2054321,"name":"candelaria","country":"pa","lat":7.7333333,"lon":-80.15},{"id":2059837,"name":"santa rita abajo","country":"pa","lat":8.4666667,"lon":-80.2},{"id":2057503,"name":"la tortuguilla","country":"pa","lat":8.4666667,"lon":-80.3},{"id":2055840,"name":"el retiro","country":"pa","lat":8.4833333,"lon":-80.15},{"id":2055879,"name":"el salitre","country":"pa","lat":7.5666667,"lon":-80.4333333},{"id":2055060,"name":"el aromo","country":"pa","lat":7.9166667,"lon":-80.35},{"id":2057841,"name":"los buhos","country":"pa","lat":7.55,"lon":-80.3833333},{"id":2057159,"name":"la raiz","country":"pa","lat":7.6,"lon":-80.4833333},{"id":2059305,"name":"quebrada frias","country":"pa","lat":7.6666667,"lon":-80.4666667},{"id":2055059,"name":"el arenal","country":"pa","lat":8.4833333,"lon":-79.9666667},{"id":2057915,"name":"los dominguez","country":"pa","lat":7.5666667,"lon":-80.3166667},{"id":2059505,"name":"rio chico","country":"pa","lat":8.3833333,"lon":-80.2166667},{"id":2054836,"name":"colan","country":"pa","lat":7.5833333,"lon":-80.2333333},{"id":2059348,"name":"quebrada la yeguada","country":"pa","lat":7.6833333,"lon":-80.1166667},{"id":2058845,"name":"pedregoso","country":"pa","lat":7.7,"lon":-80.3333333},{"id":2059200,"name":"punta del tigre","country":"pa","lat":7.6333333,"lon":-80.05},{"id":2055786,"name":"el platanal","country":"pa","lat":8.4,"lon":-80.0833333},{"id":2057447,"name":"las tablas","country":"pa","lat":7.7666667,"lon":-80.2833333},{"id":2057401,"name":"las palmeras","country":"pa","lat":8.4666667,"lon":-79.95},{"id":2055208,"name":"el carate","country":"pa","lat":7.7333333,"lon":-80.3},{"id":2059222,"name":"punta toro","country":"pa","lat":7.5333333,"lon":-80.0},{"id":2055493,"name":"el higo","country":"pa","lat":8.45,"lon":-80.0333333},{"id":2056524,"name":"la albina del calabazo","country":"pa","lat":7.85,"lon":-80.2833333},{"id":2056226,"name":"guabas","country":"pa","lat":7.8166667,"lon":-80.4833333},{"id":2058786,"name":"paritilla","country":"pa","lat":7.6333333,"lon":-80.1666667},{"id":2057053,"name":"la palmosa","country":"pa","lat":7.5333333,"lon":-80.4},{"id":2055272,"name":"el ciruelito","country":"pa","lat":8.4833333,"lon":-80.05},{"id":2059892,"name":"sesteadero","country":"pa","lat":7.7333333,"lon":-80.25},{"id":2059685,"name":"san agustin","country":"pa","lat":7.9166667,"lon":-80.45},{"id":2054894,"name":"corozal abajo","country":"pa","lat":7.75,"lon":-80.4666667},{"id":2058866,"name":"pena roda","country":"pa","lat":7.75,"lon":-80.25},{"id":2057759,"name":"loma larga","country":"pa","lat":7.9,"lon":-80.3333333},{"id":2058491,"name":"monte lirio","country":"pa","lat":8.45,"lon":-80.3333333},{"id":2057338,"name":"las lomas","country":"pa","lat":7.5833333,"lon":-80.0666667},{"id":2058061,"name":"los olivitos","country":"pa","lat":7.9333333,"lon":-80.4833333},{"id":2055088,"name":"el balar","country":"pa","lat":8.4833333,"lon":-80.4833333},{"id":2053946,"name":"boca de las guias","country":"pa","lat":8.4166667,"lon":-80.05},{"id":2057765,"name":"loma panama","country":"pa","lat":7.7333333,"lon":-80.4666667},{"id":2055652,"name":"el munoz","country":"pa","lat":7.6666667,"lon":-80.3166667},{"id":2059420,"name":"quindio","country":"pa","lat":7.55,"lon":-80.0666667},{"id":2057340,"name":"las lomitas","country":"pa","lat":7.8666667,"lon":-80.3666667},{"id":2056633,"name":"la chapa","country":"pa","lat":7.65,"lon":-80.3333333},{"id":2055850,"name":"el roble","country":"pa","lat":7.6166667,"lon":-80.45},{"id":2058542,"name":"nancito","country":"pa","lat":8.4166667,"lon":-80.0833333},{"id":2059662,"name":"saladito","country":"pa","lat":7.6833333,"lon":-80.2},{"id":2057558,"name":"la yeguada","country":"pa","lat":7.6666667,"lon":-80.0833333},{"id":2056897,"name":"la jenibrosa","country":"pa","lat":7.5666667,"lon":-80.1166667},{"id":2057272,"name":"las estancias","country":"pa","lat":7.7333333,"lon":-80.35},{"id":2059965,"name":"taboga","country":"pa","lat":7.5833333,"lon":-80.4333333},{"id":2058117,"name":"los potreros","country":"pa","lat":7.6833333,"lon":-80.3166667},{"id":2057806,"name":"los asientos","country":"pa","lat":7.5166667,"lon":-80.1333333},{"id":2058698,"name":"palagovia","country":"pa","lat":8.4666667,"lon":-80.0666667},{"id":2058889,"name":"peroniles","country":"pa","lat":7.5833333,"lon":-80.3666667},{"id":2054755,"name":"cienaga vieja","country":"pa","lat":8.4,"lon":-80.2833333},{"id":2055487,"name":"el hato","country":"pa","lat":8.45,"lon":-80.0666667},{"id":2055380,"name":"el espave","country":"pa","lat":7.5333333,"lon":-80.3833333},{"id":2056841,"name":"lagunitas","country":"pa","lat":7.5833333,"lon":-80.45},{"id":2059471,"name":"rincon hondo","country":"pa","lat":7.7666667,"lon":-80.4833333},{"id":2058065,"name":"los otoes","country":"pa","lat":7.6,"lon":-80.2833333},{"id":2056820,"name":"la granja","country":"pa","lat":7.7833333,"lon":-80.2833333},{"id":2059715,"name":"san francisco","country":"pa","lat":7.5,"lon":-80.1166667},{"id":2059410,"name":"quema","country":"pa","lat":7.6166667,"lon":-80.4666667},{"id":2054454,"name":"cermeno","country":"pa","lat":8.4833333,"lon":-80.45},{"id":2058141,"name":"los rincones","country":"pa","lat":7.5166667,"lon":-80.15},{"id":2055916,"name":"el tallo","country":"pa","lat":7.5666667,"lon":-80.4666667},{"id":2055247,"name":"el chiru","country":"pa","lat":8.4,"lon":-80.2},{"id":2057850,"name":"los calabacitos","country":"pa","lat":7.6833333,"lon":-80.4166667},{"id":2054860,"name":"congo","country":"pa","lat":8.4333333,"lon":-80.4166667},{"id":2057939,"name":"los gonzalez","country":"pa","lat":8.4666667,"lon":-80.2333333},{"id":2059798,"name":"santa ana","country":"pa","lat":7.6666667,"lon":-80.4166667},{"id":2055442,"name":"el guabo","country":"pa","lat":7.65,"lon":-80.2666667},{"id":2057137,"name":"la prieta","country":"pa","lat":7.5333333,"lon":-80.4833333},{"id":2059146,"name":"puerto guarare","country":"pa","lat":7.8666667,"lon":-80.3},{"id":2058016,"name":"los mayorales","country":"pa","lat":8.45,"lon":-80.2333333},{"id":2055592,"name":"el loro","country":"pa","lat":7.5833333,"lon":-80.35},{"id":2057732,"name":"loma del jobo","country":"pa","lat":7.7,"lon":-80.45},{"id":2054812,"name":"cocobolitas","country":"pa","lat":7.7666667,"lon":-80.25},{"id":2055320,"name":"el coroso","country":"pa","lat":8.3166667,"lon":-80.4666667},{"id":2055854,"name":"el roblillo","country":"pa","lat":7.6166667,"lon":-80.1166667},{"id":2053548,"name":"alto de la gloria","country":"pa","lat":8.4833333,"lon":-80.0333333},{"id":2060295,"name":"zape grande","country":"pa","lat":7.7666667,"lon":-80.3833333},{"id":2057774,"name":"los acevedos","country":"pa","lat":7.55,"lon":-80.1333333},{"id":2058004,"name":"los malaguetos","country":"pa","lat":7.6,"lon":-80.1833333},{"id":2057045,"name":"la palma","country":"pa","lat":8.4666667,"lon":-80.4833333},{"id":2056851,"name":"la hincada","country":"pa","lat":8.4166667,"lon":-80.25},{"id":2055870,"name":"el salado","country":"pa","lat":8.1833333,"lon":-80.4833333},{"id":2056772,"name":"la flora","country":"pa","lat":7.95,"lon":-80.4833333},{"id":2056861,"name":"la hondita","country":"pa","lat":7.9333333,"lon":-80.3333333},{"id":2057096,"name":"la pinuela","country":"pa","lat":7.5333333,"lon":-80.1333333},{"id":2057485,"name":"las zatras abajo","country":"pa","lat":7.8166667,"lon":-80.3833333},{"id":2058294,"name":"manglillo","country":"pa","lat":7.5,"lon":-80.35},{"id":2058708,"name":"palma grande","country":"pa","lat":7.7666667,"lon":-80.2333333},{"id":2057646,"name":"llano del rio","country":"pa","lat":7.7333333,"lon":-80.2333333},{"id":2054181,"name":"cacaito","country":"pa","lat":7.55,"lon":-80.35},{"id":2057313,"name":"las lagunitas","country":"pa","lat":7.6166667,"lon":-80.2666667},{"id":2058010,"name":"los marias","country":"pa","lat":7.85,"lon":-80.3666667},{"id":2053565,"name":"alto del corotuito","country":"pa","lat":7.5,"lon":-80.2},{"id":2056362,"name":"hondo de la cutarra","country":"pa","lat":7.5333333,"lon":-80.3666667},{"id":2057074,"name":"la pena","country":"pa","lat":7.7666667,"lon":-80.4166667},{"id":2055859,"name":"el rodeo","country":"pa","lat":7.7333333,"lon":-80.4166667},{"id":2053984,"name":"boca de rio hato","country":"pa","lat":8.3333333,"lon":-80.1666667},{"id":2058116,"name":"los potreritos","country":"pa","lat":7.6833333,"lon":-80.3333333},{"id":2053722,"name":"bahia honda","country":"pa","lat":7.6833333,"lon":-80.45},{"id":2057812,"name":"los azules","country":"pa","lat":8.3,"lon":-80.3333333},{"id":2054931,"name":"cruce del farallon","country":"pa","lat":8.3666667,"lon":-80.15},{"id":2059349,"name":"quebrada limon","country":"pa","lat":7.75,"lon":-80.4166667},{"id":2056464,"name":"jobo dulce","country":"pa","lat":7.9,"lon":-80.4333333},{"id":2059012,"name":"playa grande","country":"pa","lat":8.45,"lon":-79.9833333},{"id":2055662,"name":"el nanzal","country":"pa","lat":7.8166667,"lon":-80.3166667},{"id":2054609,"name":"cerro teta","country":"pa","lat":7.75,"lon":-80.2333333},{"id":2058341,"name":"marroquina","country":"pa","lat":7.6333333,"lon":-80.45},{"id":2056728,"name":"la encajonada","country":"pa","lat":7.5166667,"lon":-80.2666667},{"id":2053450,"name":"agua buena","country":"pa","lat":7.5333333,"lon":-80.1833333},{"id":2058759,"name":"panamaito","country":"pa","lat":8.4333333,"lon":-80.2166667},{"id":2055576,"name":"el limoncito","country":"pa","lat":7.55,"lon":-80.1666667},{"id":2058901,"name":"picacho","country":"pa","lat":7.6333333,"lon":-80.3666667},{"id":2058540,"name":"nances bonitos","country":"pa","lat":7.6666667,"lon":-80.3},{"id":2055914,"name":"el tabano","country":"pa","lat":7.5666667,"lon":-80.1833333},{"id":2055319,"name":"el coro","country":"pa","lat":7.5666667,"lon":-80.4},{"id":2054394,"name":"carricillal","country":"pa","lat":7.5666667,"lon":-80.2},{"id":2054764,"name":"cirguelera","country":"pa","lat":7.5666667,"lon":-80.3},{"id":2057529,"name":"la union","country":"pa","lat":8.45,"lon":-80.0},{"id":2057327,"name":"las lajitas","country":"pa","lat":7.5833333,"lon":-80.4666667},{"id":2057427,"name":"las placetas","country":"pa","lat":7.9666667,"lon":-80.4166667},{"id":2057038,"name":"la pacheca","country":"pa","lat":7.8333333,"lon":-80.2666667},{"id":2059878,"name":"seacliff acres","country":"pa","lat":8.3833333,"lon":-80.0833333},{"id":2058098,"name":"los pitales","country":"pa","lat":7.55,"lon":-80.3},{"id":2059929,"name":"solano","country":"pa","lat":7.55,"lon":-80.2},{"id":2057835,"name":"los bontoncillos","country":"pa","lat":7.7,"lon":-80.4333333},{"id":2056738,"name":"la enea","country":"pa","lat":7.5833333,"lon":-80.05},{"id":2058663,"name":"oria arriba","country":"pa","lat":7.6,"lon":-80.4333333},{"id":2059833,"name":"santa marta","country":"pa","lat":7.75,"lon":-80.3},{"id":2053764,"name":"bajo del rio","country":"pa","lat":7.7,"lon":-80.3833333},{"id":2057229,"name":"las cabezas","country":"pa","lat":7.5166667,"lon":-80.0833333},{"id":2056949,"name":"la loma","country":"pa","lat":8.4666667,"lon":-80.0333333},{"id":2057745,"name":"loma de paja","country":"pa","lat":7.7,"lon":-80.4666667},{"id":2056957,"name":"la madera","country":"pa","lat":7.5333333,"lon":-80.15},{"id":2055974,"name":"enea de mensabe","country":"pa","lat":7.7666667,"lon":-80.1833333},{"id":2057775,"name":"los agallos","country":"pa","lat":7.85,"lon":-80.3333333},{"id":2056460,"name":"joaquin","country":"pa","lat":7.5,"lon":-80.4333333},{"id":2056302,"name":"guevara","country":"pa","lat":7.8,"lon":-80.4666667},{"id":2058653,"name":"olivita arriba","country":"pa","lat":7.5333333,"lon":-80.4166667},{"id":2057346,"name":"las margaritas","country":"pa","lat":7.6833333,"lon":-80.4666667},{"id":2055222,"name":"el cedral","country":"pa","lat":7.5166667,"lon":-80.3666667},{"id":2057490,"name":"la tembladera abajo","country":"pa","lat":7.95,"lon":-80.3666667},{"id":2053464,"name":"aguacatillo","country":"pa","lat":8.4833333,"lon":-80.0833333},{"id":2057605,"name":"llano abajo","country":"pa","lat":7.7833333,"lon":-80.4166667},{"id":2058443,"name":"mina honda","country":"pa","lat":7.5166667,"lon":-80.1833333},{"id":2055399,"name":"el fermin","country":"pa","lat":7.6166667,"lon":-80.4},{"id":2057962,"name":"los higos","country":"pa","lat":7.5166667,"lon":-80.1},{"id":2056458,"name":"jiron","country":"pa","lat":7.7166667,"lon":-80.4},{"id":2059664,"name":"salado","country":"pa","lat":8.4833333,"lon":-80.2666667},{"id":2055236,"name":"el cerro","country":"pa","lat":7.65,"lon":-80.4166667},{"id":2060202,"name":"valle riquito","country":"pa","lat":7.6166667,"lon":-80.3166667},{"id":2059568,"name":"rio purio","country":"pa","lat":7.6166667,"lon":-80.1},{"id":2058062,"name":"los olivos","country":"pa","lat":7.9166667,"lon":-80.4833333},{"id":2056164,"name":"galopino","country":"pa","lat":7.6833333,"lon":-80.25},{"id":2057513,"name":"la trinidad","country":"pa","lat":7.6166667,"lon":-80.3},{"id":2055336,"name":"el crace","country":"pa","lat":7.8666667,"lon":-80.3166667},{"id":2058239,"name":"madronal","country":"pa","lat":7.8333333,"lon":-80.3166667},{"id":2057486,"name":"las zatras arriba","country":"pa","lat":7.8166667,"lon":-80.4},{"id":2057708,"name":"loma bonita","country":"pa","lat":7.7333333,"lon":-80.2666667},{"id":2055467,"name":"el guineo","country":"pa","lat":8.3333333,"lon":-80.3166667},{"id":2053731,"name":"bajo aparicio","country":"pa","lat":7.6333333,"lon":-80.25},{"id":2055192,"name":"el canafistulo","country":"pa","lat":7.6166667,"lon":-80.2333333},{"id":2054803,"name":"cocle","country":"pa","lat":8.45,"lon":-80.4333333},{"id":2058689,"name":"paja verde","country":"pa","lat":8.3166667,"lon":-80.4},{"id":2056523,"name":"la ahumada","country":"pa","lat":7.5333333,"lon":-80.05},{"id":2059316,"name":"quebrada grande","country":"pa","lat":7.6166667,"lon":-80.4166667},{"id":2054832,"name":"coiba","country":"pa","lat":7.5,"lon":-80.45},{"id":2057606,"name":"llano afuera","country":"pa","lat":7.75,"lon":-80.2666667},{"id":2059995,"name":"tembladera","country":"pa","lat":7.9333333,"lon":-80.3666667},{"id":2055624,"name":"el maranon","country":"pa","lat":8.4166667,"lon":-80.2166667},{"id":2056824,"name":"la guaca","country":"pa","lat":7.7833333,"lon":-80.3333333},{"id":2059528,"name":"rio grande","country":"pa","lat":8.4166667,"lon":-80.4833333},{"id":2058887,"name":"perico","country":"pa","lat":8.4333333,"lon":-80.05},{"id":2054539,"name":"cerro grande","country":"pa","lat":7.65,"lon":-80.3166667},{"id":2053699,"name":"asomadero","country":"pa","lat":7.5666667,"lon":-80.3333333},{"id":2054849,"name":"comejen","country":"pa","lat":8.45,"lon":-80.0166667},{"id":2057956,"name":"los hatillos","country":"pa","lat":7.6833333,"lon":-80.35},{"id":2053906,"name":"bijagual","country":"pa","lat":8.3666667,"lon":-80.25},{"id":2057813,"name":"los bajitos","country":"pa","lat":7.65,"lon":-80.4833333},{"id":2057458,"name":"las trancas","country":"pa","lat":7.7333333,"lon":-80.3666667},{"id":2055412,"name":"el galapaguero","country":"pa","lat":7.8333333,"lon":-80.3333333},{"id":2053763,"name":"bajo del pueblo","country":"pa","lat":8.4333333,"lon":-80.0333333},{"id":2056798,"name":"la garita","country":"pa","lat":7.5166667,"lon":-80.0},{"id":2058041,"name":"los munoces","country":"pa","lat":7.5666667,"lon":-80.4166667},{"id":2056225,"name":"guabas arriba","country":"pa","lat":8.4666667,"lon":-80.2666667},{"id":2056852,"name":"la hipolita","country":"pa","lat":8.4666667,"lon":-80.0833333},{"id":2054285,"name":"cana brava numero tres","country":"pa","lat":7.9,"lon":-80.4833333},{"id":2058311,"name":"maranones","country":"pa","lat":7.5833333,"lon":-80.3833333},{"id":2054782,"name":"cirvelito","country":"pa","lat":8.4,"lon":-80.2666667},{"id":2058475,"name":"monagre","country":"pa","lat":7.9666667,"lon":-80.35},{"id":2057054,"name":"la panchita","country":"pa","lat":8.4666667,"lon":-79.9833333},{"id":2056259,"name":"guarare arriba","country":"pa","lat":7.8166667,"lon":-80.3666667},{"id":2057545,"name":"la venta","country":"pa","lat":8.3666667,"lon":-80.1166667},{"id":2056804,"name":"lagartillo","country":"pa","lat":7.8833333,"lon":-80.3166667},{"id":2056799,"name":"la garnica","country":"pa","lat":7.8333333,"lon":-80.35},{"id":2059834,"name":"santa monica","country":"pa","lat":8.3666667,"lon":-80.2},{"id":2058583,"name":"nuario","country":"pa","lat":7.5333333,"lon":-80.3166667},{"id":2056777,"name":"la flor","country":"pa","lat":7.7166667,"lon":-80.3666667},{"id":2055615,"name":"el manantial","country":"pa","lat":7.7833333,"lon":-80.25},{"id":2059817,"name":"santa fe","country":"pa","lat":8.3666667,"lon":-80.2333333},{"id":2055552,"name":"el jobo de los gutierrez","country":"pa","lat":7.8,"lon":-80.3666667},{"id":2059298,"name":"quebrada el cercado","country":"pa","lat":7.6333333,"lon":-80.1333333},{"id":2056493,"name":"juan hombron","country":"pa","lat":8.35,"lon":-80.2166667},{"id":2055588,"name":"el llano","country":"pa","lat":8.4,"lon":-80.15},{"id":2057082,"name":"la petaluna","country":"pa","lat":7.7833333,"lon":-80.2666667},{"id":2057951,"name":"los gusanos","country":"pa","lat":7.6666667,"lon":-80.4333333},{"id":2058194,"name":"los vergara","country":"pa","lat":7.7333333,"lon":-80.2833333},{"id":2055679,"name":"el nopo","country":"pa","lat":7.8333333,"lon":-80.4666667},{"id":2057496,"name":"la tiza","country":"pa","lat":7.75,"lon":-80.2833333},{"id":2058876,"name":"perales","country":"pa","lat":7.7666667,"lon":-80.3166667},{"id":2056022,"name":"espino amarillo","country":"pa","lat":7.6833333,"lon":-80.4333333},{"id":2054519,"name":"cerro el barco","country":"pa","lat":7.9166667,"lon":-80.4166667},{"id":2056501,"name":"juarez","country":"pa","lat":7.6333333,"lon":-80.2},{"id":2054523,"name":"cerro florecita","country":"pa","lat":7.5666667,"lon":-80.45},{"id":2055723,"name":"el pastoreo","country":"pa","lat":8.4666667,"lon":-80.05},{"id":2054710,"name":"chorrerita","country":"pa","lat":8.3,"lon":-80.3833333},{"id":2059642,"name":"sabaneta del leon","country":"pa","lat":7.6666667,"lon":-80.45},{"id":2056762,"name":"la fabiana","country":"pa","lat":7.85,"lon":-80.4666667},{"id":2058477,"name":"monagrillo","country":"pa","lat":7.6833333,"lon":-80.3833333},{"id":2057039,"name":"la pacora","country":"pa","lat":8.4666667,"lon":-80.1166667},{"id":2053660,"name":"arenal","country":"pa","lat":7.7,"lon":-80.4},{"id":2059652,"name":"sabanita","country":"pa","lat":7.7166667,"lon":-80.4833333},{"id":2054733,"name":"chumico redondo","country":"pa","lat":8.4,"lon":-80.05},{"id":2055213,"name":"el carrizal","country":"pa","lat":7.6,"lon":-80.1666667},{"id":2058697,"name":"palacios","country":"pa","lat":7.55,"lon":-80.1166667},{"id":2056262,"name":"guararerito","country":"pa","lat":7.7833333,"lon":-80.4333333},{"id":2057283,"name":"las graditas","country":"pa","lat":7.5666667,"lon":-80.3833333},{"id":2059126,"name":"puerto chitre","country":"pa","lat":7.9833333,"lon":-80.4},{"id":2053471,"name":"agua fria","country":"pa","lat":8.4166667,"lon":-80.3333333},{"id":2057118,"name":"la plautenera","country":"pa","lat":7.5666667,"lon":-80.15},{"id":2056527,"name":"la albina","country":"pa","lat":8.3333333,"lon":-80.1833333},{"id":2057191,"name":"la sabaneta","country":"pa","lat":7.5833333,"lon":-80.3},{"id":2058375,"name":"mata palo","country":"pa","lat":8.4833333,"lon":-79.9833333},{"id":2056153,"name":"gago","country":"pa","lat":8.3666667,"lon":-80.4333333},{"id":2059694,"name":"san antonio","country":"pa","lat":7.5833333,"lon":-80.2},{"id":2053557,"name":"alto de la rosa","country":"pa","lat":8.4333333,"lon":-80.1},{"id":2057657,"name":"llano grande","country":"pa","lat":8.4333333,"lon":-80.0666667},{"id":2058494,"name":"montero","country":"pa","lat":7.7833333,"lon":-80.3},{"id":2057795,"name":"los angalles","country":"pa","lat":7.85,"lon":-80.35},{"id":2057878,"name":"los cerritos","country":"pa","lat":7.5166667,"lon":-80.3166667},{"id":2055205,"name":"el capuri","country":"pa","lat":7.7833333,"lon":-80.4666667},{"id":2058423,"name":"micoyite","country":"pa","lat":7.7833333,"lon":-80.45},{"id":2056843,"name":"la gusana","country":"pa","lat":7.5833333,"lon":-80.1833333},{"id":2058775,"name":"paradero","country":"pa","lat":7.5,"lon":-80.2833333},{"id":2055992,"name":"entre dos rios","country":"pa","lat":7.6,"lon":-80.1},{"id":2055284,"name":"el coco","country":"pa","lat":8.4,"lon":-80.35},{"id":2057707,"name":"loma bonita","country":"pa","lat":8.3833333,"lon":-80.1666667},{"id":2057776,"name":"los aguilares","country":"pa","lat":8.45,"lon":-80.2166667},{"id":2055475,"name":"el hatillo","country":"pa","lat":8.3833333,"lon":-80.2333333},{"id":2055114,"name":"el barrero","country":"pa","lat":7.8333333,"lon":-80.3},{"id":2057998,"name":"los macanitos","country":"pa","lat":7.6,"lon":-80.2},{"id":2055676,"name":"el noneco","country":"pa","lat":7.6333333,"lon":-80.1833333},{"id":2060102,"name":"tres quebrada arriba","country":"pa","lat":7.8333333,"lon":-80.4},{"id":2054825,"name":"cocuyo","country":"pa","lat":7.5666667,"lon":-80.0333333},{"id":2055517,"name":"el infiernillo","country":"pa","lat":8.4166667,"lon":-80.1666667},{"id":2058164,"name":"los santos","country":"pa","lat":7.9333333,"lon":-80.4166667},{"id":2058072,"name":"los pantanos","country":"pa","lat":8.3666667,"lon":-80.2666667},{"id":2058137,"name":"los reyes","country":"pa","lat":8.4333333,"lon":-80.1666667},{"id":2056137,"name":"franco","country":"pa","lat":7.55,"lon":-80.05},{"id":2056865,"name":"la horquetilla","country":"pa","lat":7.7666667,"lon":-80.4},{"id":2058079,"name":"los perez","country":"pa","lat":8.4833333,"lon":-80.2166667},{"id":2055238,"name":"el cerrud","country":"pa","lat":7.7166667,"lon":-80.3333333},{"id":2053655,"name":"arana","country":"pa","lat":7.65,"lon":-80.0833333},{"id":2054118,"name":"bustamante","country":"pa","lat":7.5333333,"lon":-80.2166667},{"id":2056172,"name":"garicin","country":"pa","lat":8.4333333,"lon":-80.45},{"id":2059959,"name":"tabacal","country":"pa","lat":7.7833333,"lon":-80.3666667},{"id":2054300,"name":"canajagua","country":"pa","lat":7.65,"lon":-80.4},{"id":2054897,"name":"corozal","country":"pa","lat":7.75,"lon":-80.4833333},{"id":2057236,"name":"las canazas","country":"pa","lat":7.7,"lon":-80.1833333},{"id":2056091,"name":"finca el rosario","country":"pa","lat":8.3833333,"lon":-80.3333333},{"id":2053663,"name":"arenas blancas","country":"pa","lat":8.3166667,"lon":-80.3833333},{"id":2056250,"name":"guanabano","country":"pa","lat":7.6166667,"lon":-80.2833333},{"id":2056966,"name":"la mandinga","country":"pa","lat":7.6833333,"lon":-80.2333333},{"id":2059635,"name":"sabana grande","country":"pa","lat":7.8333333,"lon":-80.3666667},{"id":2057909,"name":"los cuernitos","country":"pa","lat":7.85,"lon":-80.2666667}]});