callback({"markets":[{"id":927362,"name":"chateaulin","country":"fr","lat":48.194448,"lon":-4.089662},{"id":952850,"name":"lezele","country":"fr","lat":48.304006,"lon":-3.747102},{"id":950213,"name":"lescoat","country":"fr","lat":48.422247,"lon":-4.498584},{"id":978463,"name":"ty douar","country":"fr","lat":48.416667,"lon":-3.966667},{"id":962808,"name":"petit penarmenez","country":"fr","lat":48.116667,"lon":-3.933333},{"id":923472,"name":"brasparts","country":"fr","lat":48.301666,"lon":-3.955163},{"id":940406,"name":"kerscoff","country":"fr","lat":48.073107,"lon":-3.737664},{"id":940278,"name":"kerliou","country":"fr","lat":48.353914,"lon":-3.71142},{"id":959406,"name":"moulin blanc","country":"fr","lat":48.395753,"lon":-4.433833},{"id":940109,"name":"kerdoupin","country":"fr","lat":48.160671,"lon":-3.516778},{"id":942546,"name":"la forest-landerneau","country":"fr","lat":48.425893,"lon":-4.315779},{"id":950250,"name":"lesconil","country":"fr","lat":47.8,"lon":-4.216667},{"id":969246,"name":"sainte-brigite","country":"fr","lat":48.483333,"lon":-3.933333},{"id":954394,"name":"lyleyvon","country":"fr","lat":48.418333,"lon":-4.141661},{"id":940083,"name":"kerbrat","country":"fr","lat":48.465303,"lon":-4.455114},{"id":938424,"name":"haut quinquis","country":"fr","lat":48.25,"lon":-3.9},{"id":965445,"name":"quellennec","country":"fr","lat":47.966667,"lon":-3.616667},{"id":973417,"name":"saint-sebastien","country":"fr","lat":48.216667,"lon":-4.1},{"id":965853,"name":"rasperden","country":"fr","lat":47.966667,"lon":-3.833333},{"id":935130,"name":"fouesnant","country":"fr","lat":47.891874,"lon":-4.014838},{"id":951877,"name":"les sables blancs","country":"fr","lat":48.097532,"lon":-4.345332},{"id":940298,"name":"kermarzin","country":"fr","lat":48.433333,"lon":-3.733333},{"id":969106,"name":"saint-derbot","country":"fr","lat":48.466667,"lon":-4.3},{"id":940466,"name":"kerviniou","country":"fr","lat":47.862511,"lon":-3.887127},{"id":953849,"name":"lospars","country":"fr","lat":48.226559,"lon":-4.05422},{"id":948468,"name":"le neveit","country":"fr","lat":48.286581,"lon":-3.623284},{"id":923633,"name":"brennilis","country":"fr","lat":48.358106,"lon":-3.850888},{"id":959536,"name":"moustarguern","country":"fr","lat":48.346114,"lon":-3.752998},{"id":949238,"name":"le reundu","country":"fr","lat":48.332334,"lon":-3.888441},{"id":938419,"name":"haut pen-ar-forest","country":"fr","lat":48.466667,"lon":-4.35},{"id":962441,"name":"penmarc\u0027h","country":"fr","lat":47.816667,"lon":-4.333333},{"id":940179,"name":"kergouach","country":"fr","lat":48.335887,"lon":-3.701332},{"id":947322,"name":"le doulven","country":"fr","lat":48.301888,"lon":-3.984443},{"id":924639,"name":"cadol","country":"fr","lat":47.940159,"lon":-3.853935},{"id":964264,"name":"pors-gall","country":"fr","lat":47.95,"lon":-4.316667},{"id":948301,"name":"lemmeur","country":"fr","lat":48.069249,"lon":-3.542505},{"id":953444,"name":"loc-eguiner-saint-thegonnec","country":"fr","lat":48.462892,"lon":-3.969443},{"id":952870,"name":"l\u0027 harteloire","country":"fr","lat":48.4,"lon":-4.491667},{"id":922666,"name":"botven","country":"fr","lat":48.084166,"lon":-3.508839},{"id":922073,"name":"bois daniel","country":"fr","lat":48.012586,"lon":-3.856496},{"id":962431,"name":"penhoat cadol","country":"fr","lat":47.933333,"lon":-3.883333},{"id":972430,"name":"saint-nic","country":"fr","lat":48.2,"lon":-4.283333},{"id":940457,"name":"kervez","country":"fr","lat":48.302221,"lon":-4.028558},{"id":977859,"name":"toyal","country":"fr","lat":48.033333,"lon":-3.7},{"id":940243,"name":"kerivin","country":"fr","lat":48.248251,"lon":-4.288247},{"id":947931,"name":"le liorzou","country":"fr","lat":48.369443,"lon":-3.63411},{"id":932363,"name":"duhaut","country":"fr","lat":48.25,"lon":-4.2},{"id":977986,"name":"treffiagat","country":"fr","lat":47.816667,"lon":-4.266667},{"id":978102,"name":"tremeven","country":"fr","lat":47.9,"lon":-3.533333},{"id":940335,"name":"kernie","country":"fr","lat":48.337664,"lon":-4.437247},{"id":962407,"name":"penarros","country":"fr","lat":48.25,"lon":-3.766667},{"id":940304,"name":"kermenguy","country":"fr","lat":47.999917,"lon":-4.404164},{"id":940327,"name":"kernein","country":"fr","lat":47.862411,"lon":-4.039838},{"id":922815,"name":"bouillard","country":"fr","lat":48.457995,"lon":-3.763225},{"id":963567,"name":"plevin","country":"fr","lat":48.216667,"lon":-3.5},{"id":939993,"name":"kerael","country":"fr","lat":48.273996,"lon":-4.422747},{"id":944023,"name":"landibilic","country":"fr","lat":48.085332,"lon":-4.196003},{"id":940453,"name":"kerveyen","country":"fr","lat":47.965543,"lon":-4.298153},{"id":940459,"name":"kervic","country":"fr","lat":48.266667,"lon":-4.1},{"id":965431,"name":"queforc\u0027h","country":"fr","lat":48.416667,"lon":-3.633333},{"id":936678,"name":"goastalan","country":"fr","lat":48.296336,"lon":-4.118749},{"id":944256,"name":"lanneur","country":"fr","lat":48.18622,"lon":-3.758439},{"id":929521,"name":"confort","country":"fr","lat":48.051416,"lon":-4.43225},{"id":928940,"name":"clohars-fouesnant","country":"fr","lat":47.896567,"lon":-4.063957},{"id":963674,"name":"plouneour","country":"fr","lat":48.45,"lon":-3.883333},{"id":967196,"name":"rosnoen","country":"fr","lat":48.266667,"lon":-4.2},{"id":939041,"name":"huelgoat","country":"fr","lat":48.361115,"lon":-3.74578},{"id":976340,"name":"stang","country":"fr","lat":47.867791,"lon":-4.324858},{"id":964034,"name":"pont-croix","country":"fr","lat":48.033333,"lon":-4.483333},{"id":940014,"name":"kerandreo","country":"fr","lat":48.049001,"lon":-3.721886},{"id":962548,"name":"pernaman","country":"fr","lat":48.483333,"lon":-4.083333},{"id":978001,"name":"tregam","country":"fr","lat":48.15,"lon":-4.05},{"id":967694,"name":"rumengol","country":"fr","lat":48.3,"lon":-4.15},{"id":940216,"name":"kerhermain","country":"fr","lat":47.801606,"lon":-3.715703},{"id":963575,"name":"ploare","country":"fr","lat":48.083333,"lon":-4.316667},{"id":947877,"name":"le juch","country":"fr","lat":48.065779,"lon":-4.255108},{"id":978209,"name":"trevidec","country":"fr","lat":48.05,"lon":-3.95},{"id":948145,"name":"le mengleuz","country":"fr","lat":48.454997,"lon":-3.853664},{"id":970334,"name":"saint-germain","country":"fr","lat":47.966667,"lon":-4.25},{"id":963678,"name":"plounevezel","country":"fr","lat":48.3,"lon":-3.6},{"id":944228,"name":"lanio","country":"fr","lat":47.880946,"lon":-4.128137},{"id":965619,"name":"quinquis-ivin","country":"fr","lat":48.25,"lon":-3.916667},{"id":970520,"name":"saint-hernin","country":"fr","lat":48.216667,"lon":-3.633333},{"id":963601,"name":"plomelin","country":"fr","lat":47.933333,"lon":-4.15},{"id":948572,"name":"le passage","country":"fr","lat":48.390995,"lon":-4.380085},{"id":940009,"name":"kerancurru","country":"fr","lat":48.330418,"lon":-4.093671},{"id":921983,"name":"bodevintin","country":"fr","lat":48.340551,"lon":-4.180113},{"id":946723,"name":"le briou","country":"fr","lat":48.453886,"lon":-3.80422},{"id":936845,"name":"gouesnach","country":"fr","lat":47.910403,"lon":-4.114499},{"id":978012,"name":"tregeunour","country":"fr","lat":47.85,"lon":-4.033333},{"id":928986,"name":"coatanea","country":"fr","lat":48.485554,"lon":-4.481445},{"id":973683,"name":"saint-thonan","country":"fr","lat":48.483333,"lon":-4.333333},{"id":963602,"name":"plomeur","country":"fr","lat":47.833333,"lon":-4.283333},{"id":970666,"name":"saint-ildut","country":"fr","lat":48.433333,"lon":-4.1},{"id":948302,"name":"le moennec","country":"fr","lat":48.316667,"lon":-3.933333},{"id":927370,"name":"chateauneuf","country":"fr","lat":48.187553,"lon":-3.817888},{"id":963698,"name":"plovan","country":"fr","lat":47.916667,"lon":-4.366667},{"id":953488,"name":"locquillec","country":"fr","lat":47.863776,"lon":-3.619719},{"id":943551,"name":"la maison blanche","country":"fr","lat":48.466667,"lon":-3.583333},{"id":978458,"name":"ty-aryun","country":"fr","lat":48.366667,"lon":-3.916667},{"id":977946,"name":"treanna","country":"fr","lat":48.016667,"lon":-3.9},{"id":940442,"name":"kerveguen","country":"fr","lat":48.233833,"lon":-3.863835},{"id":965588,"name":"quimper","country":"fr","lat":48.0,"lon":-4.1},{"id":931002,"name":"crozon","country":"fr","lat":48.246585,"lon":-4.489246},{"id":947229,"name":"le crann","country":"fr","lat":48.369554,"lon":-3.780557},{"id":940116,"name":"kerdudal","country":"fr","lat":48.095503,"lon":-3.622663},{"id":948418,"name":"le moustier","country":"fr","lat":48.094087,"lon":-3.679825},{"id":944375,"name":"lanveoc","country":"fr","lat":48.286997,"lon":-4.461753},{"id":965568,"name":"quilinen","country":"fr","lat":48.083333,"lon":-4.066667},{"id":943918,"name":"lampaul-guimiliau","country":"fr","lat":48.491561,"lon":-4.041439},{"id":940123,"name":"kerelcun","country":"fr","lat":48.379113,"lon":-3.823663},{"id":929348,"name":"commana","country":"fr","lat":48.413003,"lon":-3.95583},{"id":940412,"name":"kersimon","country":"fr","lat":48.266667,"lon":-4.45},{"id":953475,"name":"locmelar","country":"fr","lat":48.453664,"lon":-4.065223},{"id":942735,"name":"la garenne","country":"fr","lat":48.426421,"lon":-3.953081},{"id":940387,"name":"kerroc\u0027h","country":"fr","lat":48.457162,"lon":-4.025994},{"id":923930,"name":"bringal","country":"fr","lat":47.883265,"lon":-4.22141},{"id":940384,"name":"kerriou","country":"fr","lat":48.014835,"lon":-3.631084},{"id":940251,"name":"kerjulien","country":"fr","lat":48.03275,"lon":-3.57183},{"id":951708,"name":"lespurit","country":"fr","lat":47.947751,"lon":-4.324922},{"id":976333,"name":"squivit-pella","country":"fr","lat":48.35,"lon":-4.266667},{"id":940276,"name":"kerlinic","country":"fr","lat":47.997835,"lon":-3.950333},{"id":937211,"name":"grand lopers","country":"fr","lat":47.983333,"lon":-3.533333},{"id":963628,"name":"plouedern","country":"fr","lat":48.483333,"lon":-4.25},{"id":976844,"name":"telgruc","country":"fr","lat":48.233333,"lon":-4.35},{"id":962780,"name":"petit launay","country":"fr","lat":48.266667,"lon":-4.433333},{"id":967207,"name":"rospellem","country":"fr","lat":48.4,"lon":-3.6},{"id":965617,"name":"quinioualc\u0027h","country":"fr","lat":48.4,"lon":-3.8},{"id":940417,"name":"kersuluan","country":"fr","lat":47.806625,"lon":-4.362571},{"id":954562,"name":"mahalon","country":"fr","lat":48.034332,"lon":-4.434915},{"id":963702,"name":"plozevet","country":"fr","lat":47.983333,"lon":-4.416667},{"id":969211,"name":"sainte anne la palud","country":"fr","lat":48.133333,"lon":-4.266667},{"id":939194,"name":"illien-an-traon","country":"fr","lat":48.345066,"lon":-4.436144},{"id":947109,"name":"le cloitre","country":"fr","lat":48.257662,"lon":-3.890329},{"id":925360,"name":"cast","country":"fr","lat":48.157117,"lon":-4.138885},{"id":924735,"name":"callac","country":"fr","lat":48.186442,"lon":-3.574995},{"id":940389,"name":"kerrot","country":"fr","lat":48.19678,"lon":-4.162892},{"id":938421,"name":"haut penhors","country":"fr","lat":47.942327,"lon":-4.403498},{"id":940131,"name":"kerfany","country":"fr","lat":47.805556,"lon":-3.716667},{"id":940105,"name":"kerdevot","country":"fr","lat":48.006192,"lon":-3.977281},{"id":944239,"name":"lanneanou","country":"fr","lat":48.488663,"lon":-3.673107},{"id":963626,"name":"ploudiry","country":"fr","lat":48.45,"lon":-4.15},{"id":968648,"name":"saint-cadou","country":"fr","lat":48.366667,"lon":-4.016667},{"id":922661,"name":"botmeur","country":"fr","lat":48.382445,"lon":-3.918444},{"id":940467,"name":"kervinon","country":"fr","lat":47.983333,"lon":-4.383333},{"id":939195,"name":"illien-ar-guen","country":"fr","lat":48.352748,"lon":-4.436831},{"id":948462,"name":"le nenvez","country":"fr","lat":48.230085,"lon":-3.900083},{"id":940439,"name":"kervedan","country":"fr","lat":47.644138,"lon":-3.501124},{"id":947323,"name":"le douric","country":"fr","lat":48.4,"lon":-4.466667},{"id":956545,"name":"menez-cam","country":"fr","lat":48.166667,"lon":-3.666667},{"id":940061,"name":"kerberou","country":"fr","lat":48.386664,"lon":-3.869665},{"id":943695,"name":"lambrat","country":"fr","lat":47.946567,"lon":-4.274557},{"id":940157,"name":"kergallec","country":"fr","lat":48.333333,"lon":-4.433333},{"id":944056,"name":"landrevarzec","country":"fr","lat":48.091772,"lon":-4.060438},{"id":936848,"name":"gouezec","country":"fr","lat":48.16911,"lon":-3.972774},{"id":950220,"name":"lescogan","country":"fr","lat":48.086581,"lon":-4.461087},{"id":937886,"name":"guilvinec","country":"fr","lat":47.797005,"lon":-4.285528},{"id":964513,"name":"pouldreuzic","country":"fr","lat":47.95,"lon":-4.366667},{"id":928990,"name":"coat-cod","country":"fr","lat":48.286442,"lon":-3.69678},{"id":947225,"name":"le couzanec","country":"fr","lat":48.334443,"lon":-3.84356},{"id":922654,"name":"bot-cador","country":"fr","lat":48.3761,"lon":-3.938106},{"id":952853,"name":"lezennet","country":"fr","lat":47.976828,"lon":-3.569558},{"id":969445,"name":"sainte-gertrude","country":"fr","lat":47.916667,"lon":-3.516667},{"id":966246,"name":"rest","country":"fr","lat":47.916667,"lon":-4.2},{"id":952510,"name":"leuhan","country":"fr","lat":48.099084,"lon":-3.783666},{"id":938400,"name":"haut linglatz","country":"fr","lat":48.4,"lon":-4.3},{"id":963610,"name":"plonevez-porsay","country":"fr","lat":48.1,"lon":-4.216667},{"id":921348,"name":"beuzec-conq","country":"fr","lat":47.888874,"lon":-3.901506},{"id":944286,"name":"lanorven","country":"fr","lat":48.490995,"lon":-4.421331},{"id":946322,"name":"laz","country":"fr","lat":48.137886,"lon":-3.834777},{"id":944374,"name":"lanvenegen","country":"fr","lat":47.998112,"lon":-3.541339},{"id":940269,"name":"kerleguer","country":"fr","lat":47.8,"lon":-4.25},{"id":949468,"name":"lesaouvreguen","country":"fr","lat":48.094087,"lon":-4.424162},{"id":920794,"name":"benodet","country":"fr","lat":47.875742,"lon":-4.102533},{"id":967689,"name":"rulosquet","country":"fr","lat":48.066667,"lon":-4.25},{"id":956825,"name":"mesgalon","country":"fr","lat":48.399334,"lon":-4.438913},{"id":943996,"name":"landeleau","country":"fr","lat":48.227337,"lon":-3.728503},{"id":966235,"name":"restancaroff","country":"fr","lat":48.416667,"lon":-3.933333},{"id":929663,"name":"coray","country":"fr","lat":48.059338,"lon":-3.830557},{"id":940113,"name":"kerdrein","country":"fr","lat":48.027009,"lon":-4.225099},{"id":965579,"name":"quilliou","country":"fr","lat":48.221442,"lon":-3.801666},{"id":928905,"name":"cleumerien","country":"fr","lat":48.05,"lon":-3.698112},{"id":940315,"name":"kermorgant","country":"fr","lat":48.474551,"lon":-3.812003},{"id":950553,"name":"les fontaines","country":"fr","lat":48.14889,"lon":-4.007551},{"id":978027,"name":"treguennec","country":"fr","lat":47.883333,"lon":-4.333333},{"id":939997,"name":"keralcun","country":"fr","lat":48.332001,"lon":-4.393671},{"id":938509,"name":"heles","country":"fr","lat":47.933333,"lon":-3.633333},{"id":963642,"name":"plougastel-daoulas","country":"fr","lat":48.366667,"lon":-4.366667},{"id":978459,"name":"ty bianet","country":"fr","lat":48.216667,"lon":-4.15},{"id":938146,"name":"hanvec","country":"fr","lat":48.32692,"lon":-4.159505},{"id":953543,"name":"lohuec","country":"fr","lat":48.459449,"lon":-3.520998},{"id":962411,"name":"pen ar ven","country":"fr","lat":48.283333,"lon":-4.15},{"id":963707,"name":"pluguffan","country":"fr","lat":47.983333,"lon":-4.183333},{"id":924023,"name":"bron","country":"fr","lat":48.014835,"lon":-3.818666},{"id":952867,"name":"lez treouzien","country":"fr","lat":47.988392,"lon":-4.453613},{"id":944243,"name":"lannedern","country":"fr","lat":48.301416,"lon":-3.895503},{"id":944246,"name":"lannelec","country":"fr","lat":48.24392,"lon":-3.952582},{"id":940177,"name":"kergorre","country":"fr","lat":48.474329,"lon":-3.74155},{"id":978190,"name":"treuscoat","country":"fr","lat":48.166667,"lon":-3.833333},{"id":919587,"name":"barnaou","country":"fr","lat":48.206579,"lon":-3.576494},{"id":962400,"name":"pen-ar-lan","country":"fr","lat":48.216667,"lon":-3.75},{"id":963694,"name":"plouye","country":"fr","lat":48.316667,"lon":-3.733333},{"id":947886,"name":"le laignou","country":"fr","lat":48.066667,"lon":-3.583333},{"id":953443,"name":"loc-eguiner-ploudiry","country":"fr","lat":48.473329,"lon":-4.094004},{"id":940201,"name":"kerguereon","country":"fr","lat":48.284072,"lon":-4.426157},{"id":972613,"name":"saint-patern","country":"fr","lat":48.233333,"lon":-3.566667},{"id":953241,"name":"linglatz","country":"fr","lat":48.40075,"lon":-4.296252},{"id":956511,"name":"menes-riou","country":"fr","lat":47.966667,"lon":-3.933333},{"id":976595,"name":"tal-ar-groas","country":"fr","lat":48.25,"lon":-4.416667},{"id":940397,"name":"kersalaun","country":"fr","lat":48.107745,"lon":-3.813158},{"id":956820,"name":"mescoat","country":"fr","lat":48.480224,"lon":-4.13622},{"id":921987,"name":"bodingar","country":"fr","lat":48.347557,"lon":-4.016445},{"id":924170,"name":"brunguen","country":"fr","lat":48.068749,"lon":-4.347751},{"id":962731,"name":"petit cochon","country":"fr","lat":47.724167,"lon":-3.516667},{"id":978214,"name":"trevignon","country":"fr","lat":47.8,"lon":-3.833333},{"id":951668,"name":"lespoudou","country":"fr","lat":48.497835,"lon":-3.921247},{"id":940144,"name":"kerflaconnier","country":"fr","lat":48.35,"lon":-3.85},{"id":960507,"name":"nizon","country":"fr","lat":47.863696,"lon":-3.766747},{"id":929007,"name":"coatrescar","country":"fr","lat":48.40812,"lon":-3.592577},{"id":921981,"name":"bodencs","country":"fr","lat":48.351555,"lon":-4.167666},{"id":929001,"name":"coatmeur","country":"fr","lat":48.425078,"lon":-4.383999},{"id":929006,"name":"coatqueveran","country":"fr","lat":48.216667,"lon":-3.65},{"id":940213,"name":"kerhaul","country":"fr","lat":48.275005,"lon":-4.130668},{"id":929400,"name":"concarneau","country":"fr","lat":47.875019,"lon":-3.922449},{"id":944210,"name":"languideau","country":"fr","lat":47.916667,"lon":-4.35},{"id":923902,"name":"brigneun","country":"fr","lat":48.236775,"lon":-4.209327},{"id":940148,"name":"kergaben","country":"fr","lat":48.011427,"lon":-4.196296},{"id":940311,"name":"kermodiern","country":"fr","lat":48.270415,"lon":-4.175162},{"id":940239,"name":"kerinou","country":"fr","lat":48.402582,"lon":-4.48808},{"id":962432,"name":"penhoat","country":"fr","lat":48.133333,"lon":-3.666667},{"id":977653,"name":"toul an groas","country":"fr","lat":48.383333,"lon":-3.633333},{"id":932738,"name":"elliant","country":"fr","lat":47.99417,"lon":-3.889662},{"id":953530,"name":"logonna-quimerch","country":"fr","lat":48.247335,"lon":-4.130557},{"id":975067,"name":"seiter","country":"fr","lat":48.433333,"lon":-4.366667},{"id":978195,"name":"treveller","country":"fr","lat":48.25,"lon":-3.55},{"id":940337,"name":"kernisi","country":"fr","lat":48.36267,"lon":-4.425994},{"id":940200,"name":"kerguen","country":"fr","lat":47.926504,"lon":-4.37792},{"id":940067,"name":"kerbiquet","country":"fr","lat":47.913214,"lon":-3.573413},{"id":940008,"name":"kerancloarec","country":"fr","lat":48.036429,"lon":-4.070559},{"id":930574,"name":"cozvoalet","country":"fr","lat":48.15,"lon":-3.533333},{"id":953528,"name":"logonna-daoulas","country":"fr","lat":48.32308,"lon":-4.296752},{"id":931484,"name":"daoulas","country":"fr","lat":48.360893,"lon":-4.259772},{"id":948481,"name":"lennon","country":"fr","lat":48.192755,"lon":-3.897085},{"id":936846,"name":"gouesnou","country":"fr","lat":48.452665,"lon":-4.464557},{"id":953255,"name":"linspern","country":"fr","lat":48.35,"lon":-4.433333},{"id":928993,"name":"coat-er-huiler","country":"fr","lat":47.963696,"lon":-3.571887},{"id":940493,"name":"kerzellec","country":"fr","lat":48.112447,"lon":-3.69155},{"id":963608,"name":"plonevez-du-faou","country":"fr","lat":48.25,"lon":-3.833333},{"id":949410,"name":"le saint","country":"fr","lat":48.089579,"lon":-3.560837},{"id":928996,"name":"coatibilic","country":"fr","lat":48.201332,"lon":-3.771414},{"id":953465,"name":"locmaria-berrien","country":"fr","lat":48.352998,"lon":-3.695558},{"id":956443,"name":"mellac","country":"fr","lat":47.903453,"lon":-3.576748},{"id":966238,"name":"restargoff","country":"fr","lat":48.2,"lon":-3.7},{"id":964537,"name":"poulloudu","country":"fr","lat":48.2,"lon":-3.5},{"id":923851,"name":"briec-de-l\u0027odet","country":"fr","lat":48.101666,"lon":-3.998334},{"id":944273,"name":"lannuzon","country":"fr","lat":48.422441,"lon":-3.64789},{"id":978094,"name":"tremelle","country":"fr","lat":48.2,"lon":-3.8},{"id":942464,"name":"la feuillee","country":"fr","lat":48.39145,"lon":-3.855219},{"id":978460,"name":"ty-blaise","country":"fr","lat":48.2,"lon":-3.9},{"id":929335,"name":"combrit","country":"fr","lat":47.887343,"lon":-4.158167},{"id":938915,"name":"hopital-camfrout","country":"fr","lat":48.327892,"lon":-4.24155},{"id":974947,"name":"scrignac","country":"fr","lat":48.433333,"lon":-3.683333},{"id":967659,"name":"rugen","country":"fr","lat":48.116667,"lon":-4.216667},{"id":964124,"name":"pont gueau","country":"fr","lat":48.066667,"lon":-4.1},{"id":940448,"name":"kervenos","country":"fr","lat":47.919874,"lon":-4.065402},{"id":964534,"name":"poullaouen","country":"fr","lat":48.333333,"lon":-3.65},{"id":928814,"name":"cleden-poher","country":"fr","lat":48.236442,"lon":-3.66911},{"id":962783,"name":"petit lestreonec","country":"fr","lat":48.483333,"lon":-4.3},{"id":970452,"name":"saint-goazec","country":"fr","lat":48.166667,"lon":-3.783333},{"id":966717,"name":"roc\u0027h cleguer","country":"fr","lat":48.416667,"lon":-4.033333},{"id":952492,"name":"letty","country":"fr","lat":47.808556,"lon":-4.252008},{"id":950989,"name":"lesivy","country":"fr","lat":48.466667,"lon":-4.333333},{"id":942559,"name":"la foret","country":"fr","lat":47.910102,"lon":-3.978575},{"id":976341,"name":"stanlach","country":"fr","lat":48.183333,"lon":-3.85},{"id":940576,"name":"lababan","country":"fr","lat":47.958328,"lon":-4.382167},{"id":933067,"name":"ergue-armel","country":"fr","lat":47.985544,"lon":-4.066932},{"id":936859,"name":"goulaouren","country":"fr","lat":48.343587,"lon":-4.099167},{"id":931859,"name":"doelan","country":"fr","lat":47.772564,"lon":-3.610589},{"id":964260,"name":"pors-an-place","country":"fr","lat":48.266667,"lon":-3.5},{"id":956546,"name":"menez-meur","country":"fr","lat":48.000666,"lon":-3.919748},{"id":947349,"name":"le faou","country":"fr","lat":48.293421,"lon":-4.179086},{"id":940355,"name":"keroueil","country":"fr","lat":48.21378,"lon":-3.82978},{"id":940477,"name":"kervouster","country":"fr","lat":48.05,"lon":-4.233333},{"id":944380,"name":"lanvily","country":"fr","lat":48.25508,"lon":-4.318333},{"id":940488,"name":"keryouen","country":"fr","lat":47.937018,"lon":-4.351437},{"id":963588,"name":"plogastel-saint-germain","country":"fr","lat":47.983333,"lon":-4.266667},{"id":962478,"name":"penzer","country":"fr","lat":48.283333,"lon":-4.433333},{"id":953780,"name":"loqueffret","country":"fr","lat":48.319776,"lon":-3.857228},{"id":919445,"name":"barbary","country":"fr","lat":47.916667,"lon":-3.783333},{"id":963606,"name":"ploneour-lanvern","country":"fr","lat":47.9,"lon":-4.283333},{"id":940386,"name":"kerroch","country":"fr","lat":47.95,"lon":-4.283333},{"id":967663,"name":"ruguellon","country":"fr","lat":48.383333,"lon":-3.833333},{"id":948390,"name":"le mougau","country":"fr","lat":48.4,"lon":-3.966667},{"id":962470,"name":"pentrez","country":"fr","lat":48.2,"lon":-4.3},{"id":944264,"name":"lannourzel","country":"fr","lat":48.342942,"lon":-4.425412},{"id":922652,"name":"botaval","country":"fr","lat":48.242227,"lon":-3.66056},{"id":940024,"name":"keranquernat","country":"fr","lat":47.772912,"lon":-3.542579},{"id":953823,"name":"l\u0027ormeau","country":"fr","lat":48.466445,"lon":-4.438663},{"id":940415,"name":"kerstridic","country":"fr","lat":47.986748,"lon":-4.341245},{"id":937926,"name":"guiseriff","country":"fr","lat":48.049445,"lon":-3.64356},{"id":952704,"name":"le vieux bourg","country":"fr","lat":48.2,"lon":-4.1},{"id":922659,"name":"bot izel","country":"fr","lat":48.205441,"lon":-3.703886},{"id":944030,"name":"landivigen","country":"fr","lat":48.116667,"lon":-3.983333},{"id":940241,"name":"kerity","country":"fr","lat":47.79988,"lon":-4.351446},{"id":978144,"name":"treogan","country":"fr","lat":48.183333,"lon":-3.516667},{"id":930641,"name":"creac\u0027h ar bleiz","country":"fr","lat":48.478891,"lon":-4.00211},{"id":938397,"name":"haut kerinec","country":"fr","lat":48.062348,"lon":-4.408107},{"id":940136,"name":"kerfeons","country":"fr","lat":48.4,"lon":-4.021331},{"id":947974,"name":"le lue","country":"fr","lat":47.686111,"lon":-3.945833},{"id":965621,"name":"quinquis meur","country":"fr","lat":48.483333,"lon":-4.216667},{"id":940468,"name":"kerviny","country":"fr","lat":48.056496,"lon":-4.3825},{"id":963604,"name":"plomodiern","country":"fr","lat":48.183333,"lon":-4.233333},{"id":940005,"name":"kerampere","country":"fr","lat":48.4,"lon":-4.441667},{"id":980458,"name":"vieux-quimerch","country":"fr","lat":48.3,"lon":-4.066667},{"id":969472,"name":"sainte-julienne","country":"fr","lat":48.1,"lon":-3.616667},{"id":978005,"name":"tregarvan","country":"fr","lat":48.25,"lon":-4.216667},{"id":981121,"name":"villeneuve-troloc","country":"fr","lat":47.75,"lon":-3.5},{"id":967270,"name":"roudouallec","country":"fr","lat":48.133333,"lon":-3.716667},{"id":940039,"name":"keraudren","country":"fr","lat":48.428586,"lon":-4.481168},{"id":949224,"name":"le relecq","country":"fr","lat":48.406912,"lon":-4.393587},{"id":940240,"name":"keriolet","country":"fr","lat":48.333333,"lon":-3.566667},{"id":919715,"name":"bas lanzent","country":"fr","lat":48.135998,"lon":-3.587081},{"id":963590,"name":"plogonnec","country":"fr","lat":48.083333,"lon":-4.183333},{"id":953775,"name":"loperec","country":"fr","lat":48.277337,"lon":-4.047557},{"id":973704,"name":"saint-tugdual","country":"fr","lat":48.033333,"lon":-3.583333},{"id":953363,"name":"litiez","country":"fr","lat":48.397002,"lon":-3.877216},{"id":978465,"name":"ty floc\u0027h","country":"fr","lat":48.333333,"lon":-4.45},{"id":977921,"name":"traouidan","country":"fr","lat":48.366667,"lon":-4.4},{"id":951080,"name":"les letiez","country":"fr","lat":48.366667,"lon":-4.1},{"id":940187,"name":"kergrenn","country":"fr","lat":48.489079,"lon":-3.905996},{"id":940161,"name":"kergariou","country":"fr","lat":47.948394,"lon":-3.555059},{"id":944185,"name":"langolen","country":"fr","lat":48.067,"lon":-3.913003},{"id":940271,"name":"kerlen","country":"fr","lat":47.934096,"lon":-4.177794},{"id":940168,"name":"kergoat","country":"fr","lat":48.071747,"lon":-3.597668},{"id":946469,"name":"le boennec","country":"fr","lat":48.33089,"lon":-3.635554},{"id":937205,"name":"grand le crann","country":"fr","lat":48.366667,"lon":-3.783333},{"id":936667,"name":"glujeou-bras","country":"fr","lat":48.341578,"lon":-4.022497},{"id":940186,"name":"kergreis","country":"fr","lat":48.462003,"lon":-3.738413},{"id":976600,"name":"talavouron","country":"fr","lat":48.333333,"lon":-4.416667},{"id":922252,"name":"bolazec","country":"fr","lat":48.444004,"lon":-3.58511},{"id":963593,"name":"plomarc\u0027h-tosta","country":"fr","lat":48.1,"lon":-4.316667},{"id":937908,"name":"guipavas","country":"fr","lat":48.435221,"lon":-4.397224},{"id":964353,"name":"port-launay","country":"fr","lat":48.216667,"lon":-4.066667},{"id":964176,"name":"pont-pol","country":"fr","lat":48.166667,"lon":-3.866667},{"id":978098,"name":"tremeoc","country":"fr","lat":47.9,"lon":-4.216667},{"id":940021,"name":"keranhier","country":"fr","lat":48.073441,"lon":-4.043549},{"id":949059,"name":"le pouldu","country":"fr","lat":47.767872,"lon":-3.543575},{"id":970517,"name":"saint-herbot","country":"fr","lat":48.333333,"lon":-3.8},{"id":965574,"name":"quillidiec","country":"fr","lat":48.416667,"lon":-3.983333},{"id":966239,"name":"restarmenach","country":"fr","lat":48.333333,"lon":-3.6},{"id":976339,"name":"stang kergoulay","country":"fr","lat":48.133333,"lon":-4.0},{"id":940494,"name":"kerzeniel","country":"fr","lat":47.981165,"lon":-3.686766},{"id":963605,"name":"ploneis","country":"fr","lat":48.016667,"lon":-4.216667},{"id":977706,"name":"tourch","country":"fr","lat":48.033333,"lon":-3.833333},{"id":944263,"name":"lannon","country":"fr","lat":48.486748,"lon":-4.356496},{"id":944149,"name":"langantec","country":"fr","lat":48.250111,"lon":-3.620664},{"id":977668,"name":"toul-lanne","country":"fr","lat":48.033333,"lon":-3.616667},{"id":965645,"name":"quislinit","country":"fr","lat":48.416667,"lon":-4.05},{"id":978145,"name":"treogat","country":"fr","lat":47.916667,"lon":-4.316667},{"id":940483,"name":"kervriou","country":"fr","lat":48.268888,"lon":-3.828891},{"id":949294,"name":"le rody","country":"fr","lat":48.40075,"lon":-4.430918},{"id":940112,"name":"kerdreal","country":"fr","lat":47.997835,"lon":-4.484749},{"id":967252,"name":"rotudal","country":"fr","lat":48.1,"lon":-3.766667},{"id":940065,"name":"kerbillio","country":"fr","lat":48.147918,"lon":-3.623339},{"id":952127,"name":"lestremelar","country":"fr","lat":48.381556,"lon":-4.039107},{"id":940475,"name":"kervoroguet","country":"fr","lat":48.236331,"lon":-3.514752},{"id":928980,"name":"coadry","country":"fr","lat":48.045336,"lon":-3.761448},{"id":940100,"name":"kerdelliou","country":"fr","lat":48.082917,"lon":-3.954664},{"id":932658,"name":"edern","country":"fr","lat":48.1,"lon":-3.983333},{"id":962774,"name":"petit kergonan","country":"fr","lat":48.233333,"lon":-3.683333},{"id":969611,"name":"sainte-marine","country":"fr","lat":47.866667,"lon":-4.116667},{"id":969511,"name":"saint-eloy","country":"fr","lat":48.366667,"lon":-4.116667},{"id":956911,"name":"messabioc","country":"fr","lat":48.28214,"lon":-4.468414},{"id":955617,"name":"maros","country":"fr","lat":48.266556,"lon":-4.276661},{"id":952160,"name":"le suler","country":"fr","lat":47.836626,"lon":-4.193612},{"id":959552,"name":"moustoulgoat","country":"fr","lat":47.938212,"lon":-3.701762},{"id":944255,"name":"lanneuffret","country":"fr","lat":48.497252,"lon":-4.202415},{"id":930649,"name":"creac\u0027hniver","country":"fr","lat":48.425116,"lon":-3.62022},{"id":965439,"name":"quelennec","country":"fr","lat":48.366667,"lon":-4.05},{"id":953252,"name":"linlouet","country":"fr","lat":48.207495,"lon":-4.004497},{"id":978456,"name":"tyar-gall","country":"fr","lat":48.366667,"lon":-3.7},{"id":928906,"name":"cleuncoat","country":"fr","lat":48.483333,"lon":-3.666667},{"id":929014,"name":"coazeuzen","country":"fr","lat":48.455497,"lon":-3.997002},{"id":940381,"name":"kerretz","country":"fr","lat":48.1,"lon":-4.133333},{"id":944308,"name":"lanredec","country":"fr","lat":48.4,"lon":-4.483333},{"id":940312,"name":"kermoguen","country":"fr","lat":48.238108,"lon":-4.121442},{"id":963560,"name":"pleuven","country":"fr","lat":47.9,"lon":-4.033333},{"id":945930,"name":"lavallot","country":"fr","lat":48.420998,"lon":-4.424079},{"id":940334,"name":"kernevez saint-christophe","country":"fr","lat":48.348834,"lon":-4.218333},{"id":944272,"name":"lannuzel","country":"fr","lat":48.388746,"lon":-4.265168},{"id":946965,"name":"le chateau","country":"fr","lat":48.380668,"lon":-4.493499},{"id":937257,"name":"grand ris","country":"fr","lat":48.1,"lon":-4.3},{"id":936843,"name":"gouellet leuhan","country":"fr","lat":48.083333,"lon":-3.816667},{"id":960369,"name":"nevez","country":"fr","lat":47.819237,"lon":-3.792247},{"id":940159,"name":"kergaouen","country":"fr","lat":48.039496,"lon":-3.888996},{"id":930642,"name":"creach burguy","country":"fr","lat":48.433111,"lon":-4.424662},{"id":940052,"name":"kerbastun","country":"fr","lat":48.253748,"lon":-4.415168},{"id":940266,"name":"kerleachuiou","country":"fr","lat":48.2,"lon":-3.65},{"id":963464,"name":"plascaer","country":"fr","lat":48.004414,"lon":-3.77258},{"id":973214,"name":"saint-rivoal","country":"fr","lat":48.35,"lon":-4.0},{"id":962399,"name":"pen-ar-forest","country":"fr","lat":48.461087,"lon":-4.353331},{"id":937849,"name":"guiler-sur-goeyen","country":"fr","lat":48.016084,"lon":-4.358589},{"id":947065,"name":"lechiagat","country":"fr","lat":47.794057,"lon":-4.273172},{"id":963685,"name":"plourac\u0027h","country":"fr","lat":48.416667,"lon":-3.55},{"id":933975,"name":"favot","country":"fr","lat":48.321164,"lon":-3.999917},{"id":940118,"name":"kerdutal","country":"fr","lat":48.316667,"lon":-3.583333},{"id":917704,"name":"argol","country":"fr","lat":48.246003,"lon":-4.316445},{"id":921007,"name":"berrien","country":"fr","lat":48.402776,"lon":-3.752665},{"id":973219,"name":"saint-roch","country":"fr","lat":47.916667,"lon":-4.166667},{"id":930648,"name":"creach miloc","country":"fr","lat":48.480835,"lon":-4.213481},{"id":953468,"name":"loc maria","country":"fr","lat":47.941404,"lon":-3.896326},{"id":936021,"name":"gars-maria","country":"fr","lat":48.203081,"lon":-3.952832},{"id":940419,"name":"kerthomas","country":"fr","lat":48.21217,"lon":-4.363169},{"id":938520,"name":"hellen","country":"fr","lat":48.139218,"lon":-3.984999},{"id":949222,"name":"le relec","country":"fr","lat":48.44578,"lon":-3.83511},{"id":930647,"name":"creac\u0027h menory","country":"fr","lat":48.464224,"lon":-3.81066},{"id":962428,"name":"penhars","country":"fr","lat":47.983333,"lon":-4.133333},{"id":967690,"name":"rumain","country":"fr","lat":47.916667,"lon":-3.616667},{"id":964044,"name":"pont-de-buis","country":"fr","lat":48.25,"lon":-4.083333},{"id":946831,"name":"le caroff","country":"fr","lat":48.227226,"lon":-3.630779},{"id":940034,"name":"kerarsaos","country":"fr","lat":48.485582,"lon":-4.338913},{"id":938819,"name":"hinguer","country":"fr","lat":48.233333,"lon":-3.866667},{"id":947959,"name":"le loscoat","country":"fr","lat":48.018649,"lon":-4.132054},{"id":940226,"name":"keridreuff","country":"fr","lat":48.038996,"lon":-4.481251},{"id":948478,"name":"le niver","country":"fr","lat":48.101333,"lon":-3.935248},{"id":937780,"name":"guernevez","country":"fr","lat":48.391667,"lon":-4.466667},{"id":977990,"name":"treffrin","country":"fr","lat":48.3,"lon":-3.516667},{"id":967716,"name":"runiou","country":"fr","lat":48.45,"lon":-4.383333},{"id":965620,"name":"quinquis marc","country":"fr","lat":48.466667,"lon":-4.266667},{"id":964308,"name":"port de rosbras","country":"fr","lat":47.816667,"lon":-3.75},{"id":966225,"name":"reslamey","country":"fr","lat":48.25,"lon":-3.716667},{"id":969525,"name":"saint-elven","country":"fr","lat":48.466667,"lon":-4.366667},{"id":967228,"name":"rostiviec","country":"fr","lat":48.35,"lon":-4.316667},{"id":962778,"name":"petit keryeau","country":"fr","lat":48.283333,"lon":-3.95},{"id":940166,"name":"kergloff","country":"fr","lat":48.273996,"lon":-3.621563},{"id":924174,"name":"brunphuez","country":"fr","lat":47.977462,"lon":-4.436009},{"id":940407,"name":"kerselec","country":"fr","lat":47.916667,"lon":-3.583333},{"id":932135,"name":"douarnenez","country":"fr","lat":48.087129,"lon":-4.32413},{"id":938281,"name":"haut botbodern","country":"fr","lat":47.983333,"lon":-3.95},{"id":944214,"name":"languivoa","country":"fr","lat":47.90956,"lon":-4.260644},{"id":944235,"name":"lanmeur","country":"fr","lat":47.833333,"lon":-3.716667},{"id":940122,"name":"kerehleuse","country":"fr","lat":48.4,"lon":-4.416667},{"id":977704,"name":"tourbian","country":"fr","lat":48.416667,"lon":-4.45},{"id":970522,"name":"saint-herve","country":"fr","lat":48.166667,"lon":-3.566667},{"id":930645,"name":"creach-guennou","country":"fr","lat":48.167888,"lon":-4.286775},{"id":940264,"name":"kerlaz","country":"fr","lat":48.091328,"lon":-4.271497},{"id":931294,"name":"cuzon","country":"fr","lat":47.990146,"lon":-4.018026},{"id":944311,"name":"lanriec","country":"fr","lat":47.869468,"lon":-3.88306},{"id":960483,"name":"niquelvez","country":"fr","lat":48.388774,"lon":-3.761781},{"id":931795,"name":"dineault","country":"fr","lat":48.219221,"lon":-4.164113},{"id":964033,"name":"pont coblaut","country":"fr","lat":48.189773,"lon":-3.984554},{"id":977945,"name":"treambon","country":"fr","lat":48.233333,"lon":-3.766667},{"id":953855,"name":"lothey-landremel","country":"fr","lat":48.181445,"lon":-4.027549},{"id":940272,"name":"kerlesquin","country":"fr","lat":48.247002,"lon":-3.956496},{"id":922655,"name":"bot-caerel","country":"fr","lat":48.437081,"lon":-4.202748},{"id":940308,"name":"kermez","country":"fr","lat":48.11489,"lon":-3.810893},{"id":940098,"name":"kerdaveron","country":"fr","lat":48.066667,"lon":-4.166667},{"id":962026,"name":"parcfetein","country":"fr","lat":48.083333,"lon":-3.55},{"id":940111,"name":"kerdraon","country":"fr","lat":48.21267,"lon":-4.101666},{"id":932292,"name":"drevez","country":"fr","lat":47.977732,"lon":-4.315673},{"id":940128,"name":"keresquant","country":"fr","lat":48.064446,"lon":-3.881223},{"id":929640,"name":"controal","country":"fr","lat":47.911325,"lon":-3.543902},{"id":940340,"name":"kernon","country":"fr","lat":48.429336,"lon":-3.77022},{"id":969157,"name":"saint-divy","country":"fr","lat":48.45,"lon":-4.333333},{"id":963585,"name":"ploeven","country":"fr","lat":48.15,"lon":-4.233333},{"id":969853,"name":"saint-evarzec","country":"fr","lat":47.933333,"lon":-4.016667},{"id":928938,"name":"clohars-carnoet","country":"fr","lat":47.796065,"lon":-3.585019},{"id":922653,"name":"botbodern","country":"fr","lat":47.983333,"lon":-3.85},{"id":921990,"name":"bodister","country":"fr","lat":48.49044,"lon":-3.799001},{"id":943533,"name":"la magdeleine","country":"fr","lat":48.147113,"lon":-3.521331},{"id":940208,"name":"kergus","country":"fr","lat":48.430148,"lon":-3.5731},{"id":919805,"name":"bas tremillo","country":"fr","lat":48.266667,"lon":-3.683333},{"id":937138,"name":"grand drevez","country":"fr","lat":47.983333,"lon":-4.316667},{"id":943644,"name":"la martyre","country":"fr","lat":48.448668,"lon":-4.159338},{"id":967190,"name":"rosmadec","country":"fr","lat":48.211681,"lon":-4.350554},{"id":947326,"name":"le dreff","country":"fr","lat":48.397835,"lon":-4.357828},{"id":940051,"name":"kerbarguin","country":"fr","lat":48.381889,"lon":-3.861448},{"id":944270,"name":"lannuon","country":"fr","lat":48.161226,"lon":-3.624329},{"id":929178,"name":"collorec","country":"fr","lat":48.284888,"lon":-3.774228},{"id":956394,"name":"meillars","country":"fr","lat":48.04392,"lon":-4.427753},{"id":940075,"name":"kerborden","country":"fr","lat":47.983333,"lon":-3.666667},{"id":973710,"name":"saint-urbain","country":"fr","lat":48.4,"lon":-4.233333},{"id":977993,"name":"treflec\u0027h","country":"fr","lat":48.283333,"lon":-3.75},{"id":966824,"name":"roc\u0027hfily","country":"fr","lat":48.483333,"lon":-4.066667},{"id":936921,"name":"gournoise","country":"fr","lat":48.083333,"lon":-3.65},{"id":973687,"name":"saint-thurien","country":"fr","lat":47.95,"lon":-3.633333},{"id":965650,"name":"quistinit","country":"fr","lat":47.983333,"lon":-3.766667},{"id":964014,"name":"pont-aven","country":"fr","lat":47.85,"lon":-3.75},{"id":945040,"name":"la roche-maurice","country":"fr","lat":48.474551,"lon":-4.20211},{"id":964520,"name":"poulguen","country":"fr","lat":47.8,"lon":-4.3},{"id":960120,"name":"nestavel","country":"fr","lat":48.35533,"lon":-3.877438},{"id":978133,"name":"tremunut","country":"fr","lat":48.116667,"lon":-3.7},{"id":937734,"name":"guelven","country":"fr","lat":48.1,"lon":-3.916667},{"id":940206,"name":"kerguillaouet","country":"fr","lat":47.79478,"lon":-3.796226},{"id":963995,"name":"pontanezen","country":"fr","lat":48.416667,"lon":-4.466667},{"id":940017,"name":"kerangall","country":"fr","lat":48.392494,"lon":-4.437913},{"id":935011,"name":"forestou","country":"fr","lat":48.383333,"lon":-4.466667},{"id":952462,"name":"le trevoux","country":"fr","lat":47.89478,"lon":-3.640802},{"id":919916,"name":"baye","country":"fr","lat":47.857228,"lon":-3.604417},{"id":952518,"name":"leur neven","country":"fr","lat":48.066667,"lon":-4.116667},{"id":940193,"name":"kergroas","country":"fr","lat":48.283749,"lon":-3.581084},{"id":956431,"name":"melgven","country":"fr","lat":47.906264,"lon":-3.83518},{"id":940129,"name":"kerever","country":"fr","lat":48.390218,"lon":-4.067444},{"id":940497,"name":"kerziou","country":"fr","lat":48.335998,"lon":-4.428336},{"id":959331,"name":"motreff","country":"fr","lat":48.200999,"lon":-3.554164},{"id":944072,"name":"landuval","country":"fr","lat":48.062447,"lon":-3.977115},{"id":951723,"name":"lesquidic","country":"fr","lat":47.926266,"lon":-4.081845},{"id":949190,"name":"le quillion","country":"fr","lat":48.480446,"lon":-3.719221},{"id":978034,"name":"tregunc","country":"fr","lat":47.85,"lon":-3.85},{"id":944017,"name":"landevec","country":"fr","lat":48.140662,"lon":-3.590162},{"id":944004,"name":"landerneau","country":"fr","lat":48.452517,"lon":-4.252517},{"id":949166,"name":"le queau","country":"fr","lat":48.43883,"lon":-4.07792},{"id":964532,"name":"poullan","country":"fr","lat":48.083333,"lon":-4.416667},{"id":980422,"name":"vieux-bourg","country":"fr","lat":48.2,"lon":-4.016667},{"id":981654,"name":"viny","country":"fr","lat":47.95,"lon":-4.233333},{"id":944382,"name":"lanvoy","country":"fr","lat":48.297835,"lon":-4.225828},{"id":965622,"name":"quinquis","country":"fr","lat":47.933333,"lon":-3.7},{"id":920435,"name":"beg-meil","country":"fr","lat":47.85759,"lon":-3.983242},{"id":963576,"name":"plobannalec","country":"fr","lat":47.816667,"lon":-4.216667},{"id":940995,"name":"la boissiere","country":"fr","lat":47.920281,"lon":-3.902831},{"id":940124,"name":"kerelle","country":"fr","lat":48.497668,"lon":-4.146741},{"id":928977,"name":"coadigou","country":"fr","lat":48.016667,"lon":-3.766667},{"id":936804,"name":"gorrequer","country":"fr","lat":48.334832,"lon":-4.29949},{"id":936907,"name":"gourlizon","country":"fr","lat":48.018655,"lon":-4.266065},{"id":944160,"name":"langereguin","country":"fr","lat":47.847591,"lon":-4.256184},{"id":964145,"name":"pont-l\u0027abbe","country":"fr","lat":47.866667,"lon":-4.216667},{"id":943086,"name":"la haie","country":"fr","lat":48.458245,"lon":-4.179252},{"id":951088,"name":"lesloc\u0027h","country":"fr","lat":48.492588,"lon":-3.832334},{"id":944068,"name":"landudec","country":"fr","lat":47.999833,"lon":-4.336414},{"id":923246,"name":"boutihiry","country":"fr","lat":48.115779,"lon":-3.56378},{"id":959550,"name":"moustoir","country":"fr","lat":47.950883,"lon":-3.520522},{"id":940082,"name":"kerbrann","country":"fr","lat":48.381334,"lon":-3.851555},{"id":970494,"name":"saint-guenole","country":"fr","lat":47.816667,"lon":-4.366667},{"id":949577,"name":"les avregan","country":"fr","lat":48.489829,"lon":-3.55075},{"id":940205,"name":"kerguidiec","country":"fr","lat":48.183333,"lon":-3.916667},{"id":968933,"name":"saint-coulitz","country":"fr","lat":48.183333,"lon":-4.066667},{"id":940339,"name":"kernonen","country":"fr","lat":48.431001,"lon":-4.03622},{"id":940487,"name":"keryel","country":"fr","lat":48.460449,"lon":-3.861892},{"id":940135,"name":"kerfautras","country":"fr","lat":48.383333,"lon":-4.475},{"id":952123,"name":"lestrediec","country":"fr","lat":48.400222,"lon":-3.518666},{"id":936905,"name":"gourinet","country":"fr","lat":47.966667,"lon":-4.416667},{"id":953491,"name":"locronan","country":"fr","lat":48.098834,"lon":-4.207662},{"id":931816,"name":"dirizenet","country":"fr","lat":48.448334,"lon":-4.039079},{"id":940037,"name":"kerascoet","country":"fr","lat":48.315557,"lon":-4.25956},{"id":936906,"name":"gourin","country":"fr","lat":48.138663,"lon":-3.607551},{"id":940392,"name":"kerruc","country":"fr","lat":47.88646,"lon":-4.248559},{"id":963633,"name":"plouenez","country":"fr","lat":48.35,"lon":-3.816667},{"id":944285,"name":"lanorgar","country":"fr","lat":47.883333,"lon":-3.647751},{"id":922738,"name":"boudouguen","country":"fr","lat":48.33275,"lon":-4.140329},{"id":940353,"name":"kerouac","country":"fr","lat":47.984859,"lon":-3.810564},{"id":952129,"name":"lestreonec","country":"fr","lat":48.486997,"lon":-4.302665},{"id":965585,"name":"quimerch","country":"fr","lat":48.283333,"lon":-4.116667},{"id":940252,"name":"kerlaeron","country":"fr","lat":47.991911,"lon":-4.381751},{"id":952014,"name":"le stanc","country":"fr","lat":48.0,"lon":-3.666667},{"id":940025,"name":"keranrun","country":"fr","lat":47.839436,"lon":-3.763615},{"id":928954,"name":"clouchouren","country":"fr","lat":48.273996,"lon":-4.496252},{"id":940390,"name":"kerroual","country":"fr","lat":48.46725,"lon":-4.012087},{"id":940012,"name":"kerandraou","country":"fr","lat":48.102415,"lon":-4.410005},{"id":940277,"name":"kerlinou","country":"fr","lat":48.085498,"lon":-3.518249},{"id":922579,"name":"boscadouen","country":"fr","lat":48.103998,"lon":-3.687664},{"id":978024,"name":"tregourez","country":"fr","lat":48.1,"lon":-3.866667},{"id":940352,"name":"keroriou","country":"fr","lat":48.383333,"lon":-4.483333},{"id":953469,"name":"locmaria","country":"fr","lat":47.984899,"lon":-4.108958},{"id":947111,"name":"le cloitre-saint-thegonnec","country":"fr","lat":48.479558,"lon":-3.793782},{"id":967135,"name":"roquinarc\u0027h","country":"fr","lat":48.35,"lon":-3.966667},{"id":973426,"name":"saint-segal","country":"fr","lat":48.233333,"lon":-4.066667},{"id":928991,"name":"coatconq","country":"fr","lat":47.926873,"lon":-3.896973},{"id":954207,"name":"luguniat","country":"fr","lat":48.269332,"lon":-4.404414},{"id":978360,"name":"trouce","country":"fr","lat":47.916667,"lon":-3.883333},{"id":946823,"name":"le caon","country":"fr","lat":48.221352,"lon":-4.372726},{"id":922599,"name":"boscornou","country":"fr","lat":48.446891,"lon":-4.08511},{"id":956754,"name":"meros","country":"fr","lat":48.210005,"lon":-3.7505},{"id":952115,"name":"lestraouen","country":"fr","lat":48.339912,"lon":-4.370415},{"id":940149,"name":"kergadalen","country":"fr","lat":48.267,"lon":-4.235998},{"id":965587,"name":"quimperle","country":"fr","lat":47.866667,"lon":-3.55},{"id":925228,"name":"caros-combout","country":"fr","lat":47.965864,"lon":-3.50249},{"id":943593,"name":"la marche","country":"fr","lat":48.277587,"lon":-3.971914},{"id":940351,"name":"keroret","country":"fr","lat":48.11267,"lon":-3.878891},{"id":919371,"name":"bannalec","country":"fr","lat":47.932289,"lon":-3.697591},{"id":940416,"name":"kersuigou","country":"fr","lat":47.936706,"lon":-3.569157},{"id":978121,"name":"tremorgat","country":"fr","lat":48.233333,"lon":-3.933333},{"id":940219,"name":"kerhoaden","country":"fr","lat":48.3,"lon":-3.833333},{"id":940196,"name":"kerguelfen","country":"fr","lat":48.286831,"lon":-4.064002},{"id":940299,"name":"kermatheano","country":"fr","lat":47.818675,"lon":-4.300402},{"id":940004,"name":"keramoine","country":"fr","lat":47.900416,"lon":-4.357995},{"id":940396,"name":"kersaint-plabennec","country":"fr","lat":48.471664,"lon":-4.37233},{"id":964511,"name":"pouldergat","country":"fr","lat":48.05,"lon":-4.333333},{"id":925752,"name":"celan","country":"fr","lat":47.809316,"lon":-3.793612},{"id":940031,"name":"kerargon","country":"fr","lat":48.478673,"lon":-4.442709},{"id":925213,"name":"carnoet","country":"fr","lat":48.367555,"lon":-3.520442},{"id":932136,"name":"douarnenez-treboul","country":"fr","lat":48.1,"lon":-4.35},{"id":962858,"name":"peumerit","country":"fr","lat":47.939055,"lon":-4.309336},{"id":940120,"name":"kerean","country":"fr","lat":48.404664,"lon":-3.64356},{"id":966479,"name":"rieo-sur-belon","country":"fr","lat":47.833333,"lon":-3.7},{"id":940084,"name":"kerbriant","country":"fr","lat":48.4,"lon":-4.433333},{"id":940228,"name":"keriequel","country":"fr","lat":48.262586,"lon":-3.954497},{"id":940184,"name":"kergreach","country":"fr","lat":48.110116,"lon":-3.849778},{"id":962398,"name":"pen ar coat","country":"fr","lat":48.4,"lon":-4.45},{"id":940259,"name":"kerlavarec","country":"fr","lat":47.918594,"lon":-3.516105},{"id":936671,"name":"goas-alec","country":"fr","lat":48.380557,"lon":-3.777448},{"id":935239,"name":"fourneuf","country":"fr","lat":48.439995,"lon":-4.453331},{"id":940418,"name":"kertanguy","country":"fr","lat":48.286248,"lon":-4.439995},{"id":923626,"name":"breneben","country":"fr","lat":48.10322,"lon":-3.719443},{"id":922657,"name":"botevry","country":"fr","lat":48.405774,"lon":-4.167111},{"id":940398,"name":"kersaliou","country":"fr","lat":48.015668,"lon":-4.371747},{"id":965450,"name":"quemeneven","country":"fr","lat":48.116667,"lon":-4.116667},{"id":977528,"name":"tohou","country":"fr","lat":48.216667,"lon":-3.516667},{"id":940463,"name":"kervilon","country":"fr","lat":47.819136,"lon":-4.359577},{"id":978464,"name":"tyflean","country":"fr","lat":48.133333,"lon":-3.95},{"id":940093,"name":"kerdalaes","country":"fr","lat":48.383333,"lon":-4.183333},{"id":928992,"name":"coat-drega","country":"fr","lat":48.078003,"lon":-3.988996},{"id":933068,"name":"ergue-gaberic","country":"fr","lat":47.995622,"lon":-4.022232},{"id":963568,"name":"pleyben","country":"fr","lat":48.233333,"lon":-3.966667},{"id":939297,"name":"irvillac","country":"fr","lat":48.370109,"lon":-4.212225},{"id":940160,"name":"kergaradec","country":"fr","lat":48.433333,"lon":-4.466667},{"id":962393,"name":"penanerch","country":"fr","lat":48.016667,"lon":-4.033333},{"id":972162,"name":"saint-maur","country":"fr","lat":48.1,"lon":-3.5},{"id":929008,"name":"coatres","country":"fr","lat":48.280151,"lon":-4.483901},{"id":940020,"name":"keranhc\u0027roff","country":"fr","lat":48.394004,"lon":-3.846225},{"id":940209,"name":"kerguz","country":"fr","lat":48.29392,"lon":-3.907079},{"id":940356,"name":"kerouer","country":"fr","lat":48.198223,"lon":-3.60533},{"id":940443,"name":"kervel","country":"fr","lat":48.115779,"lon":-4.272441},{"id":940326,"name":"kernec","country":"fr","lat":47.966667,"lon":-3.554577},{"id":940400,"name":"kersaniou","country":"fr","lat":48.234832,"lon":-4.406871},{"id":947879,"name":"le kermeur","country":"fr","lat":48.467167,"lon":-3.73733},{"id":940101,"name":"kerdeniel","country":"fr","lat":48.329835,"lon":-4.439995},{"id":964539,"name":"poulmic","country":"fr","lat":48.283333,"lon":-4.416667},{"id":940464,"name":"kervinic","country":"fr","lat":48.284915,"lon":-4.047751},{"id":962472,"name":"penvenn","country":"fr","lat":48.25,"lon":-3.516667},{"id":940010,"name":"kerandouare","country":"fr","lat":48.0,"lon":-4.266667},{"id":930643,"name":"creach-carnel","country":"fr","lat":48.357117,"lon":-4.194881},{"id":940026,"name":"keransaux","country":"fr","lat":48.451416,"lon":-3.646585},{"id":940470,"name":"kervizic","country":"fr","lat":48.35,"lon":-4.416667},{"id":944368,"name":"lanvaidic","country":"fr","lat":48.220887,"lon":-4.084777},{"id":953462,"name":"locjean","country":"fr","lat":47.981727,"lon":-3.792853},{"id":937750,"name":"guengat","country":"fr","lat":48.041929,"lon":-4.204698},{"id":938524,"name":"helles","country":"fr","lat":48.428003,"lon":-3.614668},{"id":952133,"name":"lestrigniou","country":"fr","lat":47.825945,"lon":-4.3106},{"id":970954,"name":"saint-jean-trolimon","country":"fr","lat":47.866667,"lon":-4.283333},{"id":962394,"name":"pen-an-guer","country":"fr","lat":48.239392,"lon":-4.372538},{"id":965575,"name":"quillien","country":"fr","lat":48.05,"lon":-3.8},{"id":972060,"name":"saint-maude","country":"fr","lat":48.05,"lon":-3.6},{"id":940222,"name":"kerhornou","country":"fr","lat":48.364224,"lon":-3.858561},{"id":962415,"name":"pencran","country":"fr","lat":48.433333,"lon":-4.233333},{"id":923899,"name":"brigneau","country":"fr","lat":47.78541,"lon":-3.671098},{"id":947577,"name":"le gouezou","country":"fr","lat":48.421747,"lon":-4.013752},{"id":940333,"name":"kernevez","country":"fr","lat":48.411448,"lon":-3.770998},{"id":925172,"name":"carhaix","country":"fr","lat":48.278558,"lon":-3.567232},{"id":966237,"name":"restangoasguer","country":"fr","lat":48.1,"lon":-3.516667},{"id":940069,"name":"kerbizien","country":"fr","lat":48.368999,"lon":-3.757329},{"id":936674,"name":"goascadien","country":"fr","lat":48.182937,"lon":-3.668663},{"id":973663,"name":"saint-thois","country":"fr","lat":48.166667,"lon":-3.883333},{"id":977981,"name":"tredudon","country":"fr","lat":48.4,"lon":-3.833333},{"id":931815,"name":"dirinon","country":"fr","lat":48.397751,"lon":-4.270165},{"id":937916,"name":"guirhoen","country":"fr","lat":48.43833,"lon":-3.881418},{"id":953776,"name":"loperhet","country":"fr","lat":48.377253,"lon":-4.30608},{"id":940218,"name":"kerherve","country":"fr","lat":48.248334,"lon":-3.648556},{"id":965566,"name":"quilien","country":"fr","lat":48.466667,"lon":-3.783333},{"id":923667,"name":"brest","country":"fr","lat":48.390756,"lon":-4.486165},{"id":940064,"name":"kerbigot","country":"fr","lat":47.775472,"lon":-3.51893},{"id":937828,"name":"guidel-plage","country":"fr","lat":47.767677,"lon":-3.521801},{"id":951528,"name":"lesperbe","country":"fr","lat":48.058854,"lon":-4.31036},{"id":946720,"name":"le brieux","country":"fr","lat":48.03695,"lon":-4.102201},{"id":965488,"name":"querrien","country":"fr","lat":47.966667,"lon":-3.533333},{"id":953492,"name":"loctudy","country":"fr","lat":47.833333,"lon":-4.166667},{"id":939423,"name":"izella","country":"fr","lat":48.379918,"lon":-3.642244},{"id":965463,"name":"quenequen","country":"fr","lat":48.4,"lon":-3.65},{"id":978036,"name":"treguron","country":"fr","lat":48.166667,"lon":-3.95},{"id":975789,"name":"sizun","country":"fr","lat":48.4,"lon":-4.083333},{"id":965577,"name":"quillihuel","country":"fr","lat":48.133333,"lon":-3.5},{"id":949192,"name":"le quinquis","country":"fr","lat":48.309327,"lon":-3.939329},{"id":940454,"name":"kervezec","country":"fr","lat":48.469443,"lon":-3.706662},{"id":964509,"name":"pouldavid","country":"fr","lat":48.066667,"lon":-4.333333},{"id":940137,"name":"kerfeunteun","country":"fr","lat":48.004555,"lon":-4.092747},{"id":976320,"name":"spezet","country":"fr","lat":48.2,"lon":-3.716667},{"id":977994,"name":"treflevenez","country":"fr","lat":48.416667,"lon":-4.166667},{"id":957388,"name":"moelan","country":"fr","lat":47.814177,"lon":-3.628916},{"id":944315,"name":"lanrivoare","country":"fr","lat":48.466667,"lon":-3.633333},{"id":964186,"name":"pont-priant","country":"fr","lat":48.05,"lon":-3.55},{"id":977980,"name":"tredudon-le-moine","country":"fr","lat":48.416667,"lon":-3.833333},{"id":946238,"name":"la villenueve","country":"fr","lat":48.466667,"lon":-3.866667},{"id":937889,"name":"guimiliau","country":"fr","lat":48.487997,"lon":-3.997113},{"id":940224,"name":"kerhuel","country":"fr","lat":47.93249,"lon":-4.219317},{"id":965583,"name":"quilvouarn","country":"fr","lat":48.1,"lon":-4.383333},{"id":924647,"name":"caero","country":"fr","lat":48.120331,"lon":-3.751749},{"id":944018,"name":"landevennec","country":"fr","lat":48.29145,"lon":-4.266445},{"id":940119,"name":"kerdutal-le-roi","country":"fr","lat":48.301023,"lon":-3.648068},{"id":952436,"name":"le trehou","country":"fr","lat":48.394337,"lon":-4.131334}]});