callback({"markets":[{"id":410148,"name":"baleng","country":"cm","lat":5.5166667,"lon":10.4166667},{"id":417715,"name":"okorobi","country":"cm","lat":6.1833333,"lon":9.7833333},{"id":410201,"name":"bamendjinda","country":"cm","lat":5.6166667,"lon":10.3},{"id":410213,"name":"baminje","country":"cm","lat":6.0666667,"lon":9.8166667},{"id":412676,"name":"fujua","country":"cm","lat":6.2833333,"lon":10.2833333},{"id":412668,"name":"fowaji","country":"cm","lat":5.5333333,"lon":10.0333333},{"id":411347,"name":"bum","country":"cm","lat":6.4833333,"lon":10.4},{"id":417722,"name":"oku","country":"cm","lat":6.25,"lon":10.4333333},{"id":410184,"name":"bambalang","country":"cm","lat":5.8833333,"lon":10.3833333},{"id":409866,"name":"atebong","country":"cm","lat":5.5833333,"lon":9.8333333},{"id":413973,"name":"kumfutu","country":"cm","lat":6.4833333,"lon":10.2},{"id":413166,"name":"guneku","country":"cm","lat":6.0833333,"lon":9.9166667},{"id":412494,"name":"ewangabi","country":"cm","lat":5.8833333,"lon":9.6833333},{"id":410343,"name":"bapi","country":"cm","lat":5.55,"lon":10.3666667},{"id":417591,"name":"nyajua","country":"cm","lat":6.2166667,"lon":10.4},{"id":410163,"name":"balighansin","country":"cm","lat":5.7166667,"lon":10.2666667},{"id":416812,"name":"ngonu","country":"cm","lat":6.0666667,"lon":9.7833333},{"id":418227,"name":"sabes","country":"cm","lat":5.65,"lon":9.8666667},{"id":418688,"name":"tedji","country":"cm","lat":5.9333333,"lon":9.7833333},{"id":410490,"name":"befang","country":"cm","lat":6.3,"lon":9.9833333},{"id":416626,"name":"ngali","country":"cm","lat":6.3333333,"lon":9.5333333},{"id":417649,"name":"nyos-acha","country":"cm","lat":6.45,"lon":10.2666667},{"id":409701,"name":"amalive","country":"cm","lat":6.2333333,"lon":9.6333333},{"id":414146,"name":"levoni","country":"cm","lat":5.5166667,"lon":10.0666667},{"id":415129,"name":"mbengo","country":"cm","lat":6.1666667,"lon":10.2833333},{"id":418978,"name":"widekum","country":"cm","lat":5.8666667,"lon":9.7666667},{"id":412682,"name":"fundong","country":"cm","lat":6.25,"lon":10.2666667},{"id":418860,"name":"tudji","country":"cm","lat":6.1,"lon":9.8833333},{"id":416822,"name":"ngotin","country":"cm","lat":6.1333333,"lon":10.2333333},{"id":409931,"name":"baba","country":"cm","lat":6.0333333,"lon":10.4666667},{"id":410164,"name":"balikumbat","country":"cm","lat":5.9,"lon":10.3833333},{"id":410209,"name":"bamessing","country":"cm","lat":5.9666667,"lon":10.4166667},{"id":415675,"name":"mezong","country":"cm","lat":5.9166667,"lon":9.9},{"id":409723,"name":"amebesu","country":"cm","lat":5.8833333,"lon":9.5666667},{"id":411372,"name":"cha","country":"cm","lat":6.4666667,"lon":10.2333333},{"id":410190,"name":"bambili","country":"cm","lat":5.9833333,"lon":10.25},{"id":417786,"name":"oshie","country":"cm","lat":6.1166667,"lon":9.8833333},{"id":410563,"name":"benakoma","country":"cm","lat":6.4166667,"lon":9.8833333},{"id":417738,"name":"olullu","country":"cm","lat":6.2166667,"lon":9.6},{"id":415543,"name":"menka","country":"cm","lat":5.7166667,"lon":10.0666667},{"id":415311,"name":"mbulom","country":"cm","lat":6.3833333,"lon":10.2166667},{"id":410401,"name":"batabi","country":"cm","lat":6.1666667,"lon":9.7333333},{"id":410175,"name":"balso","country":"cm","lat":6.25,"lon":10.1666667},{"id":411827,"name":"djutittsa","country":"cm","lat":5.5833333,"lon":10.0833333},{"id":415312,"name":"mbu","country":"cm","lat":5.7833333,"lon":10.0333333},{"id":410477,"name":"bechati","country":"cm","lat":5.65,"lon":9.8833333},{"id":418578,"name":"su","country":"cm","lat":6.4,"lon":10.4},{"id":410035,"name":"bafut","country":"cm","lat":6.0833333,"lon":10.1},{"id":410154,"name":"baleveng","country":"cm","lat":5.5,"lon":10.15},{"id":410161,"name":"baliben","country":"cm","lat":5.85,"lon":9.7833333},{"id":410210,"name":"bamessing","country":"cm","lat":5.6333333,"lon":10.2333333},{"id":410313,"name":"bania","country":"cm","lat":6.1166667,"lon":9.7},{"id":415460,"name":"meli","country":"cm","lat":6.2666667,"lon":10.2333333},{"id":414506,"name":"maku","country":"cm","lat":6.1333333,"lon":9.6},{"id":409938,"name":"babanki","country":"cm","lat":6.1166667,"lon":10.25},{"id":418808,"name":"to","country":"cm","lat":6.4833333,"lon":10.2166667},{"id":418616,"name":"tali","country":"cm","lat":5.5833333,"lon":9.6666667},{"id":418724,"name":"tiben","country":"cm","lat":5.8333333,"lon":9.7833333},{"id":409936,"name":"babadjou","country":"cm","lat":5.6666667,"lon":10.2},{"id":415395,"name":"mejung","country":"cm","lat":6.3166667,"lon":10.3166667},{"id":417784,"name":"osatu","country":"cm","lat":6.2166667,"lon":9.6833333},{"id":410436,"name":"batounda","country":"cm","lat":5.5666667,"lon":10.3166667},{"id":415393,"name":"mejang","country":"cm","lat":6.15,"lon":10.2333333},{"id":410192,"name":"bambui","country":"cm","lat":6.05,"lon":10.2333333},{"id":418857,"name":"tsoka","country":"cm","lat":6.4833333,"lon":10.35},{"id":415846,"name":"mme","country":"cm","lat":6.3333333,"lon":10.2333333},{"id":2015261,"name":"susu","country":"ng","lat":6.457489,"lon":9.543549},{"id":411391,"name":"choua","country":"cm","lat":5.75,"lon":10.1666667},{"id":418228,"name":"sabga","country":"cm","lat":6.0166667,"lon":10.3166667},{"id":413994,"name":"laakom","country":"cm","lat":6.25,"lon":10.3333333},{"id":409825,"name":"ashong","country":"cm","lat":5.7666667,"lon":9.9333333},{"id":412591,"name":"folembet","country":"cm","lat":5.55,"lon":10.05},{"id":410102,"name":"bako","country":"cm","lat":6.1666667,"lon":9.8833333},{"id":415184,"name":"mbinkas","country":"cm","lat":6.2333333,"lon":10.1166667},{"id":414013,"name":"lafotio","country":"cm","lat":5.6166667,"lon":10.2166667},{"id":410033,"name":"bafreng","country":"cm","lat":5.9666667,"lon":10.1666667},{"id":412669,"name":"foyangem","country":"cm","lat":5.5166667,"lon":10.0166667},{"id":418521,"name":"sosso","country":"cm","lat":5.6666667,"lon":10.0833333},{"id":416118,"name":"munji","country":"cm","lat":6.4833333,"lon":10.3166667},{"id":410061,"name":"baicham","country":"cm","lat":6.1833333,"lon":10.2333333},{"id":417023,"name":"njnikom","country":"cm","lat":6.2333333,"lon":10.2833333},{"id":409958,"name":"babossa","country":"cm","lat":5.9333333,"lon":9.9833333},{"id":410330,"name":"bantakpa","country":"cm","lat":6.1333333,"lon":9.7166667},{"id":415952,"name":"montane","country":"cm","lat":5.5833333,"lon":10.2},{"id":411355,"name":"bwabwa","country":"cm","lat":6.4333333,"lon":10.3333333},{"id":410211,"name":"bamesso","country":"cm","lat":5.65,"lon":10.35},{"id":410422,"name":"batibo","country":"cm","lat":5.8333333,"lon":9.8666667},{"id":418764,"name":"tinta","country":"cm","lat":6.25,"lon":9.5166667},{"id":416104,"name":"mukuru","country":"cm","lat":6.3166667,"lon":9.95},{"id":416521,"name":"ndop","country":"cm","lat":6.0,"lon":10.4166667},{"id":410019,"name":"bafani","country":"cm","lat":5.8333333,"lon":10.3666667},{"id":413965,"name":"kuk","country":"cm","lat":6.3833333,"lon":10.1666667},{"id":410219,"name":"bamougoum","country":"cm","lat":5.5,"lon":10.3333333},{"id":410402,"name":"batamo","country":"cm","lat":6.25,"lon":9.8166667},{"id":410039,"name":"bagam","country":"cm","lat":5.6833333,"lon":10.2833333},{"id":412646,"name":"foto ndontchouet","country":"cm","lat":5.5166667,"lon":9.9166667},{"id":412677,"name":"fulani","country":"cm","lat":6.0833333,"lon":10.3666667},{"id":410408,"name":"bat","country":"cm","lat":6.15,"lon":10.45},{"id":409533,"name":"afom baba","country":"cm","lat":6.1333333,"lon":10.0333333},{"id":410414,"name":"batebi","country":"cm","lat":6.0833333,"lon":9.8},{"id":414259,"name":"long","country":"cm","lat":5.5166667,"lon":10.05},{"id":410351,"name":"barampie","country":"cm","lat":6.0833333,"lon":9.6},{"id":410085,"name":"bakanki tungo","country":"cm","lat":6.0,"lon":10.3},{"id":410225,"name":"bamundum","country":"cm","lat":6.1666667,"lon":9.95},{"id":416319,"name":"ndek","country":"cm","lat":5.9666667,"lon":9.8666667},{"id":410421,"name":"bati","country":"cm","lat":5.65,"lon":10.45},{"id":410249,"name":"bandeng","country":"cm","lat":5.5833333,"lon":10.3666667},{"id":411023,"name":"bokwa","country":"cm","lat":5.7333333,"lon":9.65},{"id":410009,"name":"badschama","country":"cm","lat":6.1666667,"lon":9.5},{"id":415265,"name":"mbouda","country":"cm","lat":5.6333333,"lon":10.25},{"id":409828,"name":"ashunda","country":"cm","lat":6.1666667,"lon":9.6},{"id":413448,"name":"kam","country":"cm","lat":6.4666667,"lon":10.2833333},{"id":409570,"name":"ake","country":"cm","lat":6.3,"lon":10.45},{"id":410247,"name":"bande","country":"cm","lat":6.0,"lon":10.1},{"id":410159,"name":"bali","country":"cm","lat":5.8833333,"lon":10.0166667},{"id":418305,"name":"sangwa","country":"cm","lat":5.6333333,"lon":10.0333333},{"id":409553,"name":"ajung","country":"cm","lat":6.3166667,"lon":10.4166667},{"id":415524,"name":"mengen mbo","country":"cm","lat":5.95,"lon":9.9666667},{"id":416880,"name":"ngouo","country":"cm","lat":5.5333333,"lon":10.2},{"id":410274,"name":"bangang","country":"cm","lat":5.5666667,"lon":10.2},{"id":409692,"name":"ama","country":"cm","lat":6.25,"lon":9.6666667},{"id":417022,"name":"njintom","country":"cm","lat":6.2833333,"lon":9.7833333},{"id":410153,"name":"balessing","country":"cm","lat":5.5,"lon":10.25},{"id":415132,"name":"mbengwi","country":"cm","lat":6.0166667,"lon":10.0},{"id":409476,"name":"abu","country":"cm","lat":6.2666667,"lon":10.0833333},{"id":418152,"name":"pou","country":"cm","lat":5.55,"lon":9.9833333},{"id":417650,"name":"nyos","country":"cm","lat":6.4333333,"lon":10.2666667},{"id":413066,"name":"gouonteu","country":"cm","lat":5.5666667,"lon":10.4333333},{"id":409948,"name":"babete","country":"cm","lat":5.6,"lon":10.2666667},{"id":413625,"name":"koaw","country":"cm","lat":6.3333333,"lon":10.0666667},{"id":409971,"name":"babungo","country":"cm","lat":6.0666667,"lon":10.4333333},{"id":410207,"name":"bamenyam","country":"cm","lat":5.75,"lon":10.3166667},{"id":409925,"name":"azem","country":"cm","lat":5.9166667,"lon":9.7666667},{"id":410194,"name":"bambuluwe","country":"cm","lat":5.8333333,"lon":10.3333333},{"id":411395,"name":"coffee estate","country":"cm","lat":5.7666667,"lon":10.2666667},{"id":412681,"name":"funam","country":"cm","lat":5.9833333,"lon":9.9833333},{"id":410227,"name":"bamunkumbit","country":"cm","lat":5.8166667,"lon":10.4166667},{"id":418307,"name":"santa","country":"cm","lat":5.8333333,"lon":10.15},{"id":413993,"name":"laa-bum","country":"cm","lat":6.4833333,"lon":10.4166667},{"id":410348,"name":"bara","country":"cm","lat":5.5333333,"lon":9.7166667},{"id":418765,"name":"tinto","country":"cm","lat":5.5333333,"lon":9.6},{"id":416291,"name":"nchain","country":"cm","lat":6.35,"lon":10.4},{"id":412636,"name":"fossong ellelem","country":"cm","lat":5.5833333,"lon":9.9666667},{"id":415859,"name":"modele","country":"cm","lat":6.4,"lon":9.9833333},{"id":412640,"name":"fotabe","country":"cm","lat":5.5166667,"lon":9.6},{"id":409539,"name":"agwofon","country":"cm","lat":5.7333333,"lon":9.95},{"id":417787,"name":"oshum","country":"cm","lat":5.8666667,"lon":9.9333333},{"id":410092,"name":"bakebe","country":"cm","lat":5.5833333,"lon":9.55},{"id":414741,"name":"manta","country":"cm","lat":6.1666667,"lon":9.6666667},{"id":410202,"name":"bamendjing","country":"cm","lat":5.7,"lon":10.4833333},{"id":410179,"name":"bamale","country":"cm","lat":5.9166667,"lon":10.4166667},{"id":413324,"name":"itchimo","country":"cm","lat":6.2666667,"lon":10.45},{"id":418900,"name":"ve","country":"cm","lat":6.4333333,"lon":10.1166667},{"id":416088,"name":"mubadji","country":"cm","lat":6.2333333,"lon":9.8833333},{"id":415154,"name":"mbguri","country":"cm","lat":6.25,"lon":9.95},{"id":410555,"name":"belo","country":"cm","lat":6.1333333,"lon":10.25},{"id":410391,"name":"bassa","country":"cm","lat":6.1333333,"lon":9.8333333},{"id":411486,"name":"defang","country":"cm","lat":5.5,"lon":9.5833333},{"id":410218,"name":"bamougong","country":"cm","lat":5.5666667,"lon":10.25},{"id":984349,"name":"leme","country":"ga","lat":5.9833333,"lon":9.6},{"id":415542,"name":"menka","country":"cm","lat":5.9666667,"lon":9.75},{"id":412617,"name":"fongo tongo","country":"cm","lat":5.5,"lon":10.0},{"id":417552,"name":"ntenkissu","country":"cm","lat":6.3166667,"lon":10.1666667},{"id":413750,"name":"konene","country":"cm","lat":6.4166667,"lon":10.3666667},{"id":415001,"name":"mbakong","country":"cm","lat":6.2666667,"lon":10.0333333},{"id":410078,"name":"baka","country":"cm","lat":6.1333333,"lon":10.1333333},{"id":412454,"name":"etinachong","country":"cm","lat":6.05,"lon":9.8333333},{"id":412478,"name":"etuku","country":"cm","lat":5.6833333,"lon":9.5666667},{"id":419008,"name":"wum","country":"cm","lat":6.3833333,"lon":10.0666667},{"id":410610,"name":"bessi","country":"cm","lat":5.8333333,"lon":9.9166667},{"id":410206,"name":"bamenkombo","country":"cm","lat":5.6,"lon":10.3333333},{"id":410141,"name":"balatchi","country":"cm","lat":5.6166667,"lon":10.1666667},{"id":415023,"name":"mba","country":"cm","lat":5.8,"lon":10.0666667},{"id":412620,"name":"fo nou saamaya","country":"cm","lat":5.5166667,"lon":10.1},{"id":418099,"name":"pinyin","country":"cm","lat":5.7166667,"lon":9.9833333},{"id":410205,"name":"bamenjo","country":"cm","lat":5.55,"lon":10.2833333},{"id":409773,"name":"angie","country":"cm","lat":5.75,"lon":9.8333333},{"id":410410,"name":"batcham","country":"cm","lat":5.5333333,"lon":10.2333333},{"id":410200,"name":"bamenda","country":"cm","lat":5.9333333,"lon":10.1666667},{"id":417544,"name":"ntamelle","country":"cm","lat":6.2666667,"lon":9.5333333},{"id":418563,"name":"sowe","country":"cm","lat":6.45,"lon":10.3666667}]});