callback({"markets":[{"id":560958,"name":"qingshuigou","country":"cn","lat":33.40636,"lon":105.284351},{"id":428190,"name":"beipingtou","country":"cn","lat":33.298482,"lon":105.192032},{"id":515168,"name":"lanqiaozi","country":"cn","lat":32.990038,"lon":105.245032},{"id":479634,"name":"hanping","country":"cn","lat":33.301904,"lon":105.16537},{"id":486831,"name":"houshan","country":"cn","lat":33.461939,"lon":105.220068},{"id":579585,"name":"shijiagou","country":"cn","lat":33.114616,"lon":105.272557},{"id":470972,"name":"gaojiawan","country":"cn","lat":32.98648,"lon":105.472224},{"id":524988,"name":"liujia","country":"cn","lat":32.940271,"lon":104.908435},{"id":542522,"name":"mupi","country":"cn","lat":32.538309,"lon":104.55018},{"id":644740,"name":"yuhe","country":"cn","lat":32.999066,"lon":105.486139},{"id":466460,"name":"fengpo","country":"cn","lat":33.088356,"lon":104.770568},{"id":533601,"name":"mabanshan","country":"cn","lat":33.339768,"lon":105.086247},{"id":516877,"name":"laozhuang","country":"cn","lat":32.96484,"lon":105.324811},{"id":600878,"name":"touniuer","country":"cn","lat":33.435313,"lon":105.362415},{"id":648422,"name":"zhangba","country":"cn","lat":33.13101,"lon":105.313034},{"id":607153,"name":"wangjiashan","country":"cn","lat":33.027672,"lon":104.674608},{"id":537910,"name":"mayazi","country":"cn","lat":33.226383,"lon":105.276105},{"id":529613,"name":"louzijie","country":"cn","lat":32.51913,"lon":104.982596},{"id":535556,"name":"mamudi","country":"cn","lat":32.921263,"lon":104.62164},{"id":569926,"name":"shangbanqiao","country":"cn","lat":33.444017,"lon":104.902363},{"id":615474,"name":"xiadunshang","country":"cn","lat":32.938951,"lon":104.550207},{"id":592628,"name":"tangbugou","country":"cn","lat":33.040101,"lon":104.515038},{"id":572353,"name":"shangshanli","country":"cn","lat":33.093445,"lon":104.954857},{"id":569241,"name":"shajiasi","country":"cn","lat":33.231755,"lon":104.785609},{"id":541314,"name":"mobali","country":"cn","lat":33.009861,"lon":104.76548},{"id":605110,"name":"waanzi","country":"cn","lat":33.099263,"lon":105.145293},{"id":557126,"name":"qiancun","country":"cn","lat":33.423913,"lon":104.816592},{"id":421060,"name":"anziping","country":"cn","lat":33.039285,"lon":104.855261},{"id":617883,"name":"xianjiashan","country":"cn","lat":33.185923,"lon":105.098787},{"id":610069,"name":"weishi","country":"cn","lat":33.283705,"lon":105.440577},{"id":454892,"name":"dazhai","country":"cn","lat":33.147628,"lon":104.909486},{"id":470941,"name":"gaojiashan","country":"cn","lat":32.968703,"lon":104.973545},{"id":647425,"name":"zaoyuanba","country":"cn","lat":32.954249,"lon":104.946533},{"id":493312,"name":"huangjiashan","country":"cn","lat":33.414813,"lon":105.36272},{"id":648901,"name":"zhangjiabanshan","country":"cn","lat":32.977219,"lon":104.954617},{"id":470663,"name":"gaofengshan","country":"cn","lat":32.982979,"lon":104.593491},{"id":539504,"name":"menjia","country":"cn","lat":33.054384,"lon":104.798455},{"id":441705,"name":"chimachang","country":"cn","lat":32.58709,"lon":105.416976},{"id":421954,"name":"bahaishan","country":"cn","lat":33.365487,"lon":105.118927},{"id":434310,"name":"changleng","country":"cn","lat":33.324748,"lon":104.92085},{"id":585951,"name":"sigouli","country":"cn","lat":32.732766,"lon":105.469757},{"id":595222,"name":"taoshuwan","country":"cn","lat":32.959136,"lon":105.264993},{"id":474372,"name":"guandui","country":"cn","lat":33.468344,"lon":104.9629},{"id":474400,"name":"guanfang","country":"cn","lat":33.194781,"lon":105.085537},{"id":650987,"name":"zhaoqianba","country":"cn","lat":32.997222,"lon":105.487222},{"id":477244,"name":"guojiaping","country":"cn","lat":33.103935,"lon":105.42147},{"id":626147,"name":"xinghuasi","country":"cn","lat":33.094287,"lon":105.285537},{"id":539844,"name":"miaodixia","country":"cn","lat":33.137225,"lon":104.798474},{"id":471018,"name":"gaojiazhuang","country":"cn","lat":33.064687,"lon":105.278899},{"id":650581,"name":"zhaogou","country":"cn","lat":33.423176,"lon":105.397997},{"id":602492,"name":"tudimiaoliangshang","country":"cn","lat":33.243,"lon":104.740679},{"id":542794,"name":"muzashan","country":"cn","lat":33.089454,"lon":104.622835},{"id":496453,"name":"huerkeng","country":"cn","lat":33.270952,"lon":104.517498},{"id":630606,"name":"xuanjiahe","country":"cn","lat":33.290864,"lon":105.171497},{"id":419447,"name":"aihao","country":"cn","lat":33.036786,"lon":105.226213},{"id":498878,"name":"huxiongli","country":"cn","lat":32.984828,"lon":105.121173},{"id":534788,"name":"majia","country":"cn","lat":33.133327,"lon":104.9288},{"id":572206,"name":"shangqijia","country":"cn","lat":33.39802,"lon":105.075161},{"id":547689,"name":"niejiagou","country":"cn","lat":33.084828,"lon":105.338385},{"id":481715,"name":"hekouli","country":"cn","lat":32.509035,"lon":105.198616},{"id":474889,"name":"guanjiaba","country":"cn","lat":32.975244,"lon":104.68961},{"id":475776,"name":"guanziling","country":"cn","lat":32.942796,"lon":105.286391},{"id":475832,"name":"guazigou","country":"cn","lat":33.368997,"lon":104.670732},{"id":480918,"name":"heigouzi","country":"cn","lat":33.022835,"lon":105.32756},{"id":451703,"name":"daoqizi","country":"cn","lat":33.157618,"lon":105.004617},{"id":655432,"name":"zhuangzishang","country":"cn","lat":32.988493,"lon":105.402138},{"id":541320,"name":"moba zangzuxiang","country":"cn","lat":33.228764,"lon":105.01793},{"id":584663,"name":"shuiquangou","country":"cn","lat":33.177668,"lon":105.442912},{"id":587602,"name":"songpingli","country":"cn","lat":33.257213,"lon":104.825539},{"id":503251,"name":"jiejiaonuo","country":"cn","lat":33.370562,"lon":104.560789},{"id":469941,"name":"ganjiashan","country":"cn","lat":33.363951,"lon":105.044008},{"id":596963,"name":"tianchi","country":"cn","lat":33.224416,"lon":104.751626},{"id":431885,"name":"caopo","country":"cn","lat":33.13569,"lon":104.95936},{"id":481125,"name":"heishanwan","country":"cn","lat":32.955336,"lon":104.992266},{"id":517840,"name":"lengtouping","country":"cn","lat":33.018568,"lon":105.174937},{"id":466934,"name":"fengyagou","country":"cn","lat":32.928692,"lon":105.29364},{"id":596895,"name":"tianbianli","country":"cn","lat":32.580822,"lon":105.354218},{"id":546821,"name":"nashan","country":"cn","lat":33.242167,"lon":104.868344},{"id":425066,"name":"bamuduo","country":"cn","lat":33.472955,"lon":104.654011},{"id":581225,"name":"shishugou","country":"cn","lat":32.969691,"lon":105.245428},{"id":618318,"name":"xiaobaijiagou","country":"cn","lat":33.489328,"lon":105.295697},{"id":533655,"name":"macaogou","country":"cn","lat":33.448913,"lon":104.959531},{"id":539777,"name":"miaobeihou","country":"cn","lat":33.00877,"lon":104.713501},{"id":536818,"name":"maoxiangba","country":"cn","lat":32.57816,"lon":104.754009},{"id":652252,"name":"zhenyang","country":"cn","lat":33.074955,"lon":104.722179},{"id":636355,"name":"yanmai","country":"cn","lat":33.417086,"lon":104.623967},{"id":510510,"name":"kenong","country":"cn","lat":33.407564,"lon":104.696613},{"id":576007,"name":"shejiawan","country":"cn","lat":33.139975,"lon":105.056728},{"id":605685,"name":"wajishanbali","country":"cn","lat":32.991709,"lon":105.086489},{"id":648832,"name":"zhanghe","country":"cn","lat":33.407016,"lon":105.459244},{"id":610292,"name":"weizigou","country":"cn","lat":33.401743,"lon":104.869808},{"id":467547,"name":"fuchang","country":"cn","lat":33.149165,"lon":104.588133},{"id":466093,"name":"fengjiashan","country":"cn","lat":33.076204,"lon":104.901931},{"id":648204,"name":"zhaiziping","country":"cn","lat":33.147709,"lon":104.806414},{"id":501694,"name":"jianjiagou","country":"cn","lat":33.318712,"lon":105.421712},{"id":431888,"name":"caoposhan","country":"cn","lat":33.023293,"lon":104.53216},{"id":500417,"name":"jiandashan","country":"cn","lat":33.226051,"lon":104.873329},{"id":657626,"name":"zonggongba","country":"cn","lat":33.363241,"lon":104.563511},{"id":586902,"name":"sixionggoushanshang","country":"cn","lat":32.941385,"lon":105.09346},{"id":473154,"name":"gongba","country":"cn","lat":33.484585,"lon":104.528608},{"id":502951,"name":"jiazishi","country":"cn","lat":33.1114,"lon":105.183489},{"id":532640,"name":"luowu","country":"cn","lat":33.470913,"lon":104.549398},{"id":587277,"name":"songjiabanshan","country":"cn","lat":32.910295,"lon":104.703198},{"id":466884,"name":"fengxiangyuan","country":"cn","lat":32.901942,"lon":105.3113},{"id":619465,"name":"xiaojiashan","country":"cn","lat":32.944086,"lon":104.572772},{"id":571023,"name":"shanghuangli","country":"cn","lat":33.328683,"lon":104.869233},{"id":546724,"name":"naoyuanzi","country":"cn","lat":33.122089,"lon":105.412235},{"id":462991,"name":"ejiawan","country":"cn","lat":33.467589,"lon":105.04505},{"id":607532,"name":"wanglianggou","country":"cn","lat":33.173715,"lon":105.421371},{"id":621271,"name":"xiaoyinwan","country":"cn","lat":33.003244,"lon":105.101618},{"id":602474,"name":"tudigou","country":"cn","lat":33.064319,"lon":105.081342},{"id":560763,"name":"qingquanbao","country":"cn","lat":33.19611,"lon":104.773029},{"id":424264,"name":"baiyangshuba","country":"cn","lat":33.426051,"lon":105.483246},{"id":527018,"name":"lizhuozi","country":"cn","lat":32.928908,"lon":105.045877},{"id":473835,"name":"goudi","country":"cn","lat":32.508649,"lon":104.524017},{"id":566515,"name":"sanhe","country":"cn","lat":33.299273,"lon":105.166922},{"id":639733,"name":"yijiashan","country":"cn","lat":32.909452,"lon":104.94369},{"id":517411,"name":"leijia","country":"cn","lat":32.947853,"lon":105.069969},{"id":473836,"name":"goudixia","country":"cn","lat":33.086804,"lon":105.302605},{"id":572215,"name":"shangqinggangping","country":"cn","lat":33.381073,"lon":105.321622},{"id":606794,"name":"wangjiaba","country":"cn","lat":33.115,"lon":105.280278},{"id":451251,"name":"danian","country":"cn","lat":33.428972,"lon":104.630385},{"id":521241,"name":"lijiashanghe","country":"cn","lat":33.492086,"lon":105.476033},{"id":479782,"name":"hanwang zhen","country":"cn","lat":33.343133,"lon":105.01046},{"id":421063,"name":"anzipo","country":"cn","lat":33.077066,"lon":104.84284},{"id":574068,"name":"shanlinguan","country":"cn","lat":33.129285,"lon":105.199362},{"id":579532,"name":"shijiaba","country":"cn","lat":33.03366,"lon":105.455992},{"id":433201,"name":"changba","country":"cn","lat":33.428432,"lon":105.434576},{"id":583234,"name":"shuangmiaoer","country":"cn","lat":33.447341,"lon":105.081522},{"id":478135,"name":"guzhen","country":"cn","lat":33.080723,"lon":104.797102},{"id":576808,"name":"shenjiapo","country":"cn","lat":32.942526,"lon":104.663043},{"id":647864,"name":"zhaduoshan","country":"cn","lat":33.196011,"lon":104.936669},{"id":657044,"name":"zhuyuanshan","country":"cn","lat":33.265954,"lon":105.033229},{"id":559512,"name":"qijiaba","country":"cn","lat":32.943811,"lon":104.929339},{"id":499869,"name":"jiachang","country":"cn","lat":32.929824,"lon":104.703584},{"id":424341,"name":"baiyashan","country":"cn","lat":33.071793,"lon":104.595086},{"id":597313,"name":"tianjiawan","country":"cn","lat":32.730833,"lon":105.121667},{"id":631376,"name":"xujiagou","country":"cn","lat":33.316654,"lon":104.573317},{"id":462224,"name":"duleng","country":"cn","lat":33.492598,"lon":104.860852},{"id":452569,"name":"dashanli","country":"cn","lat":32.988403,"lon":104.863169},{"id":456024,"name":"dianba","country":"cn","lat":32.762778,"lon":105.008333},{"id":531934,"name":"luojiadixia","country":"cn","lat":33.24187,"lon":105.40124},{"id":648995,"name":"zhangjiadixia","country":"cn","lat":33.270374,"lon":105.238439},{"id":641117,"name":"yinwanli","country":"cn","lat":33.146416,"lon":105.034037},{"id":501673,"name":"jianhua","country":"cn","lat":33.077192,"lon":104.698419},{"id":517733,"name":"lengkan","country":"cn","lat":33.438681,"lon":105.211714},{"id":578129,"name":"shifang","country":"cn","lat":33.002746,"lon":104.571446},{"id":445804,"name":"chuntaishang","country":"cn","lat":33.180264,"lon":104.73012},{"id":523455,"name":"linziba","country":"cn","lat":32.931189,"lon":104.598733},{"id":636063,"name":"yanjiamo","country":"cn","lat":33.128518,"lon":104.886077},{"id":610617,"name":"wengjiaba","country":"cn","lat":32.609196,"lon":105.402137},{"id":559018,"name":"qiaotouxia","country":"cn","lat":32.932348,"lon":104.538493},{"id":486412,"name":"houjiawan","country":"cn","lat":33.338627,"lon":105.129608},{"id":449974,"name":"dali","country":"cn","lat":33.462765,"lon":104.978557},{"id":640795,"name":"yinjiagou","country":"cn","lat":33.16413,"lon":105.280444},{"id":536283,"name":"maojiagou","country":"cn","lat":33.153782,"lon":105.259828},{"id":627811,"name":"xinshe","country":"cn","lat":33.125974,"lon":104.842095},{"id":655490,"name":"zhuanmuzi","country":"cn","lat":33.117275,"lon":105.094089},{"id":503615,"name":"jigongyan","country":"cn","lat":33.193038,"lon":105.298697},{"id":648088,"name":"zhaishang","country":"cn","lat":33.160411,"lon":104.569116},{"id":647196,"name":"zaochuan","country":"cn","lat":33.44965,"lon":104.757249},{"id":532029,"name":"luojiaping","country":"cn","lat":33.101734,"lon":104.848662},{"id":595408,"name":"taoyuan","country":"cn","lat":33.098167,"lon":104.831531},{"id":480194,"name":"haoxihuizu","country":"cn","lat":32.544979,"lon":105.077095},{"id":540049,"name":"miaoleng","country":"cn","lat":33.417598,"lon":104.929707},{"id":447466,"name":"dachenjia","country":"cn","lat":33.051644,"lon":104.786925},{"id":636762,"name":"yanwuping","country":"cn","lat":33.002821,"lon":105.323167},{"id":520924,"name":"lihushan","country":"cn","lat":33.055453,"lon":105.350135},{"id":547167,"name":"nenggan","country":"cn","lat":33.014391,"lon":104.993083},{"id":473392,"name":"gongjiashan","country":"cn","lat":32.982456,"lon":104.970365},{"id":477209,"name":"guojia","country":"cn","lat":32.933443,"lon":105.005846},{"id":495613,"name":"huapingli","country":"cn","lat":33.204321,"lon":105.158956},{"id":548338,"name":"nishan","country":"cn","lat":33.042575,"lon":104.568106},{"id":599556,"name":"tiziya","country":"cn","lat":33.3061,"lon":104.97615},{"id":533704,"name":"machang","country":"cn","lat":33.287451,"lon":104.938304},{"id":536605,"name":"maopoli","country":"cn","lat":33.043128,"lon":105.315271},{"id":571596,"name":"shangliuyuan","country":"cn","lat":33.005291,"lon":104.521622},{"id":633520,"name":"yangheba","country":"cn","lat":33.410035,"lon":105.449441},{"id":602356,"name":"tuchenggou","country":"cn","lat":32.916906,"lon":104.983282},{"id":518490,"name":"liangjiaba","country":"cn","lat":33.006351,"lon":104.609908},{"id":627798,"name":"xinsheng","country":"cn","lat":33.134621,"lon":104.671479},{"id":456657,"name":"dijiazui","country":"cn","lat":32.943658,"lon":104.762909},{"id":648818,"name":"zhangheba","country":"cn","lat":33.238106,"lon":105.157213},{"id":529769,"name":"luanshijiao","country":"cn","lat":33.1532,"lon":104.581111},{"id":635037,"name":"yangquantou","country":"cn","lat":33.32173,"lon":105.226258},{"id":503203,"name":"jieguanting","country":"cn","lat":33.330561,"lon":105.260645},{"id":506538,"name":"jiufangli","country":"cn","lat":33.150844,"lon":105.336364},{"id":571738,"name":"shangmafang","country":"cn","lat":32.628205,"lon":105.376147},{"id":555798,"name":"poweishi","country":"cn","lat":32.981782,"lon":105.236265},{"id":573683,"name":"shangzhuangli","country":"cn","lat":33.232969,"lon":105.331707},{"id":542739,"name":"muxuping","country":"cn","lat":32.948805,"lon":104.839373},{"id":436604,"name":"chawu","country":"cn","lat":33.45477,"lon":104.60636},{"id":575957,"name":"sheguping","country":"cn","lat":33.178962,"lon":104.747431},{"id":640849,"name":"yinjiashan","country":"cn","lat":33.11162,"lon":104.893427},{"id":640819,"name":"yinjiamo","country":"cn","lat":33.130749,"lon":104.900485},{"id":461552,"name":"duanheba","country":"cn","lat":33.40062,"lon":104.82509},{"id":621494,"name":"xiaozhuangtou","country":"cn","lat":33.4936,"lon":104.97375},{"id":615036,"name":"xiabaozi","country":"cn","lat":33.132844,"lon":104.61128},{"id":606959,"name":"wangjiaheli","country":"cn","lat":33.075305,"lon":105.421703},{"id":562204,"name":"qiuzui","country":"cn","lat":33.203638,"lon":105.273814},{"id":422632,"name":"baijiaoli","country":"cn","lat":33.412979,"lon":104.709625},{"id":638474,"name":"yeduonuo","country":"cn","lat":33.497179,"lon":104.586247},{"id":463940,"name":"erziliang","country":"cn","lat":32.546605,"lon":105.428816},{"id":560707,"name":"qingnipo","country":"cn","lat":33.038618,"lon":104.61449},{"id":635264,"name":"yangsiba","country":"cn","lat":33.135788,"lon":104.94787},{"id":635341,"name":"yangtangzhai","country":"cn","lat":33.224462,"lon":104.759217},{"id":426682,"name":"baozishang","country":"cn","lat":33.218263,"lon":104.744565},{"id":612147,"name":"wufangba","country":"cn","lat":32.986148,"lon":105.129806},{"id":559122,"name":"qiaoyu","country":"cn","lat":33.358166,"lon":104.625},{"id":586272,"name":"silinshan","country":"cn","lat":33.483031,"lon":105.038996},{"id":419452,"name":"aihaoping","country":"cn","lat":33.131315,"lon":105.296344},{"id":447092,"name":"dabaoli","country":"cn","lat":33.402946,"lon":104.901428},{"id":425577,"name":"banpingshan","country":"cn","lat":32.95816,"lon":104.903342},{"id":470796,"name":"gaojiabao","country":"cn","lat":33.08207,"lon":104.637235},{"id":554258,"name":"pingdaoli","country":"cn","lat":33.282169,"lon":105.151231},{"id":452024,"name":"dapingshang","country":"cn","lat":33.066565,"lon":104.527031},{"id":426152,"name":"baojiagou","country":"cn","lat":33.233911,"lon":104.898706},{"id":520945,"name":"lijiaba","country":"cn","lat":33.100647,"lon":105.446461},{"id":423091,"name":"baimamiao","country":"cn","lat":33.266667,"lon":104.766667},{"id":525732,"name":"liushangou","country":"cn","lat":33.144844,"lon":104.688987},{"id":540437,"name":"midichang","country":"cn","lat":33.193874,"lon":104.953},{"id":535001,"name":"majie","country":"cn","lat":33.45945,"lon":104.957754},{"id":620832,"name":"xiaowangyangpo","country":"cn","lat":33.483059,"lon":105.087522},{"id":617518,"name":"xiangshuiping","country":"cn","lat":33.266556,"lon":104.916852},{"id":656959,"name":"zhuyali","country":"cn","lat":32.900332,"lon":105.292724},{"id":650871,"name":"zhaojiazui","country":"cn","lat":32.931773,"lon":104.815729},{"id":433795,"name":"changgou","country":"cn","lat":33.264032,"lon":105.388843},{"id":522933,"name":"linjiang","country":"cn","lat":33.062184,"lon":104.921416},{"id":457439,"name":"dishuiya","country":"cn","lat":32.989193,"lon":104.694565},{"id":656989,"name":"zhuyazi","country":"cn","lat":33.296074,"lon":105.286058},{"id":595207,"name":"taoshuping","country":"cn","lat":33.187936,"lon":105.054492},{"id":486387,"name":"houjiaping","country":"cn","lat":33.196254,"lon":104.88896},{"id":492956,"name":"huangheba","country":"cn","lat":33.122303,"lon":104.521862},{"id":469662,"name":"gangouping","country":"cn","lat":32.938798,"lon":104.619826},{"id":446530,"name":"cuijiashan","country":"cn","lat":33.209028,"lon":105.358615},{"id":426842,"name":"bashigou","country":"cn","lat":33.277758,"lon":105.289867},{"id":532129,"name":"luojiazhai","country":"cn","lat":33.346041,"lon":105.030088},{"id":431579,"name":"caojiaba","country":"cn","lat":33.196658,"lon":105.017382},{"id":600805,"name":"toufang","country":"cn","lat":33.25,"lon":105.1},{"id":654179,"name":"zhongyuanli","country":"cn","lat":32.971775,"lon":105.043424},{"id":548246,"name":"ningxinggou","country":"cn","lat":32.990163,"lon":105.392418},{"id":481511,"name":"hejiaping","country":"cn","lat":33.280785,"lon":105.091134},{"id":614988,"name":"xiabali","country":"cn","lat":32.995311,"lon":105.230426},{"id":433266,"name":"changcaoping nongchang","country":"cn","lat":33.145464,"lon":104.606576},{"id":467225,"name":"fenshuiling","country":"cn","lat":33.384612,"lon":105.395329},{"id":574833,"name":"shanzhuangli","country":"cn","lat":33.218838,"lon":105.09541},{"id":609261,"name":"washi","country":"cn","lat":33.18189,"lon":105.069413},{"id":503690,"name":"jijiabao","country":"cn","lat":33.125198,"lon":104.649955},{"id":575345,"name":"shaquanba","country":"cn","lat":32.904393,"lon":105.022215},{"id":462051,"name":"dujia","country":"cn","lat":33.050917,"lon":104.894517},{"id":637126,"name":"yaodaoli","country":"cn","lat":33.404132,"lon":104.950844},{"id":534867,"name":"majiashan","country":"cn","lat":33.208794,"lon":105.150135},{"id":504162,"name":"jindongping","country":"cn","lat":32.591434,"lon":104.986707},{"id":616428,"name":"xialiu","country":"cn","lat":33.009861,"lon":104.648073},{"id":437787,"name":"chengjiahe","country":"cn","lat":33.492364,"lon":105.423374},{"id":629237,"name":"xishan","country":"cn","lat":32.938168,"lon":104.857543},{"id":530918,"name":"lunengkan","country":"cn","lat":33.357169,"lon":105.078953},{"id":494258,"name":"huangping","country":"cn","lat":33.32155,"lon":105.332204},{"id":531884,"name":"luojiaba","country":"cn","lat":32.960932,"lon":105.043308},{"id":558026,"name":"qianshanli","country":"cn","lat":32.920357,"lon":104.691791},{"id":458813,"name":"dongjiagou","country":"cn","lat":32.987621,"lon":105.207303},{"id":506140,"name":"jinzishan","country":"cn","lat":33.183579,"lon":104.85212},{"id":598374,"name":"tiegu","country":"cn","lat":33.009756,"lon":104.85406},{"id":472315,"name":"gedadi","country":"cn","lat":33.120535,"lon":104.725566},{"id":551546,"name":"panjiaba","country":"cn","lat":33.010483,"lon":105.006162},{"id":549298,"name":"nongchang","country":"cn","lat":33.057303,"lon":104.68507},{"id":652847,"name":"zhongbali","country":"cn","lat":33.200108,"lon":105.239795},{"id":422874,"name":"bailin","country":"cn","lat":33.484876,"lon":105.011553},{"id":632842,"name":"yangbali","country":"cn","lat":33.205192,"lon":105.451383},{"id":549880,"name":"oujiashan","country":"cn","lat":32.980165,"lon":105.271955},{"id":431547,"name":"caoheba","country":"cn","lat":32.8975,"lon":105.104444},{"id":621352,"name":"xiaoyusi","country":"cn","lat":33.492697,"lon":105.10327},{"id":534733,"name":"majiagou","country":"cn","lat":33.331252,"lon":105.472188},{"id":461496,"name":"douziping","country":"cn","lat":33.316053,"lon":105.118712},{"id":480386,"name":"hebali","country":"cn","lat":32.973801,"lon":105.329162},{"id":643783,"name":"yuanzuishang","country":"cn","lat":32.5562,"lon":105.31664},{"id":472931,"name":"getiaoping","country":"cn","lat":33.381836,"lon":104.885986},{"id":622983,"name":"xiazhongyuan","country":"cn","lat":32.91316,"lon":105.300278},{"id":431585,"name":"caojiabao","country":"cn","lat":33.354923,"lon":104.9333},{"id":479487,"name":"hanjiashan","country":"cn","lat":32.904671,"lon":104.732896},{"id":563006,"name":"qujiashan","country":"cn","lat":33.062163,"lon":105.154285},{"id":447857,"name":"daduba","country":"cn","lat":32.954887,"lon":104.668281},{"id":534080,"name":"madiwan","country":"cn","lat":33.120392,"lon":104.996964},{"id":571190,"name":"shangjiashan","country":"cn","lat":33.029707,"lon":104.838043},{"id":640838,"name":"yinjiaping","country":"cn","lat":32.986992,"lon":105.448706},{"id":632867,"name":"yangba","country":"cn","lat":32.982169,"lon":105.419116},{"id":521250,"name":"lijiashan","country":"cn","lat":32.92951,"lon":105.066053},{"id":620422,"name":"xiaosanping","country":"cn","lat":33.48313,"lon":104.728782},{"id":469637,"name":"gangouba","country":"cn","lat":33.239633,"lon":104.944152},{"id":635679,"name":"yangxishan","country":"cn","lat":33.074695,"lon":105.125153},{"id":552866,"name":"peijiagou","country":"cn","lat":33.028458,"lon":104.99152},{"id":632755,"name":"yanerya","country":"cn","lat":32.952291,"lon":105.318883},{"id":467020,"name":"fengyuanshan","country":"cn","lat":32.951981,"lon":104.775757},{"id":587388,"name":"songjiasi","country":"cn","lat":33.073527,"lon":105.310825},{"id":461623,"name":"duanjiazhuang","country":"cn","lat":33.412778,"lon":105.458333},{"id":469658,"name":"gangouli","country":"cn","lat":33.285031,"lon":104.619843},{"id":584075,"name":"shuidike","country":"cn","lat":33.415559,"lon":104.745904},{"id":635117,"name":"yangshan","country":"cn","lat":33.074748,"lon":104.648581},{"id":469676,"name":"gangouzi","country":"cn","lat":33.176851,"lon":105.011705},{"id":630290,"name":"xiyuan","country":"cn","lat":32.955979,"lon":104.662712},{"id":642903,"name":"yuancitou","country":"cn","lat":32.936777,"lon":104.704168},{"id":640608,"name":"yingwanli","country":"cn","lat":32.547585,"lon":105.195372},{"id":521417,"name":"lijiazhuang","country":"cn","lat":33.218793,"lon":105.375683},{"id":655437,"name":"zhuangzishan","country":"cn","lat":32.871281,"lon":105.435447},{"id":598288,"name":"tieba","country":"cn","lat":33.362454,"lon":104.617299},{"id":616590,"name":"xiamajiagou","country":"cn","lat":32.506962,"lon":105.295436},{"id":450619,"name":"damaopo","country":"cn","lat":32.582637,"lon":104.912922},{"id":450521,"name":"daluyuan","country":"cn","lat":33.463627,"lon":105.103854},{"id":643078,"name":"yuanjiaba","country":"cn","lat":33.078971,"lon":105.021694},{"id":516085,"name":"laolongwan","country":"cn","lat":33.152128,"lon":104.826826},{"id":640767,"name":"yinjiaba","country":"cn","lat":33.140253,"lon":105.143622},{"id":438587,"name":"chenjiagou","country":"cn","lat":32.938168,"lon":104.800475},{"id":618957,"name":"xiaogouzi","country":"cn","lat":33.180093,"lon":105.198347},{"id":503188,"name":"jiegan","country":"cn","lat":33.289337,"lon":105.095516},{"id":476897,"name":"gumuping","country":"cn","lat":32.504796,"lon":105.24848},{"id":637834,"name":"yaotu","country":"cn","lat":32.784167,"lon":105.419444},{"id":624270,"name":"xigoushan","country":"cn","lat":32.95925,"lon":104.853908},{"id":437845,"name":"chengjiashan","country":"cn","lat":32.933079,"lon":104.977494},{"id":441702,"name":"chiluoshan","country":"cn","lat":32.536632,"lon":104.526065},{"id":641118,"name":"yinwanping","country":"cn","lat":33.253559,"lon":104.85409},{"id":624901,"name":"xilazhai","country":"cn","lat":33.211489,"lon":104.757681},{"id":589375,"name":"sunjiananshan","country":"cn","lat":33.438367,"lon":105.020637},{"id":654489,"name":"zhoujiabao","country":"cn","lat":33.136076,"lon":104.629195},{"id":515740,"name":"laohaochuan","country":"cn","lat":33.338097,"lon":105.286067},{"id":431552,"name":"caohe","country":"cn","lat":32.933085,"lon":105.081944},{"id":643292,"name":"yuanlingshan","country":"cn","lat":33.062567,"lon":104.958893},{"id":621415,"name":"xiaozhangjia","country":"cn","lat":33.498706,"lon":105.264651},{"id":640861,"name":"yinjiawan","country":"cn","lat":33.479545,"lon":104.972431},{"id":511702,"name":"koutouba","country":"cn","lat":32.939985,"lon":104.942236},{"id":570358,"name":"shangde","country":"cn","lat":32.90727,"lon":104.769575},{"id":420287,"name":"anjiagou","country":"cn","lat":33.091475,"lon":105.126851},{"id":431890,"name":"caopozi","country":"cn","lat":33.235582,"lon":105.060627},{"id":527064,"name":"liziping","country":"cn","lat":32.957195,"lon":105.254662},{"id":458413,"name":"donggou","country":"cn","lat":32.939984,"lon":105.305543},{"id":615054,"name":"xiaba","country":"cn","lat":32.968496,"lon":104.643352},{"id":460979,"name":"dongyukou","country":"cn","lat":32.988889,"lon":104.611389},{"id":542755,"name":"muye","country":"cn","lat":33.440241,"lon":104.667824},{"id":452020,"name":"dapingshan","country":"cn","lat":33.336831,"lon":104.991017},{"id":512069,"name":"kuangshanli","country":"cn","lat":33.039121,"lon":104.995104},{"id":644564,"name":"yueyuan","country":"cn","lat":33.040394,"lon":104.609907},{"id":558992,"name":"qiaotou","country":"cn","lat":33.107633,"lon":104.811685},{"id":649047,"name":"zhangjiagou","country":"cn","lat":32.911211,"lon":104.826446},{"id":421872,"name":"bafangping","country":"cn","lat":33.12244,"lon":105.217266},{"id":485334,"name":"hongyagou","country":"cn","lat":33.26025,"lon":105.010798},{"id":477123,"name":"guohe","country":"cn","lat":33.351132,"lon":105.148715},{"id":452523,"name":"dashan","country":"cn","lat":33.413403,"lon":105.418397},{"id":426655,"name":"baozi","country":"cn","lat":33.180803,"lon":104.872521},{"id":559537,"name":"qijialeng","country":"cn","lat":33.416448,"lon":105.095185},{"id":574260,"name":"shanpoli","country":"cn","lat":33.405974,"lon":105.365469},{"id":432061,"name":"caoya","country":"cn","lat":33.047826,"lon":104.8803},{"id":616432,"name":"xialiuyuan","country":"cn","lat":33.003701,"lon":104.544206},{"id":579612,"name":"shijialiang","country":"cn","lat":33.366915,"lon":105.443011},{"id":534646,"name":"majiaba","country":"cn","lat":33.059289,"lon":105.414616},{"id":507240,"name":"jiuyuanli","country":"cn","lat":33.17412,"lon":105.093685},{"id":497052,"name":"huiyazi","country":"cn","lat":33.41166,"lon":104.896119},{"id":570714,"name":"shanggou","country":"cn","lat":32.904743,"lon":104.839786},{"id":609375,"name":"waxi","country":"cn","lat":33.371344,"lon":104.620293},{"id":534840,"name":"majiaping","country":"cn","lat":33.329572,"lon":105.33198},{"id":570709,"name":"shanggouli","country":"cn","lat":33.178387,"lon":105.146559},{"id":495804,"name":"huashuliangshang","country":"cn","lat":33.082904,"lon":104.863257},{"id":529627,"name":"louzimiao","country":"cn","lat":32.982348,"lon":105.026895},{"id":560737,"name":"qingpingwan","country":"cn","lat":32.989768,"lon":105.043397},{"id":564861,"name":"rujia","country":"cn","lat":33.15469,"lon":104.967135},{"id":464117,"name":"fanchang","country":"cn","lat":32.930898,"lon":104.744497},{"id":525276,"name":"liujiazui","country":"cn","lat":32.95495,"lon":104.634307},{"id":570500,"name":"shangen","country":"cn","lat":33.009073,"lon":104.759235},{"id":602915,"name":"tumenya","country":"cn","lat":33.411561,"lon":104.794484},{"id":458873,"name":"dongjiangshui","country":"cn","lat":33.377174,"lon":104.93993},{"id":481332,"name":"heizuili","country":"cn","lat":33.385672,"lon":105.302911},{"id":464313,"name":"fangdiwanli","country":"cn","lat":33.016693,"lon":105.302627},{"id":502543,"name":"jiaowanli","country":"cn","lat":32.919466,"lon":105.316457},{"id":563539,"name":"ransiba","country":"cn","lat":32.946937,"lon":104.894368},{"id":466047,"name":"fengjialengkan","country":"cn","lat":33.073108,"lon":104.693509},{"id":631546,"name":"xujia","country":"cn","lat":33.059172,"lon":105.035331},{"id":609248,"name":"washetou","country":"cn","lat":33.425144,"lon":105.043972},{"id":431928,"name":"caosheping","country":"cn","lat":33.397646,"lon":105.0318},{"id":497243,"name":"hujiaping","country":"cn","lat":33.191385,"lon":105.401114},{"id":649153,"name":"zhangjiana","country":"cn","lat":33.16493,"lon":104.978324},{"id":527590,"name":"longfeng","country":"cn","lat":33.395839,"lon":105.045718},{"id":523055,"name":"linkouli","country":"cn","lat":33.250853,"lon":105.437136},{"id":620063,"name":"xiaomianliuba","country":"cn","lat":33.191134,"lon":105.223302},{"id":621624,"name":"xiaping","country":"cn","lat":33.058534,"lon":104.601195},{"id":465796,"name":"fenghe","country":"cn","lat":33.483615,"lon":104.70848},{"id":499825,"name":"jiabanshan","country":"cn","lat":33.321721,"lon":105.069646},{"id":611230,"name":"wenxian chengguanzhen","country":"cn","lat":32.946621,"lon":104.679389},{"id":551576,"name":"panjiagou","country":"cn","lat":33.243918,"lon":105.131809},{"id":599555,"name":"tiziyan","country":"cn","lat":32.970518,"lon":104.893892},{"id":583814,"name":"shuerping","country":"cn","lat":32.531275,"lon":104.931023},{"id":567202,"name":"sanliushui","country":"cn","lat":33.180219,"lon":105.23074},{"id":501889,"name":"jianshan","country":"cn","lat":33.028034,"lon":104.855258},{"id":573574,"name":"shangzhangjia","country":"cn","lat":32.675689,"lon":105.339479},{"id":485345,"name":"hongyali","country":"cn","lat":33.156396,"lon":104.753467},{"id":538970,"name":"mendixia","country":"cn","lat":32.504535,"lon":104.828152},{"id":431870,"name":"caoping","country":"cn","lat":33.070239,"lon":104.733282},{"id":554633,"name":"pingli","country":"cn","lat":32.986498,"lon":105.342796},{"id":597205,"name":"tianjiabao","country":"cn","lat":33.09904,"lon":104.651264},{"id":554044,"name":"pikou","country":"cn","lat":32.745833,"lon":105.241389},{"id":650548,"name":"zhaodui","country":"cn","lat":33.15687,"lon":104.857361},{"id":534144,"name":"maerzhai","country":"cn","lat":33.15645,"lon":104.684217},{"id":575779,"name":"shazhou","country":"cn","lat":32.669632,"lon":105.483281},{"id":614343,"name":"wutuozi","country":"cn","lat":33.164032,"lon":105.358884},{"id":504657,"name":"jingpingshan","country":"cn","lat":33.187767,"lon":104.859179},{"id":615196,"name":"xiachengjia","country":"cn","lat":33.339382,"lon":105.157824},{"id":480234,"name":"haozidian","country":"cn","lat":33.028017,"lon":104.887248},{"id":650516,"name":"zhaocun","country":"cn","lat":33.162513,"lon":104.865676},{"id":643145,"name":"yuanjiapingshang","country":"cn","lat":32.567004,"lon":105.10685},{"id":563880,"name":"renjiashan","country":"cn","lat":33.119233,"lon":104.757878},{"id":472152,"name":"gaparma","country":"cn","lat":33.383333,"lon":104.5},{"id":539717,"name":"mianwanli","country":"cn","lat":33.437828,"lon":105.399048},{"id":585956,"name":"sigou","country":"cn","lat":33.056024,"lon":104.733857},{"id":460972,"name":"dongyueshan","country":"cn","lat":33.263538,"lon":105.076213},{"id":505186,"name":"jinjiaping","country":"cn","lat":33.002246,"lon":104.973302},{"id":511319,"name":"kongjiagou","country":"cn","lat":32.939373,"lon":105.272179},{"id":423867,"name":"baishuling","country":"cn","lat":32.589459,"lon":105.182926},{"id":640990,"name":"yinpoli","country":"cn","lat":33.304375,"lon":105.375126},{"id":427244,"name":"bazihe","country":"cn","lat":33.112853,"lon":104.651264},{"id":647912,"name":"zhahe","country":"cn","lat":33.112208,"lon":104.765729},{"id":436619,"name":"chaxi","country":"cn","lat":33.478782,"lon":104.584082},{"id":609247,"name":"washegou","country":"cn","lat":33.262936,"lon":105.173877},{"id":426011,"name":"baoerya","country":"cn","lat":33.29452,"lon":105.343379},{"id":625702,"name":"xindezhuang","country":"cn","lat":33.196398,"lon":104.751491},{"id":438972,"name":"chenlong","country":"cn","lat":33.318811,"lon":105.049793},{"id":565964,"name":"sanfangli","country":"cn","lat":33.124766,"lon":105.355246},{"id":658224,"name":"zushimiao","country":"cn","lat":32.969808,"lon":104.577722},{"id":588760,"name":"sujiaping","country":"cn","lat":33.467319,"lon":105.189921},{"id":486308,"name":"houjiaba","country":"cn","lat":33.038008,"lon":105.191232},{"id":436607,"name":"chawugu","country":"cn","lat":33.436786,"lon":104.621649},{"id":640800,"name":"yinjiahe","country":"cn","lat":33.017212,"lon":105.305776},{"id":450545,"name":"damadi","country":"cn","lat":33.311146,"lon":104.963933},{"id":645246,"name":"yulei","country":"cn","lat":32.840556,"lon":105.008056},{"id":630419,"name":"xizhi","country":"cn","lat":33.076731,"lon":105.356405},{"id":643778,"name":"yuanziwan","country":"cn","lat":33.308588,"lon":105.230264},{"id":464906,"name":"fanjiasi","country":"cn","lat":33.474263,"lon":105.422512},{"id":479506,"name":"hanjiawan","country":"cn","lat":32.97977,"lon":104.662765},{"id":573659,"name":"shangzhongyuan","country":"cn","lat":32.911337,"lon":105.283911},{"id":514851,"name":"langtoushan","country":"cn","lat":32.910179,"lon":105.034198},{"id":575290,"name":"shaping","country":"cn","lat":33.472404,"lon":104.934181},{"id":481326,"name":"heizhuangzi","country":"cn","lat":33.008094,"lon":104.911193},{"id":429873,"name":"bojiwan","country":"cn","lat":32.972009,"lon":105.016241},{"id":615432,"name":"xiadongping","country":"cn","lat":33.315909,"lon":104.913618},{"id":630183,"name":"xiyan","country":"cn","lat":33.211561,"lon":104.875135},{"id":529780,"name":"luanshishan","country":"cn","lat":33.469475,"lon":105.330893},{"id":573265,"name":"shangyangshan","country":"cn","lat":33.434055,"lon":104.885393},{"id":597368,"name":"tianjingping","country":"cn","lat":32.594243,"lon":105.487604},{"id":634408,"name":"yanglenggan","country":"cn","lat":33.088862,"lon":104.51023},{"id":565416,"name":"sancaigou","country":"cn","lat":33.1159,"lon":105.235474},{"id":579869,"name":"shijiewan","country":"cn","lat":33.253503,"lon":104.836247},{"id":506229,"name":"jishanli","country":"cn","lat":33.054339,"lon":104.869368},{"id":458255,"name":"dongfenggou","country":"cn","lat":33.087629,"lon":104.936682},{"id":612539,"name":"wujiaba","country":"cn","lat":33.388466,"lon":105.466978},{"id":513963,"name":"laga","country":"cn","lat":33.418431,"lon":104.572226},{"id":541918,"name":"mozhuangzi","country":"cn","lat":33.006208,"lon":104.897062},{"id":565911,"name":"sandungou","country":"cn","lat":33.396146,"lon":104.718865},{"id":420728,"name":"anshan","country":"cn","lat":33.267391,"lon":105.40963},{"id":515139,"name":"lanniwan","country":"cn","lat":33.148823,"lon":105.468029},{"id":631669,"name":"xuluo","country":"cn","lat":33.476168,"lon":105.345185},{"id":448339,"name":"dagouli","country":"cn","lat":32.992185,"lon":105.151015},{"id":532147,"name":"luojiazui","country":"cn","lat":33.134662,"lon":104.663259},{"id":598548,"name":"tielubei","country":"cn","lat":33.095023,"lon":105.194987},{"id":503083,"name":"jiduobai","country":"cn","lat":33.490039,"lon":104.580223},{"id":591804,"name":"taiyangshan","country":"cn","lat":33.413043,"lon":105.070589},{"id":647866,"name":"zhaduo","country":"cn","lat":33.103899,"lon":104.658534},{"id":516265,"name":"laoshanli","country":"cn","lat":32.994951,"lon":105.200512},{"id":432731,"name":"chaijiashan","country":"cn","lat":32.933983,"lon":104.895553},{"id":559137,"name":"qiaozhuang","country":"cn","lat":32.590256,"lon":105.233427},{"id":461240,"name":"douba","country":"cn","lat":33.257108,"lon":105.468121},{"id":610793,"name":"wenjiagou","country":"cn","lat":33.489032,"lon":105.051258},{"id":537264,"name":"mashanli","country":"cn","lat":33.340208,"lon":104.859711},{"id":541925,"name":"mozigou","country":"cn","lat":32.982842,"lon":105.320149},{"id":592586,"name":"tangba","country":"cn","lat":32.996371,"lon":105.441457},{"id":425657,"name":"banqiao xiang","country":"cn","lat":32.622698,"lon":105.344939},{"id":640689,"name":"yingzhe","country":"cn","lat":33.356275,"lon":104.578406},{"id":595056,"name":"taolinsi","country":"cn","lat":33.11113,"lon":104.752533},{"id":638197,"name":"yatali","country":"cn","lat":32.953935,"lon":105.034621},{"id":564035,"name":"renwu","country":"cn","lat":33.311929,"lon":104.617662},{"id":458858,"name":"dongjiang","country":"cn","lat":33.379231,"lon":104.950656},{"id":466291,"name":"fengling","country":"cn","lat":33.250269,"lon":105.488969},{"id":468842,"name":"fuya","country":"cn","lat":33.437801,"lon":105.273329},{"id":435682,"name":"changziping","country":"cn","lat":33.37606,"lon":104.739175},{"id":644836,"name":"yuhuang","country":"cn","lat":33.292275,"lon":105.224668},{"id":574810,"name":"shanzhai","country":"cn","lat":33.123015,"lon":104.821559},{"id":482591,"name":"hengtan","country":"cn","lat":32.878333,"lon":104.804444},{"id":456373,"name":"diaolouwan","country":"cn","lat":33.124299,"lon":104.622943},{"id":640812,"name":"yinjialiangshang","country":"cn","lat":32.942239,"lon":105.229581},{"id":521073,"name":"lijiagou","country":"cn","lat":32.927354,"lon":104.805884},{"id":475557,"name":"guanyindian","country":"cn","lat":32.529473,"lon":105.471039},{"id":633720,"name":"yangjiaba","country":"cn","lat":33.359513,"lon":104.986049},{"id":654577,"name":"zhoujiagou","country":"cn","lat":33.2394,"lon":105.374308},{"id":504445,"name":"jingjiaba","country":"cn","lat":32.939508,"lon":104.595032},{"id":559183,"name":"qiazi","country":"cn","lat":33.449328,"lon":104.534787},{"id":426464,"name":"baoshuizi","country":"cn","lat":33.32823,"lon":105.080977},{"id":511463,"name":"kongxi","country":"cn","lat":32.596203,"lon":105.271073},{"id":560882,"name":"qingshanwan","country":"cn","lat":33.130767,"lon":104.794781},{"id":420327,"name":"anjiashan","country":"cn","lat":32.980031,"lon":105.091475},{"id":554838,"name":"pingshiban","country":"cn","lat":32.956791,"lon":105.275189},{"id":466148,"name":"fengjiazhuang","country":"cn","lat":33.254825,"lon":105.376016},{"id":649783,"name":"zhangshanli","country":"cn","lat":33.279617,"lon":105.258345},{"id":584014,"name":"shuichiping","country":"cn","lat":32.590969,"lon":104.732699},{"id":426653,"name":"baoziba","country":"cn","lat":33.064678,"lon":104.619188},{"id":632303,"name":"yajiao","country":"cn","lat":33.22906,"lon":105.09814},{"id":555257,"name":"pipa","country":"cn","lat":33.166349,"lon":105.313439},{"id":462060,"name":"dujiagou","country":"cn","lat":33.154734,"lon":105.043424},{"id":506917,"name":"jiumian","country":"cn","lat":33.347125,"lon":105.197871},{"id":507242,"name":"jiuyuanzhai","country":"cn","lat":33.261555,"lon":104.837369},{"id":547276,"name":"nianba","country":"cn","lat":33.306369,"lon":105.469359},{"id":469122,"name":"gadinuo","country":"cn","lat":33.277397,"lon":104.593309},{"id":475549,"name":"guanyinba","country":"cn","lat":33.066202,"lon":104.740763},{"id":475749,"name":"guanzhuangshang","country":"cn","lat":32.524821,"lon":104.824034},{"id":523644,"name":"lishan","country":"cn","lat":33.045338,"lon":105.166879},{"id":561231,"name":"qingyagou","country":"cn","lat":33.025108,"lon":105.263259},{"id":458941,"name":"dongjiatigou","country":"cn","lat":33.269916,"lon":104.854453},{"id":542176,"name":"mugua","country":"cn","lat":33.463493,"lon":105.171326},{"id":566126,"name":"sangjiawan","country":"cn","lat":33.40018,"lon":104.885582},{"id":620553,"name":"xiaoshixia","country":"cn","lat":33.496119,"lon":105.316358},{"id":618353,"name":"xiaobanshi","country":"cn","lat":33.21784,"lon":104.979285},{"id":586200,"name":"sikewan","country":"cn","lat":33.013079,"lon":105.250467},{"id":525084,"name":"liujiashan","country":"cn","lat":32.920167,"lon":105.116125},{"id":605958,"name":"wanerli","country":"cn","lat":33.413277,"lon":105.340478},{"id":435095,"name":"changshuwan","country":"cn","lat":33.494619,"lon":104.906297},{"id":563465,"name":"ranergou","country":"cn","lat":33.371649,"lon":105.301527},{"id":458018,"name":"dongcun","country":"cn","lat":33.275808,"lon":105.045976},{"id":437083,"name":"chenba","country":"cn","lat":33.111022,"lon":105.380749},{"id":539193,"name":"mengjiashan","country":"cn","lat":33.363322,"lon":105.316268},{"id":609737,"name":"weihe","country":"cn","lat":32.995221,"lon":105.32465},{"id":654728,"name":"zhoujiayuan","country":"cn","lat":32.537719,"lon":105.344001},{"id":458912,"name":"dongjiaping","country":"cn","lat":33.293182,"lon":105.212567},{"id":438685,"name":"chenjiapo","country":"cn","lat":33.380022,"lon":105.042275},{"id":641041,"name":"yinshan","country":"cn","lat":33.060843,"lon":104.747961},{"id":658191,"name":"zuoyeba","country":"cn","lat":32.965523,"lon":104.92951},{"id":431326,"name":"cangyuanshan","country":"cn","lat":32.958067,"lon":104.890999},{"id":483203,"name":"hetaozhuang","country":"cn","lat":32.961157,"lon":105.079536},{"id":481540,"name":"hejiasifang","country":"cn","lat":33.140181,"lon":105.379177},{"id":479600,"name":"hanlin","country":"cn","lat":33.475408,"lon":104.902146},{"id":635866,"name":"yangzhuang","country":"cn","lat":33.478548,"lon":104.993002},{"id":542876,"name":"muzuocangzu","country":"cn","lat":32.62448,"lon":104.50435},{"id":420187,"name":"anhe","country":"cn","lat":33.266206,"lon":105.43216},{"id":524464,"name":"liufanggou","country":"cn","lat":33.157007,"lon":105.174811},{"id":424367,"name":"baiyiba","country":"cn","lat":32.973895,"lon":104.619799},{"id":604348,"name":"tuoxi","country":"cn","lat":33.420958,"lon":104.59505},{"id":530343,"name":"luhuagou","country":"cn","lat":33.392023,"lon":105.157465},{"id":480909,"name":"heigou","country":"cn","lat":33.242544,"lon":105.208255},{"id":501235,"name":"jiangping","country":"cn","lat":33.123776,"lon":104.741406},{"id":444745,"name":"chuanzishan","country":"cn","lat":33.317589,"lon":105.101752},{"id":613583,"name":"wuma","country":"cn","lat":33.063503,"lon":105.442528},{"id":460356,"name":"dongtudi","country":"cn","lat":32.543031,"lon":105.384231},{"id":616416,"name":"xialiuping","country":"cn","lat":33.331207,"lon":104.963672},{"id":500908,"name":"jiangjiashan","country":"cn","lat":33.442176,"lon":104.927309},{"id":446516,"name":"cuijiali","country":"cn","lat":33.377587,"lon":105.22518},{"id":431711,"name":"caojiawan","country":"cn","lat":33.230183,"lon":104.994736},{"id":477265,"name":"guojiashan","country":"cn","lat":32.959001,"lon":105.052964},{"id":521159,"name":"lijiamiao","country":"cn","lat":33.479563,"lon":105.118568},{"id":540026,"name":"miaokandixia","country":"cn","lat":32.803826,"lon":105.492385},{"id":570136,"name":"shangchenjiaba","country":"cn","lat":33.303216,"lon":105.097323},{"id":587514,"name":"songlinling","country":"cn","lat":33.105093,"lon":104.734333},{"id":609245,"name":"washan","country":"cn","lat":33.148751,"lon":105.019251},{"id":456078,"name":"diangou","country":"cn","lat":33.417562,"lon":104.912082},{"id":435732,"name":"chanping","country":"cn","lat":33.492742,"lon":104.559828},{"id":447313,"name":"dacaopo","country":"cn","lat":33.180098,"lon":104.659624},{"id":455120,"name":"dazhuangli","country":"cn","lat":33.195832,"lon":105.346865},{"id":656276,"name":"zhulengkan","country":"cn","lat":33.330731,"lon":105.040146},{"id":634115,"name":"yangjiawan","country":"cn","lat":32.974731,"lon":104.837927},{"id":480032,"name":"haojiashan","country":"cn","lat":33.059235,"lon":105.113043},{"id":497161,"name":"hujiagou","country":"cn","lat":33.214553,"lon":105.339813},{"id":462025,"name":"dujiaba","country":"cn","lat":32.976536,"lon":104.925458},{"id":420277,"name":"anjiaba","country":"cn","lat":32.95212,"lon":105.047539},{"id":524564,"name":"liugouba","country":"cn","lat":33.317364,"lon":104.915437},{"id":631406,"name":"xujialeng","country":"cn","lat":33.464238,"lon":105.083606},{"id":650798,"name":"zhaojiawan","country":"cn","lat":33.231962,"lon":105.28189},{"id":511446,"name":"kongtouping","country":"cn","lat":33.317032,"lon":104.945338},{"id":555007,"name":"pingwan","country":"cn","lat":33.212522,"lon":104.93843},{"id":474338,"name":"guandiwan","country":"cn","lat":32.962343,"lon":104.543577},{"id":562062,"name":"qiulinping","country":"cn","lat":33.484774,"lon":105.133705},{"id":612797,"name":"wujiawan","country":"cn","lat":32.995841,"lon":104.5667},{"id":570664,"name":"shanggaojiaba","country":"cn","lat":33.065541,"lon":105.050566},{"id":619489,"name":"xiaojiawan","country":"cn","lat":33.05097,"lon":104.607501},{"id":518424,"name":"lianghekou","country":"cn","lat":33.129375,"lon":105.308807},{"id":566354,"name":"sanguo","country":"cn","lat":32.526687,"lon":105.01232},{"id":518866,"name":"liangshui","country":"cn","lat":33.431772,"lon":104.809087},{"id":605478,"name":"wainapu","country":"cn","lat":33.206389,"lon":105.049722},{"id":609251,"name":"washiba","country":"cn","lat":32.573722,"lon":104.802026},{"id":436911,"name":"chejiaba","country":"cn","lat":32.97977,"lon":105.406944},{"id":481175,"name":"heishudi","country":"cn","lat":33.099695,"lon":105.022943},{"id":569966,"name":"shangba","country":"cn","lat":32.61069,"lon":105.313977},{"id":523692,"name":"lishentiao","country":"cn","lat":33.416241,"lon":104.987271},{"id":569961,"name":"shangba","country":"cn","lat":32.964894,"lon":105.432806},{"id":458821,"name":"dongjiahe","country":"cn","lat":33.202201,"lon":105.431468},{"id":607759,"name":"wangpingshang","country":"cn","lat":33.499425,"lon":105.181513},{"id":431490,"name":"caodizi","country":"cn","lat":33.178539,"lon":105.159073},{"id":550271,"name":"paifang","country":"cn","lat":33.15848,"lon":104.664526},{"id":532522,"name":"luotang","country":"cn","lat":33.067751,"lon":105.264849},{"id":620521,"name":"xiaoshijia","country":"cn","lat":33.314741,"lon":105.201868},{"id":643385,"name":"yuanpingshan","country":"cn","lat":32.995599,"lon":104.639812},{"id":458834,"name":"dongjialeng","country":"cn","lat":33.370005,"lon":105.10786},{"id":586019,"name":"sihe","country":"cn","lat":33.338717,"lon":104.889319},{"id":495193,"name":"huangyanggoukou","country":"cn","lat":33.250449,"lon":105.409109},{"id":576545,"name":"shengouli","country":"cn","lat":33.127848,"lon":105.264876},{"id":604904,"name":"udu","country":"cn","lat":33.396667,"lon":104.921667},{"id":485778,"name":"houba","country":"cn","lat":33.069455,"lon":104.816367},{"id":615265,"name":"xiacuijia","country":"cn","lat":33.321209,"lon":105.139616},{"id":609477,"name":"waziba","country":"cn","lat":33.155659,"lon":105.491798},{"id":465004,"name":"fanlongkan","country":"cn","lat":32.910133,"lon":105.118721},{"id":639674,"name":"yijiaba","country":"cn","lat":33.076379,"lon":104.60918},{"id":593194,"name":"tangjia","country":"cn","lat":33.256692,"lon":104.978935},{"id":607095,"name":"wangjiaping","country":"cn","lat":33.041565,"lon":105.372628},{"id":565425,"name":"sancang","country":"cn","lat":33.013785,"lon":105.115067},{"id":566695,"name":"sanjiadi","country":"cn","lat":33.468101,"lon":104.88958},{"id":523493,"name":"liping","country":"cn","lat":33.185586,"lon":104.883896},{"id":636352,"name":"yanmaiba","country":"cn","lat":33.408617,"lon":104.62057},{"id":525047,"name":"liujiaping","country":"cn","lat":32.8,"lon":104.833333},{"id":437744,"name":"chengjiaba","country":"cn","lat":33.399946,"lon":105.29302},{"id":508816,"name":"kandili","country":"cn","lat":33.308031,"lon":105.383193},{"id":650685,"name":"zhaojiagou","country":"cn","lat":33.146586,"lon":104.633561},{"id":622593,"name":"xiayangjiazhuang","country":"cn","lat":33.181656,"lon":105.324632},{"id":500055,"name":"jiajiadian","country":"cn","lat":33.445005,"lon":105.347539},{"id":473276,"name":"gonggu","country":"cn","lat":33.089283,"lon":104.884504},{"id":474056,"name":"gouyuanba","country":"cn","lat":32.95857,"lon":105.475665},{"id":431386,"name":"caobazi","country":"cn","lat":33.461418,"lon":104.743038},{"id":437823,"name":"chengjiao","country":"cn","lat":33.385205,"lon":104.919628},{"id":469174,"name":"gaidounuo","country":"cn","lat":33.401788,"lon":104.601195},{"id":580498,"name":"shimengou","country":"cn","lat":33.005117,"lon":104.822547},{"id":424166,"name":"baiya","country":"cn","lat":33.318784,"lon":105.02509},{"id":652641,"name":"zhima","country":"cn","lat":33.165864,"lon":104.79806},{"id":547616,"name":"nichizi","country":"cn","lat":33.275404,"lon":105.212496},{"id":554782,"name":"pingshang","country":"cn","lat":32.928216,"lon":105.01829},{"id":470790,"name":"gaojiaba","country":"cn","lat":33.176994,"lon":105.303081},{"id":455457,"name":"dengcaoba","country":"cn","lat":33.012769,"lon":104.544115},{"id":628721,"name":"xiongchi","country":"cn","lat":33.405749,"lon":105.330327},{"id":650974,"name":"zhaoping","country":"cn","lat":33.113151,"lon":105.28913},{"id":551298,"name":"pandi","country":"cn","lat":33.016035,"lon":105.183911},{"id":534052,"name":"madigou","country":"cn","lat":33.401617,"lon":105.262208},{"id":638015,"name":"yaoziping","country":"cn","lat":33.151347,"lon":104.767239},{"id":523755,"name":"lishudao","country":"cn","lat":33.153236,"lon":104.90207},{"id":507257,"name":"jiuzhai","country":"cn","lat":32.933181,"lon":104.520793},{"id":467160,"name":"fenpingzi","country":"cn","lat":32.977776,"lon":105.345769},{"id":537274,"name":"mashan","country":"cn","lat":33.022278,"lon":105.379393},{"id":527942,"name":"longjiawanli","country":"cn","lat":32.641165,"lon":105.233337},{"id":514408,"name":"lamogaituo","country":"cn","lat":33.384627,"lon":104.621661},{"id":516777,"name":"laoyuanli","country":"cn","lat":32.631557,"lon":105.479581},{"id":497180,"name":"hujia","country":"cn","lat":33.422242,"lon":105.327749},{"id":532058,"name":"luojiashan","country":"cn","lat":33.042275,"lon":105.133516},{"id":422013,"name":"baibashan","country":"cn","lat":32.973778,"lon":104.60689},{"id":605686,"name":"wajishan","country":"cn","lat":32.992212,"lon":105.070724},{"id":505829,"name":"jintiaoshan","country":"cn","lat":32.952809,"lon":104.618936},{"id":428942,"name":"beizhushan","country":"cn","lat":33.093317,"lon":105.059648},{"id":634056,"name":"yangjiashan","country":"cn","lat":32.974497,"lon":105.259235},{"id":521304,"name":"lijiawan","country":"cn","lat":32.942769,"lon":105.041098},{"id":653887,"name":"zhongwan","country":"cn","lat":33.041848,"lon":104.636078},{"id":644575,"name":"yuezhao","country":"cn","lat":33.140595,"lon":105.161085},{"id":605202,"name":"wafangba","country":"cn","lat":33.244296,"lon":105.325278},{"id":571006,"name":"shanghuangjiaba","country":"cn","lat":33.414732,"lon":104.848653},{"id":620977,"name":"xiaoxiaoba","country":"cn","lat":32.526878,"lon":104.843418},{"id":423814,"name":"baishuigou","country":"cn","lat":33.387001,"lon":104.898257},{"id":604192,"name":"tunzhai","country":"cn","lat":33.163032,"lon":104.78139},{"id":577353,"name":"sheshu","country":"cn","lat":33.200489,"lon":104.936238},{"id":647883,"name":"zhaga","country":"cn","lat":33.347914,"lon":104.559868},{"id":643119,"name":"yuanjialeng","country":"cn","lat":33.456845,"lon":105.022018},{"id":610837,"name":"wenjiashan","country":"cn","lat":33.444197,"lon":105.186373},{"id":556509,"name":"putaojia","country":"cn","lat":33.235232,"lon":104.837864},{"id":521084,"name":"lijiahe","country":"cn","lat":33.160941,"lon":104.8523},{"id":648226,"name":"zhaizi","country":"cn","lat":33.103259,"lon":104.931957},{"id":580078,"name":"shilenggang","country":"cn","lat":33.494673,"lon":104.823633},{"id":615685,"name":"xiaguandi","country":"cn","lat":33.152659,"lon":104.669062},{"id":452003,"name":"dapingli","country":"cn","lat":33.08498,"lon":105.360402},{"id":622768,"name":"xiayuanjiagou","country":"cn","lat":33.302686,"lon":105.448212},{"id":431686,"name":"caojiashan","country":"cn","lat":33.334828,"lon":105.194089},{"id":540174,"name":"miaoshanheba","country":"cn","lat":33.164123,"lon":104.690154},{"id":612763,"name":"wujiashan","country":"cn","lat":33.147871,"lon":105.299021},{"id":566495,"name":"sanheli","country":"cn","lat":33.181951,"lon":104.976949},{"id":530549,"name":"lujiashan","country":"cn","lat":33.087639,"lon":104.910474},{"id":587676,"name":"songshuba","country":"cn","lat":33.088744,"lon":105.400305},{"id":606606,"name":"wanggou","country":"cn","lat":33.426931,"lon":105.281621},{"id":534702,"name":"majiadi","country":"cn","lat":33.234351,"lon":105.302902},{"id":466351,"name":"fenglu","country":"cn","lat":33.252964,"lon":105.37747},{"id":464899,"name":"fanjiashan","country":"cn","lat":33.016179,"lon":105.09859},{"id":450185,"name":"daliuli","country":"cn","lat":33.157906,"lon":105.183675},{"id":649694,"name":"zhangping","country":"cn","lat":33.430066,"lon":105.244017},{"id":600224,"name":"tongmushuwanli","country":"cn","lat":32.798967,"lon":105.400135},{"id":531794,"name":"luoguoguna","country":"cn","lat":33.464958,"lon":104.562048},{"id":633444,"name":"yanggoudazhuang","country":"cn","lat":33.280613,"lon":105.059531},{"id":481204,"name":"heitanba","country":"cn","lat":32.916206,"lon":105.103027},{"id":590979,"name":"taichungou","country":"cn","lat":33.079339,"lon":105.148904},{"id":586676,"name":"sishang","country":"cn","lat":32.971245,"lon":104.868811},{"id":422907,"name":"bailinsi","country":"cn","lat":33.298706,"lon":105.136768},{"id":500100,"name":"jiajiapingshang","country":"cn","lat":33.291071,"lon":105.094799},{"id":477875,"name":"gushuizi","country":"cn","lat":33.328701,"lon":105.078054},{"id":643532,"name":"yuantanzi","country":"cn","lat":33.362513,"lon":105.346254},{"id":584678,"name":"shuiquanwan","country":"cn","lat":33.056818,"lon":104.628692},{"id":518315,"name":"liangcun","country":"cn","lat":33.225243,"lon":104.756216},{"id":586237,"name":"silengkan","country":"cn","lat":33.407959,"lon":105.101922},{"id":650863,"name":"zhaojiazhuang","country":"cn","lat":33.410035,"lon":105.415273},{"id":480333,"name":"hawu","country":"cn","lat":33.455444,"lon":104.639696},{"id":540114,"name":"miaopingli","country":"cn","lat":33.035115,"lon":105.086867},{"id":538164,"name":"maziping","country":"cn","lat":33.24735,"lon":104.96352},{"id":425153,"name":"bancuozi","country":"cn","lat":33.226518,"lon":105.181728},{"id":525258,"name":"liujiazhuang","country":"cn","lat":33.285358,"lon":105.437809},{"id":648842,"name":"zhanghongshan","country":"cn","lat":33.124281,"lon":104.505668},{"id":469236,"name":"gaizishan","country":"cn","lat":32.917319,"lon":104.795868},{"id":580561,"name":"shimen","country":"cn","lat":33.485973,"lon":104.738244},{"id":473917,"name":"goukouzi","country":"cn","lat":32.910906,"lon":105.002575},{"id":523965,"name":"liting","country":"cn","lat":33.146559,"lon":104.991592},{"id":534077,"name":"madishan","country":"cn","lat":32.93216,"lon":105.121757},{"id":482935,"name":"heshangmian","country":"cn","lat":33.435259,"lon":104.953351},{"id":607233,"name":"wangjiawan","country":"cn","lat":33.366053,"lon":105.374731},{"id":600222,"name":"tongmushan","country":"cn","lat":33.076455,"lon":105.247323},{"id":485415,"name":"hongyawan","country":"cn","lat":33.493918,"lon":105.139831},{"id":541930,"name":"moziping","country":"cn","lat":33.183507,"lon":105.388349},{"id":516191,"name":"laopengshan","country":"cn","lat":32.914541,"lon":104.92188},{"id":656079,"name":"zhujiashan","country":"cn","lat":33.382672,"lon":104.8371},{"id":500948,"name":"jiangjiawan","country":"cn","lat":33.050467,"lon":104.90592},{"id":473381,"name":"gongjiaping","country":"cn","lat":33.08613,"lon":104.987612},{"id":657642,"name":"zongjiaba","country":"cn","lat":33.219889,"lon":105.063026},{"id":500061,"name":"jiajiagou","country":"cn","lat":33.135519,"lon":105.424605},{"id":579404,"name":"shihuiyaogouli","country":"cn","lat":32.954914,"lon":104.515622},{"id":534459,"name":"maierbao","country":"cn","lat":33.051033,"lon":104.592993},{"id":554702,"name":"pingnaan","country":"cn","lat":33.072018,"lon":104.971973},{"id":542780,"name":"muyu","country":"cn","lat":32.644882,"lon":105.396571},{"id":491835,"name":"huaishushan","country":"cn","lat":33.323078,"lon":105.210501},{"id":437782,"name":"chengjiagou","country":"cn","lat":33.441044,"lon":105.235124},{"id":486043,"name":"houerba","country":"cn","lat":33.444368,"lon":105.305426},{"id":562891,"name":"quepingli","country":"cn","lat":33.390478,"lon":105.355507},{"id":530475,"name":"lujiali","country":"cn","lat":32.965667,"lon":105.110115},{"id":534190,"name":"mafugou","country":"cn","lat":33.234307,"lon":105.334199},{"id":623982,"name":"xietaishang","country":"cn","lat":33.184405,"lon":105.269844},{"id":528882,"name":"longwangshan","country":"cn","lat":33.384064,"lon":104.810825},{"id":613078,"name":"wuku","country":"cn","lat":33.028791,"lon":105.013753},{"id":633742,"name":"yangjiachang","country":"cn","lat":33.060438,"lon":105.210331},{"id":445786,"name":"chunshuping","country":"cn","lat":33.173937,"lon":104.801745},{"id":510503,"name":"kenian","country":"cn","lat":33.46157,"lon":104.530345},{"id":579694,"name":"shijiaping","country":"cn","lat":33.10424,"lon":105.198742},{"id":561286,"name":"qingyanzi","country":"cn","lat":32.681821,"lon":105.425382},{"id":469663,"name":"gangoushan","country":"cn","lat":32.928962,"lon":104.940792},{"id":481414,"name":"hejiagou","country":"cn","lat":33.145437,"lon":105.095958},{"id":529503,"name":"loushegou","country":"cn","lat":33.217957,"lon":104.770122},{"id":561063,"name":"qingshuzi","country":"cn","lat":32.79087,"lon":105.460421},{"id":560994,"name":"qingshuiping","country":"cn","lat":33.394682,"lon":104.798069},{"id":452608,"name":"dashanyan","country":"cn","lat":32.502052,"lon":104.791164},{"id":623901,"name":"xiemadian","country":"cn","lat":33.437136,"lon":105.324695},{"id":451611,"name":"daojiashan","country":"cn","lat":33.350766,"lon":104.981744},{"id":634769,"name":"yangmiao","country":"cn","lat":33.441646,"lon":105.11608},{"id":524942,"name":"liujiahe","country":"cn","lat":33.139355,"lon":105.40044},{"id":457570,"name":"diziping","country":"cn","lat":32.595154,"lon":104.538777},{"id":542523,"name":"mupingan","country":"cn","lat":33.352955,"lon":105.210843},{"id":464120,"name":"fanchangshan","country":"cn","lat":32.941646,"lon":104.738636},{"id":645124,"name":"yujia","country":"cn","lat":33.0886,"lon":104.740334},{"id":475175,"name":"guanping","country":"cn","lat":33.203512,"lon":104.778144},{"id":551299,"name":"pandishan","country":"cn","lat":33.002398,"lon":105.147835},{"id":542421,"name":"mulingzi","country":"cn","lat":33.002713,"lon":105.399614},{"id":623249,"name":"xicangba","country":"cn","lat":33.208849,"lon":104.863904},{"id":620790,"name":"xiaou","country":"cn","lat":33.339918,"lon":104.633292},{"id":608125,"name":"wangtzikuan","country":"cn","lat":33.459167,"lon":105.361667},{"id":541316,"name":"moba","country":"cn","lat":32.946389,"lon":104.873626},{"id":570699,"name":"shanggongjia","country":"cn","lat":33.462019,"lon":104.866709},{"id":547371,"name":"nianjiagou","country":"cn","lat":33.093927,"lon":105.101761},{"id":649129,"name":"zhangjiali","country":"cn","lat":32.962397,"lon":105.102704}]});