callback({"markets":[{"id":1637513,"name":"wolpyongni","country":"kr","lat":35.400556,"lon":128.025833},{"id":1630326,"name":"sowon","country":"kr","lat":35.225278,"lon":128.101111},{"id":1600948,"name":"chongyongni","country":"kr","lat":35.189167,"lon":127.881389},{"id":1632424,"name":"taman","country":"kr","lat":35.11984,"lon":128.376061},{"id":1615804,"name":"muryangni","country":"kr","lat":34.95932,"lon":128.402391},{"id":1638379,"name":"yanga","country":"kr","lat":34.716944,"lon":127.957222},{"id":1611671,"name":"kumchon","country":"kr","lat":34.638889,"lon":127.729722},{"id":1638437,"name":"yangdok","country":"kr","lat":34.995555,"lon":128.304786},{"id":1622616,"name":"pupori","country":"kr","lat":34.988056,"lon":128.236667},{"id":1632487,"name":"tanchon","country":"kr","lat":35.271944,"lon":127.659722},{"id":1612574,"name":"kusokchon","country":"kr","lat":34.949906,"lon":128.407847},{"id":1630954,"name":"sunguiwon","country":"kr","lat":35.010073,"lon":128.377171},{"id":1637392,"name":"wolgok","country":"kr","lat":35.062686,"lon":128.280181},{"id":1625226,"name":"sangjok","country":"kr","lat":34.833333,"lon":127.716667},{"id":1614985,"name":"mokkol","country":"kr","lat":35.207954,"lon":128.265636},{"id":1634349,"name":"tongjidong","country":"kr","lat":35.035412,"lon":128.31065},{"id":1614670,"name":"minjim","country":"kr","lat":34.840278,"lon":128.383889},{"id":1632197,"name":"taeyanghwa","country":"kr","lat":34.825555,"lon":128.373871},{"id":1608574,"name":"kalmok","country":"kr","lat":34.850053,"lon":128.371624},{"id":1637466,"name":"wollyongni","country":"kr","lat":35.418784,"lon":128.482211},{"id":1595884,"name":"adong","country":"kr","lat":34.983333,"lon":127.766667},{"id":1631981,"name":"taerang","country":"kr","lat":34.716944,"lon":127.956389},{"id":1633173,"name":"todokpo","country":"kr","lat":34.9,"lon":127.716667},{"id":1609202,"name":"karhwari","country":"kr","lat":34.890278,"lon":127.836389},{"id":1619531,"name":"paedulli","country":"kr","lat":35.058403,"lon":128.373744},{"id":1600821,"name":"chongsaeng","country":"kr","lat":35.017014,"lon":128.251139},{"id":1631299,"name":"taealli","country":"kr","lat":34.878134,"lon":128.435757},{"id":1622850,"name":"pyongchondong","country":"kr","lat":35.434167,"lon":128.225556},{"id":1639336,"name":"yongdong","country":"kr","lat":34.983324,"lon":128.403784},{"id":1619266,"name":"oryun","country":"kr","lat":34.903263,"lon":128.342056},{"id":1631308,"name":"taeam","country":"kr","lat":35.258889,"lon":128.074444},{"id":1617382,"name":"nojokkumi","country":"kr","lat":34.621944,"lon":128.285278},{"id":1601933,"name":"chunghwassangni","country":"kr","lat":35.071111,"lon":127.822778},{"id":1618351,"name":"oejoyondong","country":"kr","lat":35.333333,"lon":128.2},{"id":1633500,"name":"tojon","country":"kr","lat":35.048703,"lon":128.338229},{"id":1639487,"name":"yongho","country":"kr","lat":34.87345,"lon":128.393173},{"id":1623068,"name":"pyongyo","country":"kr","lat":34.883333,"lon":127.55},{"id":1627831,"name":"sinsudori","country":"kr","lat":34.9,"lon":128.083333},{"id":1613588,"name":"maduri","country":"kr","lat":35.414116,"lon":128.307053},{"id":1613936,"name":"majin","country":"kr","lat":35.219167,"lon":128.219722},{"id":1635868,"name":"ukkol","country":"kr","lat":34.964294,"lon":128.274286},{"id":1603688,"name":"habyollae","country":"kr","lat":35.178637,"lon":128.426235},{"id":1611236,"name":"kuam","country":"kr","lat":35.086389,"lon":128.118056},{"id":1605317,"name":"hendo","country":"kr","lat":34.835556,"lon":128.220833},{"id":1633751,"name":"toksangni","country":"kr","lat":34.927012,"lon":128.295467},{"id":1637951,"name":"wonji","country":"kr","lat":35.302222,"lon":127.970278},{"id":1603946,"name":"haengjong","country":"kr","lat":35.406302,"lon":128.332322},{"id":1638232,"name":"worang","country":"kr","lat":34.789722,"lon":127.669444},{"id":1630141,"name":"soryulpo","country":"kr","lat":34.601111,"lon":127.794444},{"id":1621953,"name":"poppyongdong","country":"kr","lat":35.358056,"lon":128.067778},{"id":1604282,"name":"hajok","country":"kr","lat":34.85,"lon":127.7},{"id":1621742,"name":"pongjong","country":"kr","lat":34.85,"lon":127.6},{"id":1598782,"name":"chasanni","country":"kr","lat":34.85,"lon":127.9},{"id":1634042,"name":"tonamni","country":"kr","lat":34.82923,"lon":128.418989},{"id":1613666,"name":"maehwajong","country":"kr","lat":35.285833,"lon":127.908889},{"id":1635304,"name":"tundok","country":"kr","lat":35.19211,"lon":128.391312},{"id":1631952,"name":"taepyongdong","country":"kr","lat":35.225,"lon":127.958611},{"id":1618632,"name":"ojang","country":"kr","lat":34.972371,"lon":128.44117},{"id":1617626,"name":"nonsil","country":"kr","lat":35.1,"lon":127.6},{"id":1611523,"name":"kuksil","country":"kr","lat":35.272129,"lon":128.349325},{"id":1624974,"name":"sanggari","country":"kr","lat":34.784444,"lon":127.869444},{"id":1607323,"name":"inwolli","country":"kr","lat":35.462778,"lon":127.603333},{"id":1621982,"name":"porangae","country":"kr","lat":34.79159,"lon":128.429178},{"id":1638258,"name":"worhung","country":"kr","lat":34.921944,"lon":128.155833},{"id":1608344,"name":"kajongpo","country":"kr","lat":34.655278,"lon":127.565278},{"id":1612347,"name":"kunyangha","country":"kr","lat":34.8225,"lon":128.371389},{"id":1606488,"name":"hwasamni","country":"kr","lat":34.852778,"lon":128.450278},{"id":1631360,"name":"taebiri","country":"kr","lat":34.883333,"lon":127.966667},{"id":1605116,"name":"hasinchon","country":"kr","lat":35.472164,"lon":128.456993},{"id":1639428,"name":"yonggung","country":"kr","lat":35.102272,"lon":128.289241},{"id":1636233,"name":"ungok","country":"kr","lat":34.95,"lon":128.316667},{"id":1612664,"name":"kuwolsan","country":"kr","lat":35.146733,"lon":128.367061},{"id":1628008,"name":"sisongni","country":"kr","lat":35.2,"lon":128.233333},{"id":1623976,"name":"sajagol","country":"kr","lat":34.988666,"lon":128.314092},{"id":1612596,"name":"kusongmaul","country":"kr","lat":35.041751,"lon":128.295169},{"id":1625069,"name":"sanggwang","country":"kr","lat":35.24681,"lon":128.40775},{"id":1624729,"name":"sangbyollae","country":"kr","lat":35.184403,"lon":128.423217},{"id":1613043,"name":"kwannyul","country":"kr","lat":35.107778,"lon":128.134444},{"id":1640018,"name":"yonsan","country":"kr","lat":35.372203,"lon":128.437914},{"id":1637330,"name":"wolchegol","country":"kr","lat":34.967274,"lon":128.377972},{"id":1615401,"name":"mujondong","country":"kr","lat":34.859605,"lon":128.434338},{"id":1626630,"name":"shinchon","country":"kr","lat":34.884167,"lon":128.006389},{"id":1629717,"name":"songol","country":"kr","lat":34.940545,"lon":128.349437},{"id":1637171,"name":"wissokkae","country":"kr","lat":35.07705,"lon":128.451726},{"id":1632566,"name":"tanggol","country":"kr","lat":34.968199,"lon":128.288086},{"id":1601795,"name":"chungdong","country":"kr","lat":35.091439,"lon":128.448761},{"id":1633724,"name":"tokpori","country":"kr","lat":34.906944,"lon":128.418056},{"id":1608602,"name":"kalsari","country":"kr","lat":34.941944,"lon":127.784444},{"id":1605620,"name":"homun","country":"kr","lat":34.75,"lon":127.699444},{"id":1625723,"name":"sangyong","country":"kr","lat":35.387933,"lon":128.274933},{"id":1613910,"name":"majanggae","country":"kr","lat":34.88215,"lon":128.454644},{"id":1626913,"name":"silchol","country":"kr","lat":35.48627,"lon":128.470795},{"id":1627376,"name":"singidong","country":"kr","lat":35.226389,"lon":127.883611},{"id":1629129,"name":"sondong","country":"kr","lat":34.992196,"lon":128.307085},{"id":1635996,"name":"umjidabok","country":"kr","lat":35.258266,"lon":128.450776},{"id":1638557,"name":"yangjimal","country":"kr","lat":35.376669,"lon":128.26443},{"id":1606976,"name":"ikchonni","country":"kr","lat":34.95,"lon":127.616667},{"id":1612885,"name":"kwangjong","country":"kr","lat":35.493627,"lon":128.445678},{"id":1637090,"name":"winmunamdong","country":"kr","lat":35.478557,"lon":128.456029},{"id":1640390,"name":"yungni","country":"kr","lat":35.45,"lon":128.166667},{"id":1637363,"name":"wolchon","country":"kr","lat":34.968894,"lon":128.385168},{"id":1629289,"name":"songdu","country":"kr","lat":34.583333,"lon":127.783333},{"id":1639808,"name":"yongsudong","country":"kr","lat":34.783333,"lon":127.7},{"id":1619404,"name":"oui","country":"kr","lat":34.963652,"lon":128.486208},{"id":1611966,"name":"kumsil","country":"kr","lat":35.308919,"lon":128.45189},{"id":1621127,"name":"pochon","country":"kr","lat":35.256111,"lon":128.233889},{"id":1611931,"name":"kumpyong","country":"kr","lat":34.7725,"lon":127.955833},{"id":1625692,"name":"sangwon","country":"kr","lat":34.980394,"lon":128.408435},{"id":1613780,"name":"maesan","country":"kr","lat":35.483333,"lon":127.6},{"id":1616946,"name":"namsangni","country":"kr","lat":34.8425,"lon":127.819722},{"id":1634602,"name":"tongsanri","country":"kr","lat":35.119894,"lon":128.394654},{"id":1622676,"name":"pusan","country":"kr","lat":35.139511,"lon":128.464821},{"id":1618599,"name":"ohwa","country":"kr","lat":35.345361,"lon":128.292845},{"id":1623327,"name":"sachonni","country":"kr","lat":35.0,"lon":128.15},{"id":1638627,"name":"yangjon","country":"kr","lat":35.154116,"lon":128.296408},{"id":1637350,"name":"wolchonni","country":"kr","lat":34.910833,"lon":127.54},{"id":1615084,"name":"mongae","country":"kr","lat":35.315373,"lon":128.337497},{"id":1617571,"name":"nongok","country":"kr","lat":35.133333,"lon":127.533333},{"id":1625482,"name":"sangpyong","country":"kr","lat":35.016667,"lon":127.616667},{"id":1604037,"name":"hagam","country":"kr","lat":35.015354,"lon":128.386333},{"id":1634692,"name":"tonmak","country":"kr","lat":35.060397,"lon":128.444612},{"id":1599528,"name":"chinjongni","country":"kr","lat":34.983333,"lon":127.733333},{"id":1598662,"name":"changungol","country":"kr","lat":34.945252,"lon":128.268509},{"id":1624932,"name":"sangdu","country":"kr","lat":35.402547,"lon":128.399858},{"id":1630068,"name":"soranttam","country":"kr","lat":34.957554,"lon":128.252516},{"id":1632752,"name":"tanhangni","country":"kr","lat":34.916667,"lon":128.019722},{"id":1622932,"name":"pyonghyonni","country":"kr","lat":34.816667,"lon":127.883333},{"id":1615151,"name":"morae","country":"kr","lat":35.391389,"lon":127.983889},{"id":1614171,"name":"mangimni","country":"kr","lat":35.0,"lon":128.216667},{"id":1610154,"name":"kogongni","country":"kr","lat":35.444002,"lon":128.423402},{"id":1627765,"name":"sinsandong","country":"kr","lat":35.314054,"lon":128.493222},{"id":1614688,"name":"mioji","country":"kr","lat":34.823362,"lon":128.397887},{"id":1625774,"name":"sanjekol","country":"kr","lat":34.950833,"lon":128.251944},{"id":1613793,"name":"maesuri","country":"kr","lat":34.957447,"lon":128.346281},{"id":1600127,"name":"chokpo","country":"kr","lat":35.049296,"lon":128.45954},{"id":1595876,"name":"achimgol","country":"kr","lat":35.214421,"lon":128.466061},{"id":1604468,"name":"hamak","country":"kr","lat":34.914122,"lon":128.412661},{"id":1615377,"name":"muha","country":"kr","lat":35.327957,"lon":128.278181},{"id":1619379,"name":"osori","country":"kr","lat":35.495278,"lon":127.836389},{"id":1621372,"name":"polmal","country":"kr","lat":35.216667,"lon":128.434444},{"id":1624342,"name":"samil","country":"kr","lat":34.829722,"lon":127.688056},{"id":1605352,"name":"hoam","country":"kr","lat":34.966667,"lon":127.65},{"id":1607991,"name":"kaechon","country":"kr","lat":35.10114,"lon":128.260085},{"id":1614940,"name":"mokchi","country":"kr","lat":35.355865,"lon":128.459276},{"id":1614257,"name":"manji","country":"kr","lat":35.033889,"lon":127.852778},{"id":1616289,"name":"naedori","country":"kr","lat":34.952222,"lon":127.786389},{"id":1601494,"name":"chukke","country":"kr","lat":34.968611,"lon":128.067222},{"id":1599870,"name":"chododong","country":"kr","lat":34.75,"lon":128.4},{"id":1613761,"name":"maepa","country":"kr","lat":35.229134,"lon":128.409259},{"id":1609593,"name":"kijolli","country":"kr","lat":35.333333,"lon":128.124722},{"id":1616688,"name":"nakpori","country":"kr","lat":34.847222,"lon":127.753611},{"id":1616608,"name":"naewolli","country":"kr","lat":35.307222,"lon":127.789167},{"id":1613594,"name":"maebagu","country":"kr","lat":35.311972,"lon":128.319611},{"id":1611815,"name":"kumho","country":"kr","lat":35.0,"lon":128.05},{"id":1636073,"name":"umpo","country":"kr","lat":35.438333,"lon":127.531389},{"id":1621783,"name":"pongnim","country":"kr","lat":34.984921,"lon":128.306443},{"id":1600470,"name":"chongdal","country":"kr","lat":35.09699,"lon":128.438576},{"id":1612082,"name":"kungae","country":"kr","lat":35.051944,"lon":128.471389},{"id":1596251,"name":"angye","country":"kr","lat":35.23711,"lon":128.485731},{"id":1631554,"name":"taegaryongpo","country":"kr","lat":35.013899,"lon":128.479135},{"id":1629964,"name":"sonwang","country":"kr","lat":35.28444,"lon":128.382915},{"id":1605525,"name":"hoeumjong","country":"kr","lat":35.333333,"lon":127.833333},{"id":1623698,"name":"saenung","country":"kr","lat":35.414471,"lon":128.490939},{"id":1600585,"name":"chongha","country":"kr","lat":35.218889,"lon":127.876111},{"id":1635946,"name":"umchon","country":"kr","lat":34.886479,"lon":128.444957},{"id":1625260,"name":"sangjungsamni","country":"kr","lat":35.118889,"lon":127.770556},{"id":1629490,"name":"songjiri","country":"kr","lat":35.012778,"lon":128.060556},{"id":1631565,"name":"taegiri","country":"kr","lat":35.458611,"lon":128.001389},{"id":1614771,"name":"misuidong","country":"kr","lat":34.82852,"lon":128.40862},{"id":1597526,"name":"chaekkol","country":"kr","lat":34.984242,"lon":128.314711},{"id":1628307,"name":"sogaryongpo","country":"kr","lat":35.005384,"lon":128.479997},{"id":1598392,"name":"changmal","country":"kr","lat":34.876389,"lon":127.711944},{"id":1605714,"name":"hongnyu","country":"kr","lat":34.94924,"lon":128.349167},{"id":1612171,"name":"kungol","country":"kr","lat":34.949157,"lon":128.269472},{"id":1604088,"name":"hagok","country":"kr","lat":35.004414,"lon":128.308998},{"id":1603434,"name":"guljeon","country":"kr","lat":34.691944,"lon":127.771389},{"id":1635766,"name":"uiamni","country":"kr","lat":34.757946,"lon":128.490209},{"id":1621561,"name":"pongamni","country":"kr","lat":35.131805,"lon":128.368839},{"id":1605752,"name":"horigol","country":"kr","lat":34.883333,"lon":128.4},{"id":1634796,"name":"torim","country":"kr","lat":35.299273,"lon":128.407927},{"id":1638237,"name":"worhaengni","country":"kr","lat":35.183333,"lon":127.866667},{"id":1603128,"name":"gasanri","country":"kr","lat":35.083333,"lon":128.033333},{"id":1631462,"name":"taechon","country":"kr","lat":35.015839,"lon":128.39571},{"id":1634682,"name":"tonjini","country":"kr","lat":34.837778,"lon":128.183889},{"id":1607023,"name":"ilmyongdang","country":"kr","lat":35.213074,"lon":128.363935},{"id":1611628,"name":"kuman","country":"kr","lat":35.088422,"lon":128.334848},{"id":1621978,"name":"popyong","country":"kr","lat":35.488611,"lon":127.835},{"id":1624428,"name":"samni","country":"kr","lat":35.466667,"lon":128.100556},{"id":1629909,"name":"sonmi","country":"kr","lat":35.05,"lon":128.333333},{"id":1632718,"name":"tangsan","country":"kr","lat":35.282502,"lon":128.406133},{"id":1618290,"name":"oegok","country":"kr","lat":35.168397,"lon":128.354989},{"id":1611260,"name":"kubbaemi","country":"kr","lat":35.367992,"lon":128.40544},{"id":1635810,"name":"uisin","country":"kr","lat":35.283333,"lon":127.65},{"id":1606664,"name":"hyodae","country":"kr","lat":34.953056,"lon":128.206111},{"id":1609471,"name":"kechoni","country":"kr","lat":34.983333,"lon":127.816667},{"id":1628939,"name":"solri","country":"kr","lat":34.704167,"lon":128.021111},{"id":1605701,"name":"hongjong","country":"kr","lat":35.392348,"lon":128.467192},{"id":1622080,"name":"ppondok","country":"kr","lat":34.967878,"lon":128.372919},{"id":1611571,"name":"kullyongpo","country":"kr","lat":34.917438,"lon":128.295788},{"id":1613328,"name":"kyodong","country":"kr","lat":35.195559,"lon":128.306055},{"id":1611322,"name":"kudong","country":"kr","lat":35.25,"lon":128.05},{"id":1631709,"name":"taehyon","country":"kr","lat":35.175242,"lon":128.468809},{"id":1598318,"name":"changjeri","country":"kr","lat":35.0,"lon":128.45},{"id":1625333,"name":"sangmyongdong","country":"kr","lat":35.102811,"lon":128.265205},{"id":1631412,"name":"taecharye","country":"kr","lat":35.283333,"lon":127.75},{"id":1624787,"name":"sangchon","country":"kr","lat":34.799881,"lon":128.410404},{"id":1639983,"name":"yonmyong","country":"kr","lat":34.779074,"lon":128.397994},{"id":1627861,"name":"sinui","country":"kr","lat":35.263307,"lon":128.466771},{"id":1625556,"name":"sangsingi","country":"kr","lat":35.356118,"lon":128.35683},{"id":1637529,"name":"wolsang","country":"kr","lat":35.447605,"lon":128.387376},{"id":1623531,"name":"saekkol","country":"kr","lat":35.410868,"lon":128.37667},{"id":1632474,"name":"tamu","country":"kr","lat":35.17923,"lon":128.269301},{"id":1597806,"name":"chamaeri","country":"kr","lat":34.653889,"lon":127.579722},{"id":1606133,"name":"hwagyeri","country":"kr","lat":35.4525,"lon":127.791944},{"id":1616478,"name":"naengjongni","country":"kr","lat":35.256111,"lon":128.100278},{"id":1627869,"name":"sinun","country":"kr","lat":34.974082,"lon":128.360991},{"id":1597999,"name":"changchon","country":"kr","lat":35.175349,"lon":128.28687},{"id":1621451,"name":"pomgol","country":"kr","lat":34.88963,"lon":128.34945},{"id":1621018,"name":"piranni","country":"kr","lat":34.883333,"lon":127.9},{"id":1610098,"name":"koejong","country":"kr","lat":35.04423,"lon":128.270432},{"id":1607142,"name":"imnaeri","country":"kr","lat":34.958196,"lon":128.417421},{"id":1612994,"name":"kwangyanggae","country":"kr","lat":34.883333,"lon":127.7},{"id":1614987,"name":"mokkoran","country":"kr","lat":35.484697,"lon":128.496876},{"id":1631054,"name":"surinbang","country":"kr","lat":35.1622,"lon":128.376169},{"id":1607352,"name":"ipsa","country":"kr","lat":35.372254,"lon":128.456536},{"id":1608657,"name":"kamamni","country":"kr","lat":35.47185,"lon":128.32599},{"id":1631842,"name":"taemakpo","country":"kr","lat":35.065517,"lon":128.474468},{"id":1636970,"name":"wayo","country":"kr","lat":35.355002,"lon":128.268641},{"id":1634169,"name":"tongdalli","country":"kr","lat":34.871667,"lon":128.446389},{"id":1633138,"name":"tochonni","country":"kr","lat":34.833333,"lon":127.916667},{"id":1617028,"name":"nandong","country":"kr","lat":35.464096,"lon":128.357591},{"id":1616897,"name":"namnae","country":"kr","lat":34.839444,"lon":127.894444},{"id":1606988,"name":"ilbansongmyon","country":"kr","lat":35.149212,"lon":128.281157},{"id":1628339,"name":"sogopori","country":"kr","lat":34.796243,"lon":128.487962},{"id":1615138,"name":"moraechi","country":"kr","lat":34.907436,"lon":128.280811},{"id":1596223,"name":"angol","country":"kr","lat":34.925247,"lon":128.280116},{"id":1600097,"name":"chokitsuri","country":"kr","lat":34.9,"lon":127.666667},{"id":1600889,"name":"chongtaesan","country":"kr","lat":35.43492,"lon":128.476021},{"id":1626711,"name":"shintoku","country":"kr","lat":34.821389,"lon":127.766667},{"id":1597879,"name":"chanaeri","country":"kr","lat":34.8,"lon":127.716667},{"id":1620442,"name":"panggol","country":"kr","lat":35.455833,"lon":128.483889},{"id":1595933,"name":"agongni","country":"kr","lat":35.4875,"lon":127.572778},{"id":1637267,"name":"wittalchon","country":"kr","lat":35.285264,"lon":128.493721},{"id":1611653,"name":"kumbongni","country":"kr","lat":34.635556,"lon":127.728611},{"id":1629255,"name":"songdang","country":"kr","lat":35.36373,"lon":128.388239},{"id":1636558,"name":"usilli","country":"kr","lat":34.513889,"lon":127.767778},{"id":1628102,"name":"socholli","country":"kr","lat":35.336735,"lon":128.405694},{"id":1638611,"name":"yangjongdong","country":"kr","lat":35.366667,"lon":127.65},{"id":1602335,"name":"chwajinpo","country":"kr","lat":34.883333,"lon":128.383333},{"id":1616492,"name":"naepo","country":"kr","lat":34.901819,"lon":128.453687},{"id":1639042,"name":"yomhodong","country":"kr","lat":34.8,"lon":128.483333},{"id":1630204,"name":"sosok","country":"kr","lat":34.983333,"lon":127.566667},{"id":1614808,"name":"modan","country":"kr","lat":34.96745,"lon":128.366072},{"id":1611449,"name":"kujip","country":"kr","lat":34.916667,"lon":128.433333},{"id":1628062,"name":"sobuktong","country":"kr","lat":35.159936,"lon":128.426288},{"id":1639393,"name":"yonggang","country":"kr","lat":34.923889,"lon":127.889444},{"id":1624371,"name":"samjongni","country":"kr","lat":35.358333,"lon":127.640278},{"id":1596599,"name":"anyangdong","country":"kr","lat":34.687778,"lon":127.597778},{"id":1617090,"name":"nanpyongni","country":"kr","lat":35.490556,"lon":127.701944},{"id":1627672,"name":"sinni","country":"kr","lat":34.885623,"lon":128.436399},{"id":1632635,"name":"tangmalli","country":"kr","lat":35.48769,"lon":128.411935},{"id":1636114,"name":"unamni","country":"kr","lat":35.046667,"lon":127.847778},{"id":1612039,"name":"kunbalgae","country":"kr","lat":34.824699,"lon":128.438592},{"id":1632799,"name":"tanwolli","country":"kr","lat":35.465973,"lon":128.342267},{"id":1618686,"name":"okchi","country":"kr","lat":35.325978,"lon":128.433703},{"id":1605713,"name":"hongnyugol","country":"kr","lat":34.948622,"lon":128.360242},{"id":1633603,"name":"tokhungdong","country":"kr","lat":34.918611,"lon":127.504167},{"id":1603976,"name":"haepyong","country":"kr","lat":35.166667,"lon":127.55},{"id":1634643,"name":"tongsuri","country":"kr","lat":34.901389,"lon":128.188889},{"id":1615222,"name":"mosang","country":"kr","lat":34.826518,"lon":128.357075},{"id":1634886,"name":"tosolli","country":"kr","lat":34.908611,"lon":128.356667},{"id":1607175,"name":"impori","country":"kr","lat":34.75,"lon":127.866667},{"id":1600494,"name":"chongdong","country":"kr","lat":35.133611,"lon":128.019167},{"id":1627437,"name":"singori","country":"kr","lat":34.778806,"lon":128.478922},{"id":1638774,"name":"yegongni","country":"kr","lat":35.116876,"lon":128.454151},{"id":1632068,"name":"taesa","country":"kr","lat":35.146571,"lon":128.248876},{"id":1599329,"name":"chimsudong","country":"kr","lat":35.284444,"lon":128.121389},{"id":1617750,"name":"nosangchon","country":"kr","lat":34.783333,"lon":127.883333},{"id":1608268,"name":"kaiso","country":"kr","lat":34.942222,"lon":127.589722},{"id":1609013,"name":"kanmulli","country":"kr","lat":35.179167,"lon":127.544444},{"id":1632590,"name":"tanghungdong","country":"kr","lat":35.4,"lon":127.666667},{"id":1638707,"name":"yangsongri","country":"kr","lat":35.387222,"lon":128.224167},{"id":1618780,"name":"oksangol","country":"kr","lat":35.101032,"lon":128.369917},{"id":1640309,"name":"yulgok","country":"kr","lat":35.001667,"lon":127.623333},{"id":1633601,"name":"tokhori","country":"kr","lat":34.928056,"lon":128.123889},{"id":1610366,"name":"kolgol","country":"kr","lat":34.883333,"lon":127.716667},{"id":1600710,"name":"chongnam","country":"kr","lat":35.014708,"lon":128.405572},{"id":1604873,"name":"hansil","country":"kr","lat":34.840158,"lon":128.400669},{"id":1633434,"name":"tohyon","country":"kr","lat":35.346681,"lon":128.320042},{"id":1627260,"name":"sindae","country":"kr","lat":35.350486,"lon":128.403207},{"id":1633585,"name":"tokchonri","country":"kr","lat":35.433889,"lon":128.034722},{"id":1636387,"name":"unpyongni","country":"kr","lat":35.019722,"lon":127.615556},{"id":1601510,"name":"chukkong","country":"kr","lat":35.353056,"lon":128.167222},{"id":1612682,"name":"kuyongdong","country":"kr","lat":34.85,"lon":127.966667},{"id":1632539,"name":"tangeri","country":"kr","lat":35.374722,"lon":128.007222},{"id":1637662,"name":"wonchon","country":"kr","lat":34.758056,"lon":127.951111},{"id":1611396,"name":"kuhyon","country":"kr","lat":34.981357,"lon":128.367195},{"id":1605827,"name":"hudong","country":"kr","lat":35.094942,"lon":128.27081},{"id":1631343,"name":"taebang","country":"kr","lat":35.117577,"lon":128.360702},{"id":1628136,"name":"sodaeri","country":"kr","lat":34.874444,"lon":127.986111},{"id":1602316,"name":"chwachon","country":"kr","lat":35.202457,"lon":128.41869},{"id":1608010,"name":"kaegonno","country":"kr","lat":34.857327,"lon":128.394196},{"id":1628069,"name":"sobu","country":"kr","lat":34.90781,"lon":128.466256},{"id":1630111,"name":"soronpu","country":"kr","lat":34.993017,"lon":128.278729},{"id":1607048,"name":"iltaebu","country":"kr","lat":35.4,"lon":128.366667},{"id":1617526,"name":"nongae","country":"kr","lat":34.853209,"lon":128.409173},{"id":1618806,"name":"oksom","country":"kr","lat":34.616667,"lon":128.283333},{"id":1605979,"name":"hungnyongni","country":"kr","lat":35.108056,"lon":127.701389},{"id":1635336,"name":"tungdunggol","country":"kr","lat":35.215068,"lon":128.257013},{"id":1602102,"name":"chungpyongni","country":"kr","lat":34.971389,"lon":127.904167},{"id":1628989,"name":"somgo","country":"kr","lat":35.019444,"lon":127.718056},{"id":1625747,"name":"sanhak","country":"kr","lat":35.348254,"lon":128.301623},{"id":1639228,"name":"yongchodong","country":"kr","lat":34.733333,"lon":128.483333},{"id":1606459,"name":"hwarichi","country":"kr","lat":34.95,"lon":128.233333},{"id":1626699,"name":"shinsong","country":"kr","lat":34.913333,"lon":127.576944},{"id":1607122,"name":"imin","country":"kr","lat":34.980214,"lon":128.351694},{"id":1629323,"name":"songgok","country":"kr","lat":34.967343,"lon":128.398433},{"id":1633127,"name":"tochondong","country":"kr","lat":34.84035,"lon":128.41006},{"id":1635436,"name":"tunjonni","country":"kr","lat":34.8,"lon":127.866667},{"id":1625727,"name":"sangyori","country":"kr","lat":34.8225,"lon":127.558611},{"id":1611223,"name":"kua","country":"kr","lat":35.466667,"lon":127.8},{"id":1605997,"name":"hupo","country":"kr","lat":34.892459,"lon":128.488187},{"id":1617016,"name":"namyangni","country":"kr","lat":34.925833,"lon":127.915},{"id":1617838,"name":"nulgae","country":"kr","lat":34.9,"lon":128.283333},{"id":1609288,"name":"karyonggae","country":"kr","lat":34.939444,"lon":128.206389},{"id":1613097,"name":"kwanyu","country":"kr","lat":34.795013,"lon":128.386976},{"id":1633553,"name":"tokcholli","country":"kr","lat":34.998099,"lon":128.359921},{"id":1611872,"name":"kumjin","country":"kr","lat":35.018056,"lon":127.950556},{"id":1614585,"name":"migok","country":"kr","lat":35.348609,"lon":128.267322},{"id":1629046,"name":"sonamchon","country":"kr","lat":35.304007,"lon":128.259204},{"id":1598747,"name":"charaedom","country":"kr","lat":35.465314,"lon":128.484393},{"id":1635733,"name":"ugok","country":"kr","lat":35.191355,"lon":128.264774},{"id":1630899,"name":"sungbang","country":"kr","lat":34.910003,"lon":128.443791},{"id":1615091,"name":"monggo","country":"kr","lat":34.965792,"lon":128.377305},{"id":1636449,"name":"uphodong","country":"kr","lat":34.816667,"lon":128.216667},{"id":1627632,"name":"sinkyori","country":"kr","lat":35.0275,"lon":127.903056},{"id":1613916,"name":"majang","country":"kr","lat":35.001877,"lon":128.254452},{"id":1623381,"name":"sadori","country":"kr","lat":35.286014,"lon":128.325971},{"id":1638740,"name":"yasan","country":"kr","lat":35.43152,"lon":128.337193},{"id":1635913,"name":"ulmun","country":"kr","lat":35.150559,"lon":128.400366},{"id":1598124,"name":"changgok","country":"kr","lat":34.784422,"lon":128.491332},{"id":1628777,"name":"sokshiri","country":"kr","lat":34.933333,"lon":128.133333},{"id":1612233,"name":"kunjang","country":"kr","lat":34.8525,"lon":127.706389},{"id":1617499,"name":"nomo","country":"kr","lat":34.725,"lon":127.706667},{"id":1609031,"name":"kansaji","country":"kr","lat":35.020798,"lon":128.365746},{"id":1621508,"name":"pomwangni","country":"kr","lat":35.276111,"lon":127.617778},{"id":1636944,"name":"wasonpo","country":"kr","lat":34.829513,"lon":128.464908},{"id":1639744,"name":"yongsanni","country":"kr","lat":34.971515,"lon":128.356605},{"id":1632073,"name":"taesilli","country":"kr","lat":35.219756,"lon":128.328636},{"id":1606884,"name":"idong","country":"kr","lat":34.978021,"lon":128.258785},{"id":1618190,"name":"oebaemi","country":"kr","lat":34.99291,"lon":128.462405},{"id":1639402,"name":"yonggi","country":"kr","lat":34.766667,"lon":127.666667},{"id":1622662,"name":"puryunni","country":"kr","lat":34.85,"lon":128.016667},{"id":1634921,"name":"totkol","country":"kr","lat":35.000571,"lon":128.28937},{"id":1624749,"name":"sangchollak","country":"kr","lat":35.493779,"lon":128.301167},{"id":1615486,"name":"mulgonri","country":"kr","lat":34.791389,"lon":128.043056},{"id":1599427,"name":"chindongni","country":"kr","lat":34.8475,"lon":128.058333},{"id":1605111,"name":"hasim","country":"kr","lat":35.147379,"lon":128.308534},{"id":1627164,"name":"sinbongni","country":"kr","lat":34.611944,"lon":127.749167},{"id":1609091,"name":"kaoje","country":"kr","lat":34.904654,"lon":128.321463},{"id":1604477,"name":"haman","country":"kr","lat":35.241044,"lon":128.422947},{"id":1597895,"name":"changaji","country":"kr","lat":35.422336,"lon":128.423504},{"id":1619338,"name":"osil","country":"kr","lat":34.885392,"lon":127.874848},{"id":1636927,"name":"waryongdong","country":"kr","lat":34.966667,"lon":128.1},{"id":1614591,"name":"migu","country":"kr","lat":35.469525,"lon":128.446642},{"id":1600188,"name":"cholkol","country":"kr","lat":34.966667,"lon":128.2},{"id":1627099,"name":"sinai","country":"kr","lat":34.716667,"lon":127.583333},{"id":1618344,"name":"oejin","country":"kr","lat":34.866667,"lon":127.6},{"id":1634468,"name":"tongnae","country":"kr","lat":34.890319,"lon":128.368158},{"id":1615844,"name":"muson","country":"kr","lat":34.766667,"lon":127.65},{"id":1632249,"name":"tahyolli","country":"kr","lat":35.463779,"lon":128.2513},{"id":1600917,"name":"chongwon","country":"kr","lat":35.229619,"lon":128.281157},{"id":1637718,"name":"wondang","country":"kr","lat":35.173086,"lon":128.262941},{"id":1624213,"name":"samdong","country":"kr","lat":35.466785,"lon":128.289445},{"id":1608557,"name":"kalmangae","country":"kr","lat":34.946803,"lon":128.312156},{"id":1602012,"name":"chungmu","country":"kr","lat":34.849572,"lon":128.427787},{"id":1619960,"name":"pakchilli","country":"kr","lat":35.4404,"lon":128.370987},{"id":1627079,"name":"simsil","country":"kr","lat":35.315336,"lon":128.353246},{"id":1629743,"name":"songpyong","country":"kr","lat":35.054722,"lon":127.886111},{"id":1625259,"name":"sangjungni","country":"kr","lat":34.853889,"lon":128.007778},{"id":1619627,"name":"paegyok","country":"kr","lat":35.474444,"lon":128.122778},{"id":1609561,"name":"kidong","country":"kr","lat":35.342114,"lon":128.405592},{"id":1608608,"name":"kaltaebakkol","country":"kr","lat":35.146571,"lon":128.407534},{"id":1624881,"name":"sangdongchon","country":"kr","lat":35.333488,"lon":128.414776},{"id":1614686,"name":"minyang","country":"kr","lat":34.844383,"lon":128.382215},{"id":1616281,"name":"naedong","country":"kr","lat":34.924766,"lon":128.406831},{"id":1598148,"name":"changgori","country":"kr","lat":35.208056,"lon":127.769167},{"id":1612374,"name":"kupo","country":"kr","lat":35.003056,"lon":128.008333},{"id":1627745,"name":"sinpyong","country":"kr","lat":34.931666,"lon":128.353235},{"id":1597632,"name":"chagungae","country":"kr","lat":34.878402,"lon":128.38842},{"id":1622909,"name":"pyonggu","country":"kr","lat":35.441111,"lon":128.151111},{"id":1601398,"name":"chugye","country":"kr","lat":35.016667,"lon":128.233333},{"id":1640356,"name":"yultae","country":"kr","lat":34.966647,"lon":128.338793},{"id":1629120,"name":"sondol","country":"kr","lat":35.285278,"lon":127.908611},{"id":1597921,"name":"changan","country":"kr","lat":35.203589,"lon":128.346959},{"id":1599570,"name":"chinnam","country":"kr","lat":34.826389,"lon":127.728611},{"id":1598589,"name":"changsonggori","country":"kr","lat":34.988056,"lon":128.236111},{"id":1604977,"name":"hapodong","country":"kr","lat":34.76185,"lon":128.475981},{"id":1613493,"name":"maam","country":"kr","lat":35.054577,"lon":128.337043},{"id":1639275,"name":"yongdae","country":"kr","lat":35.1,"lon":128.216667},{"id":1606837,"name":"ibam","country":"kr","lat":34.9,"lon":128.166667},{"id":1620435,"name":"panggok","country":"kr","lat":35.419722,"lon":127.776389},{"id":1617514,"name":"nonarae","country":"kr","lat":34.926103,"lon":128.29199},{"id":1634867,"name":"tosari","country":"kr","lat":35.085278,"lon":127.705833},{"id":1620557,"name":"pangok","country":"kr","lat":35.426192,"lon":128.316135},{"id":1621130,"name":"podae","country":"kr","lat":35.03426,"lon":128.337959},{"id":1625165,"name":"sangi","country":"kr","lat":35.152778,"lon":128.053889},{"id":1637768,"name":"wondong","country":"kr","lat":34.93295,"lon":128.360402},{"id":1635475,"name":"tupo","country":"kr","lat":34.528056,"lon":127.735},{"id":1624580,"name":"sanchiri","country":"kr","lat":35.133333,"lon":127.5},{"id":1623376,"name":"sadong","country":"kr","lat":34.7,"lon":128.2},{"id":1623949,"name":"sahyon","country":"kr","lat":35.474802,"lon":128.265191},{"id":1635160,"name":"tuksong","country":"kr","lat":35.247026,"lon":128.416857},{"id":1609993,"name":"kochon","country":"kr","lat":35.383333,"lon":127.5},{"id":1599335,"name":"chimyong","country":"kr","lat":35.073817,"lon":128.366414},{"id":1598025,"name":"changdae","country":"kr","lat":34.990056,"lon":128.351908},{"id":1605262,"name":"hayangji","country":"kr","lat":34.88343,"lon":128.34028},{"id":1620462,"name":"panghakol","country":"kr","lat":35.191944,"lon":128.037222},{"id":1632656,"name":"tangmongni","country":"kr","lat":35.048757,"lon":128.381881},{"id":1621419,"name":"pombau","country":"kr","lat":34.93878,"lon":128.416619},{"id":1600221,"name":"choltuk","country":"kr","lat":34.812985,"lon":128.386815},{"id":1616500,"name":"naepyongni","country":"kr","lat":34.850588,"lon":128.482827},{"id":1630276,"name":"soum","country":"kr","lat":35.134444,"lon":128.157222},{"id":1620988,"name":"pinarigol","country":"kr","lat":34.863104,"lon":128.441694},{"id":1612853,"name":"kwanggye","country":"kr","lat":35.468634,"lon":128.492574},{"id":1632460,"name":"tamni","country":"kr","lat":35.188333,"lon":127.626111},{"id":1630814,"name":"sulsangni","country":"kr","lat":34.988056,"lon":127.908611},{"id":1623892,"name":"sagori","country":"kr","lat":35.442429,"lon":128.348102},{"id":1598694,"name":"changyu","country":"kr","lat":35.477339,"lon":128.248903},{"id":1610353,"name":"kolburak","country":"kr","lat":34.864816,"lon":128.478869},{"id":1625343,"name":"sangnae","country":"kr","lat":34.851111,"lon":127.540278},{"id":1631078,"name":"suryok","country":"kr","lat":34.846041,"lon":128.481971},{"id":1616122,"name":"myoraedung","country":"kr","lat":34.922958,"lon":128.122558},{"id":1634164,"name":"tongdae","country":"kr","lat":35.100556,"lon":128.417778},{"id":1609005,"name":"kankoku","country":"kr","lat":35.033333,"lon":127.816667},{"id":1631397,"name":"taebu","country":"kr","lat":35.403612,"lon":128.360991},{"id":1624156,"name":"sambongni","country":"kr","lat":34.950833,"lon":128.252778},{"id":1616853,"name":"namji","country":"kr","lat":35.388889,"lon":128.478889},{"id":1630182,"name":"sosa","country":"kr","lat":35.3317,"lon":128.473654},{"id":1631187,"name":"suwolri","country":"kr","lat":34.888262,"lon":128.328452},{"id":1636657,"name":"utori","country":"kr","lat":34.717778,"lon":127.777778},{"id":1614744,"name":"miryong","country":"kr","lat":34.983333,"lon":128.05},{"id":1628029,"name":"soa","country":"kr","lat":35.169798,"lon":128.306001},{"id":1628513,"name":"soje","country":"kr","lat":34.733333,"lon":127.65},{"id":1632159,"name":"taeulpo","country":"kr","lat":34.608889,"lon":127.786111},{"id":1601284,"name":"choyang","country":"kr","lat":34.833333,"lon":127.933333},{"id":1627258,"name":"sindae","country":"kr","lat":34.816667,"lon":127.7},{"id":1628495,"name":"sojangdong","country":"kr","lat":34.683333,"lon":127.616667},{"id":1612067,"name":"kundokkol","country":"kr","lat":35.241691,"lon":128.346259},{"id":1623001,"name":"pyongni","country":"kr","lat":34.816667,"lon":127.9},{"id":1615605,"name":"mungok","country":"kr","lat":35.381794,"lon":128.323188},{"id":1625000,"name":"sanggok","country":"kr","lat":35.013522,"lon":128.304686},{"id":1634495,"name":"tongni","country":"kr","lat":34.916667,"lon":128.083333},{"id":1603977,"name":"haepyong","country":"kr","lat":34.824722,"lon":128.420278},{"id":1604170,"name":"hagyo","country":"kr","lat":35.325318,"lon":128.295433},{"id":1626379,"name":"senso","country":"kr","lat":34.976389,"lon":127.975556},{"id":1598087,"name":"changgari","country":"kr","lat":35.479369,"lon":128.470389},{"id":1633079,"name":"toballi","country":"kr","lat":34.633333,"lon":127.55},{"id":1623573,"name":"saemaul","country":"kr","lat":34.926798,"lon":128.277923},{"id":1620321,"name":"pandungni","country":"kr","lat":35.15,"lon":128.45},{"id":1622103,"name":"puchigol","country":"kr","lat":34.981177,"lon":128.26991},{"id":1619478,"name":"oyongum","country":"kr","lat":34.824539,"lon":128.248119},{"id":1610358,"name":"kolgae","country":"kr","lat":34.633611,"lon":128.259167},{"id":1637016,"name":"wikkaktan","country":"kr","lat":35.195936,"lon":128.424564},{"id":1635278,"name":"tunbyongni","country":"kr","lat":34.616667,"lon":127.533333},{"id":1601804,"name":"chungdu","country":"kr","lat":35.398995,"lon":128.404121},{"id":1633789,"name":"toksin","country":"kr","lat":34.930273,"lon":127.878967},{"id":1599121,"name":"chijok","country":"kr","lat":34.836944,"lon":127.991944},{"id":1616909,"name":"nampoburak","country":"kr","lat":34.96392,"lon":128.320446},{"id":1608707,"name":"kamdong","country":"kr","lat":35.010127,"lon":128.393393},{"id":1608687,"name":"kamchi","country":"kr","lat":34.983333,"lon":128.25},{"id":1609123,"name":"kapsa","country":"kr","lat":35.103611,"lon":128.005},{"id":1625795,"name":"sanji","country":"kr","lat":35.471808,"lon":128.468511},{"id":1600541,"name":"chonggol","country":"kr","lat":35.221589,"lon":128.441702},{"id":1627143,"name":"sinballi","country":"kr","lat":35.466944,"lon":128.322778},{"id":1632691,"name":"tangpo","country":"kr","lat":35.40554,"lon":128.468663},{"id":1635707,"name":"udupo","country":"kr","lat":34.998901,"lon":128.474761},{"id":1640035,"name":"yonup","country":"kr","lat":35.498397,"lon":128.403613},{"id":1598673,"name":"changwol","country":"kr","lat":34.818438,"lon":128.37079},{"id":1617418,"name":"noksan","country":"kr","lat":34.834695,"lon":128.497233},{"id":1601891,"name":"chunggwon","country":"kr","lat":35.497382,"lon":128.280972},{"id":1624946,"name":"sanggaemisil","country":"kr","lat":34.816667,"lon":127.583333},{"id":1621300,"name":"poksalli","country":"kr","lat":34.778333,"lon":127.598889},{"id":1635740,"name":"ugori","country":"kr","lat":35.306059,"lon":128.356789},{"id":1596386,"name":"anmaul","country":"kr","lat":35.269511,"lon":128.311274},{"id":1637622,"name":"wonbungni","country":"kr","lat":35.235493,"lon":128.324864},{"id":1600312,"name":"chomttam","country":"kr","lat":35.105128,"lon":128.340816},{"id":1601102,"name":"chop","country":"kr","lat":34.733333,"lon":127.75},{"id":1622118,"name":"puchon","country":"kr","lat":35.365556,"lon":128.464604},{"id":1619802,"name":"paemmok","country":"kr","lat":34.916667,"lon":128.266667},{"id":1625993,"name":"sanyugol","country":"kr","lat":34.7953,"lon":128.403523},{"id":1634997,"name":"ttaksom","country":"kr","lat":34.942524,"lon":128.433949},{"id":1606067,"name":"hwacholli","country":"kr","lat":35.474722,"lon":127.790278},{"id":1605953,"name":"hungdongni","country":"kr","lat":34.769444,"lon":127.891667},{"id":1616911,"name":"nampodong","country":"kr","lat":35.116667,"lon":127.9},{"id":1624646,"name":"sangamdong","country":"kr","lat":34.825556,"lon":127.735556},{"id":1629611,"name":"songmun","country":"kr","lat":35.233333,"lon":127.65},{"id":1612385,"name":"kupyong","country":"kr","lat":35.006944,"lon":127.975556},{"id":1614439,"name":"masanjong","country":"kr","lat":35.396153,"lon":128.470135},{"id":1621077,"name":"pitori","country":"kr","lat":34.966667,"lon":127.966667},{"id":1640351,"name":"yulsalli","country":"kr","lat":35.473787,"lon":128.386057},{"id":1630940,"name":"sungmagol","country":"kr","lat":35.06417,"lon":128.361726},{"id":1620311,"name":"pandok","country":"kr","lat":35.193242,"lon":128.347175},{"id":1608254,"name":"kailli","country":"kr","lat":34.875278,"lon":128.040556},{"id":1631341,"name":"taebangni","country":"kr","lat":34.892887,"lon":128.444807},{"id":1611922,"name":"kumori","country":"kr","lat":34.933333,"lon":127.733333},{"id":1596657,"name":"apkongni","country":"kr","lat":35.432078,"lon":128.26443},{"id":1607158,"name":"imok","country":"kr","lat":35.134445,"lon":128.461911},{"id":1636931,"name":"waryongni","country":"kr","lat":34.95,"lon":128.15},{"id":1629585,"name":"songmari","country":"kr","lat":35.061152,"lon":128.307133},{"id":1600875,"name":"chongsori","country":"kr","lat":35.163333,"lon":127.707778},{"id":1623817,"name":"sagadong","country":"kr","lat":35.15,"lon":128.283333},{"id":1613301,"name":"kyeyangni","country":"kr","lat":34.983333,"lon":128.133333},{"id":1609296,"name":"karyori","country":"kr","lat":34.994335,"lon":128.355813},{"id":1624251,"name":"samgongni","country":"kr","lat":35.166667,"lon":128.166667},{"id":1631365,"name":"taebok","country":"kr","lat":34.613333,"lon":127.748889},{"id":1602210,"name":"chungyang","country":"kr","lat":34.95,"lon":127.666667},{"id":1608951,"name":"kangoeri","country":"kr","lat":35.218333,"lon":128.435556},{"id":1611202,"name":"koyo","country":"kr","lat":34.975278,"lon":127.589167},{"id":1619343,"name":"osinjungttam","country":"kr","lat":35.066379,"lon":128.422354},{"id":1601668,"name":"chungangdong","country":"kr","lat":34.8449,"lon":128.42356},{"id":1623777,"name":"saettam","country":"kr","lat":35.152769,"lon":128.475546},{"id":1638462,"name":"yanggi","country":"kr","lat":35.124367,"lon":128.258253},{"id":1632540,"name":"tange","country":"kr","lat":34.75,"lon":127.6},{"id":1599526,"name":"chinjong","country":"kr","lat":34.984444,"lon":127.823056},{"id":1628487,"name":"sojae","country":"kr","lat":34.75,"lon":127.7},{"id":1618101,"name":"ochondong","country":"kr","lat":34.795278,"lon":127.755278},{"id":1606127,"name":"hwagwang","country":"kr","lat":35.206944,"lon":128.307222},{"id":1606544,"name":"hwatae","country":"kr","lat":34.583333,"lon":127.733333},{"id":1635011,"name":"ttasinmol","country":"kr","lat":34.833311,"lon":128.354454},{"id":1607026,"name":"ilpyong","country":"kr","lat":35.033333,"lon":127.85},{"id":1610427,"name":"komang","country":"kr","lat":34.909308,"lon":128.475991},{"id":1608780,"name":"kamti","country":"kr","lat":34.982728,"lon":128.250227},{"id":1639803,"name":"yongso","country":"kr","lat":34.774722,"lon":127.933611},{"id":1606619,"name":"hyangjongni","country":"kr","lat":35.423333,"lon":127.521389},{"id":1599381,"name":"chinbungni","country":"kr","lat":34.816667,"lon":127.733333},{"id":1606908,"name":"igyo","country":"kr","lat":35.424722,"lon":127.991389},{"id":1616966,"name":"namsonggol","country":"kr","lat":35.259722,"lon":128.050556},{"id":1621283,"name":"pokkol","country":"kr","lat":34.983333,"lon":128.316667},{"id":1625091,"name":"sanggyo","country":"kr","lat":35.326942,"lon":128.293961},{"id":1617273,"name":"nodaedong","country":"kr","lat":34.975556,"lon":128.050556},{"id":1616065,"name":"myongsangni","country":"kr","lat":35.337778,"lon":127.838611},{"id":1597844,"name":"champo","country":"kr","lat":34.880169,"lon":128.358181},{"id":1630618,"name":"sugodong","country":"kr","lat":35.133333,"lon":128.016667},{"id":1626545,"name":"sepungni","country":"kr","lat":34.95,"lon":127.583333},{"id":1599975,"name":"chogyeri","country":"kr","lat":35.1925,"lon":127.901667},{"id":1614290,"name":"manpyong","country":"kr","lat":34.776944,"lon":127.743056},{"id":1639994,"name":"yonpo","country":"kr","lat":35.435326,"lon":128.485307},{"id":1628490,"name":"sojagol","country":"kr","lat":35.296074,"lon":128.31142},{"id":1634074,"name":"tongam","country":"kr","lat":34.868611,"lon":128.453611},{"id":1622120,"name":"puchulli","country":"kr","lat":35.174722,"lon":127.656944},{"id":1626568,"name":"settam","country":"kr","lat":35.213882,"lon":128.439977},{"id":1635442,"name":"tunjon","country":"kr","lat":34.807048,"lon":128.386387},{"id":1604680,"name":"hangcholli","country":"kr","lat":34.725556,"lon":127.858889},{"id":1624133,"name":"sambakkol","country":"kr","lat":34.951403,"lon":128.26316},{"id":1621065,"name":"pisong","country":"kr","lat":35.307762,"lon":128.255449},{"id":1612287,"name":"kunnaeri","country":"kr","lat":34.616389,"lon":127.723056},{"id":1612801,"name":"kwangbau","country":"kr","lat":34.808611,"lon":127.539167},{"id":1603769,"name":"hadam","country":"kr","lat":35.437101,"lon":128.388848},{"id":1623921,"name":"sagye","country":"kr","lat":34.937443,"lon":128.371795},{"id":1634863,"name":"tosan","country":"kr","lat":34.870556,"lon":127.841389},{"id":1607658,"name":"jifuho","country":"kr","lat":34.633333,"lon":128.266667},{"id":1629604,"name":"songmundong","country":"kr","lat":34.516667,"lon":127.75},{"id":1639561,"name":"yongjiri","country":"kr","lat":34.806389,"lon":127.983889},{"id":1615035,"name":"moksok","country":"kr","lat":34.983333,"lon":127.516667},{"id":1597698,"name":"chahaeri","country":"kr","lat":34.9925,"lon":128.006389},{"id":1625833,"name":"sanjuri","country":"kr","lat":34.722222,"lon":127.988889},{"id":1623227,"name":"ryushi","country":"kr","lat":34.944444,"lon":127.755556},{"id":1624399,"name":"samma","country":"kr","lat":34.965971,"lon":128.428579},{"id":1600396,"name":"chonduri","country":"kr","lat":34.910698,"lon":128.4079},{"id":1636737,"name":"wadung","country":"kr","lat":34.583333,"lon":127.5},{"id":1631599,"name":"taegongni","country":"kr","lat":35.058611,"lon":128.126667},{"id":1606285,"name":"hwanggumdong","country":"kr","lat":34.911389,"lon":127.630278},{"id":1604325,"name":"hakdong","country":"kr","lat":35.150343,"lon":128.439007},{"id":1629537,"name":"songjong","country":"kr","lat":35.140556,"lon":128.219722},{"id":1619377,"name":"oso","country":"kr","lat":35.480993,"lon":128.35957},{"id":1610696,"name":"kongjong","country":"kr","lat":34.633333,"lon":127.583333},{"id":1616384,"name":"naeilli","country":"kr","lat":35.309444,"lon":128.085556},{"id":1613701,"name":"maejon","country":"kr","lat":35.417211,"lon":128.459733},{"id":1600081,"name":"chokchon","country":"kr","lat":34.895615,"lon":128.457966},{"id":1625948,"name":"santaehang","country":"kr","lat":35.323746,"lon":128.374488},{"id":1614260,"name":"manjom","country":"kr","lat":35.083889,"lon":127.907222},{"id":1616634,"name":"nagan","country":"kr","lat":35.104722,"lon":128.236667},{"id":1601942,"name":"chunghyonni","country":"kr","lat":34.870556,"lon":127.842222},{"id":1608853,"name":"kangchon","country":"kr","lat":34.993017,"lon":128.40667},{"id":1606340,"name":"hwangmusil","country":"kr","lat":35.077643,"lon":128.491067},{"id":1624194,"name":"samdangni","country":"kr","lat":35.257222,"lon":127.785556},{"id":1605781,"name":"hosil","country":"kr","lat":35.22175,"lon":128.269516},{"id":1616238,"name":"naechon","country":"kr","lat":34.964508,"lon":128.432024},{"id":1603982,"name":"haeran","country":"kr","lat":34.830637,"lon":128.343971},{"id":1614292,"name":"mansang","country":"kr","lat":35.300049,"lon":128.273157},{"id":1632837,"name":"tapha","country":"kr","lat":34.781641,"lon":128.432762},{"id":1621712,"name":"ponghwari","country":"kr","lat":34.771389,"lon":128.016944},{"id":1606237,"name":"hwangburam","country":"kr","lat":34.97631,"lon":128.275901},{"id":1632013,"name":"taeryupo","country":"kr","lat":34.533333,"lon":127.766667},{"id":1622973,"name":"pyongjongni","country":"kr","lat":35.405278,"lon":127.901944},{"id":1608982,"name":"kangumi","country":"kr","lat":34.833333,"lon":127.766667},{"id":1639306,"name":"yongdang","country":"kr","lat":35.083248,"lon":128.329768},{"id":1637959,"name":"wonjolli","country":"kr","lat":35.106944,"lon":127.940556},{"id":1631913,"name":"taeoegok","country":"kr","lat":35.028504,"lon":128.352057},{"id":1618287,"name":"oegogae","country":"kr","lat":35.375556,"lon":127.786111},{"id":1627252,"name":"sindaeri","country":"kr","lat":35.141111,"lon":127.705278},{"id":1638040,"name":"wonnae","country":"kr","lat":35.17,"lon":127.952222},{"id":1629013,"name":"somogok","country":"kr","lat":35.205475,"lon":128.456522},{"id":1617310,"name":"noduri","country":"kr","lat":35.218517,"lon":128.426612},{"id":1637261,"name":"wittaenae","country":"kr","lat":35.216667,"lon":127.516667},{"id":1613820,"name":"maeyo","country":"kr","lat":35.466667,"lon":127.533333},{"id":1636958,"name":"wayanggok","country":"kr","lat":35.459225,"lon":128.44857},{"id":1604044,"name":"hagang","country":"kr","lat":35.459428,"lon":128.475818},{"id":1605509,"name":"hoeryong","country":"kr","lat":34.848056,"lon":127.82},{"id":1637561,"name":"wolsong","country":"kr","lat":35.246864,"lon":128.381881},{"id":1639111,"name":"yonchon","country":"kr","lat":35.109439,"lon":128.24893},{"id":1625223,"name":"sangjogye","country":"kr","lat":35.191667,"lon":127.901111},{"id":1608237,"name":"kahyolli","country":"kr","lat":35.350486,"lon":128.353024},{"id":1607996,"name":"kaedori","country":"kr","lat":34.57,"lon":127.663889},{"id":1631174,"name":"sutulbaengi","country":"kr","lat":35.300097,"lon":128.31806},{"id":1632362,"name":"talgung","country":"kr","lat":35.35,"lon":127.55},{"id":1598544,"name":"changsanni","country":"kr","lat":35.059643,"lon":128.324864},{"id":1604515,"name":"hamgumi","country":"kr","lat":34.537222,"lon":127.712222},{"id":1636262,"name":"ungyeri","country":"kr","lat":35.4375,"lon":128.2525},{"id":1638499,"name":"yanghwapo","country":"kr","lat":34.816667,"lon":128.383333},{"id":1629780,"name":"songsanni","country":"kr","lat":35.087778,"lon":128.051944},{"id":1623886,"name":"sagongni","country":"kr","lat":34.775278,"lon":127.564167},{"id":1597054,"name":"asa","country":"kr","lat":34.863456,"lon":128.47687},{"id":1603686,"name":"habuunni","country":"kr","lat":35.383333,"lon":127.583333},{"id":1606516,"name":"hwasimni","country":"kr","lat":35.086944,"lon":127.725556},{"id":1639931,"name":"yonhwari","country":"kr","lat":34.6425,"lon":128.352778},{"id":1605355,"name":"hoam","country":"kr","lat":34.86963,"lon":128.432066},{"id":1638246,"name":"worhari","country":"kr","lat":35.45273,"lon":128.38768},{"id":1611101,"name":"kosong","country":"kr","lat":34.97631,"lon":128.323613},{"id":1621024,"name":"pirori","country":"kr","lat":35.092409,"lon":128.269031},{"id":1613014,"name":"kwanil","country":"kr","lat":34.907945,"lon":128.392955},{"id":1622903,"name":"pyonggo","country":"kr","lat":35.167778,"lon":128.039722},{"id":1607299,"name":"inpungni","country":"kr","lat":35.478889,"lon":127.596944},{"id":1634161,"name":"tongdaeri","country":"kr","lat":34.884167,"lon":128.007778},{"id":1605882,"name":"hujungchon","country":"kr","lat":34.947017,"lon":128.4079},{"id":1616476,"name":"naengjong","country":"kr","lat":35.038611,"lon":127.788611},{"id":1626841,"name":"sigum","country":"kr","lat":35.116667,"lon":127.85},{"id":1633543,"name":"tokchi","country":"kr","lat":34.902729,"lon":128.3803},{"id":1632725,"name":"tangsonggok","country":"kr","lat":35.374639,"lon":128.396053},{"id":1599353,"name":"chinan","country":"kr","lat":35.186774,"lon":128.354774},{"id":1637520,"name":"wolpyong","country":"kr","lat":35.459935,"lon":128.400975},{"id":1635113,"name":"tugongni","country":"kr","lat":35.40006,"lon":128.407114},{"id":1626374,"name":"senshori","country":"kr","lat":34.978058,"lon":127.760355},{"id":1615206,"name":"morye","country":"kr","lat":34.916667,"lon":128.1},{"id":1638921,"name":"yochondong","country":"kr","lat":34.549444,"lon":127.755833},{"id":1636774,"name":"wagol","country":"kr","lat":34.75,"lon":127.733333},{"id":1598326,"name":"changjidong","country":"kr","lat":34.916667,"lon":128.3},{"id":1631180,"name":"suwaechon","country":"kr","lat":34.955278,"lon":128.407778},{"id":1601928,"name":"chunghwari","country":"kr","lat":34.789985,"lon":128.391041},{"id":1598277,"name":"changjaeri","country":"kr","lat":35.216667,"lon":128.1},{"id":1613708,"name":"maekchonpo","country":"kr","lat":34.904167,"lon":128.165278},{"id":1619443,"name":"oun","country":"kr","lat":35.471808,"lon":128.374792},{"id":1613403,"name":"kyongpori","country":"kr","lat":34.717778,"lon":127.725278},{"id":1638498,"name":"yanghwadong","country":"kr","lat":35.016667,"lon":128.283333},{"id":1635785,"name":"uihang","country":"kr","lat":34.786455,"lon":128.468867},{"id":1616679,"name":"nakchong","country":"kr","lat":35.01875,"lon":128.358686},{"id":1638724,"name":"yangwol","country":"kr","lat":35.126361,"lon":128.265043},{"id":1631501,"name":"taedok","country":"kr","lat":35.116667,"lon":127.816667},{"id":1624634,"name":"sandu","country":"kr","lat":35.483889,"lon":128.055278},{"id":1634571,"name":"tongsam","country":"kr","lat":35.121996,"lon":128.452588},{"id":1600778,"name":"chongnyongni","country":"kr","lat":35.182778,"lon":127.880556},{"id":1628681,"name":"sokkyedong","country":"kr","lat":35.083333,"lon":128.183333},{"id":1638583,"name":"yangjiri","country":"kr","lat":34.808056,"lon":128.236389},{"id":1599276,"name":"chilsondong","country":"kr","lat":35.366667,"lon":127.7},{"id":1623450,"name":"saedong","country":"kr","lat":35.024408,"lon":128.32371},{"id":1629141,"name":"sondu","country":"kr","lat":35.101032,"lon":128.467893},{"id":1640077,"name":"yosodong","country":"kr","lat":34.75,"lon":127.699722},{"id":1597063,"name":"asanni","country":"kr","lat":34.833333,"lon":127.883333},{"id":1640447,"name":"yusongni","country":"kr","lat":34.548333,"lon":127.731389},{"id":1597524,"name":"chaekkok","country":"kr","lat":34.937871,"lon":128.424},{"id":1596140,"name":"ando","country":"kr","lat":35.033889,"lon":128.02},{"id":1622782,"name":"pyolcholli","country":"kr","lat":35.172222,"lon":128.436111},{"id":1629792,"name":"songsan","country":"kr","lat":35.419445,"lon":128.285628},{"id":1634112,"name":"tongbu","country":"kr","lat":34.915245,"lon":128.471177},{"id":1638960,"name":"yohungni","country":"kr","lat":34.878056,"lon":127.578889},{"id":1639165,"name":"yongamni","country":"kr","lat":35.318611,"lon":128.1575},{"id":1606173,"name":"hwajong","country":"kr","lat":34.966667,"lon":127.516667},{"id":1629463,"name":"songjae","country":"kr","lat":34.786667,"lon":127.636389},{"id":1595921,"name":"aeyangwon","country":"kr","lat":34.843333,"lon":127.635},{"id":1610273,"name":"kojongni","country":"kr","lat":34.5,"lon":127.883333},{"id":1611649,"name":"kumbongcholli","country":"kr","lat":35.07317,"lon":128.398804},{"id":1625485,"name":"sangpyongsodong","country":"kr","lat":35.166667,"lon":128.133333},{"id":1633988,"name":"tomanggae","country":"kr","lat":35.01875,"lon":128.392207},{"id":1600476,"name":"chongdamni","country":"kr","lat":35.246541,"lon":128.261325},{"id":1605422,"name":"hoedong","country":"kr","lat":35.097044,"lon":128.406295},{"id":1627234,"name":"sinchon","country":"kr","lat":34.881879,"lon":128.478922},{"id":1601524,"name":"chukori","country":"kr","lat":35.033333,"lon":128.016667},{"id":1600820,"name":"chongsadong","country":"kr","lat":34.641389,"lon":128.250278},{"id":1627304,"name":"sindokchon","country":"kr","lat":35.140373,"lon":128.370456},{"id":1619729,"name":"paeksalli","country":"kr","lat":35.356022,"lon":128.329091},{"id":1598812,"name":"chaunni","country":"kr","lat":34.966667,"lon":128.233333},{"id":1633631,"name":"tokki","country":"kr","lat":35.126254,"lon":128.487887},{"id":1607134,"name":"imjungni","country":"kr","lat":34.962154,"lon":128.428065},{"id":1602275,"name":"chusalli","country":"kr","lat":35.045833,"lon":127.601389},{"id":1622993,"name":"pyongnimni","country":"kr","lat":35.334046,"lon":128.453187},{"id":1604734,"name":"hangnimni","country":"kr","lat":34.943333,"lon":128.191944},{"id":1634914,"name":"totan","country":"kr","lat":35.468611,"lon":128.036389},{"id":1620330,"name":"pangagol","country":"kr","lat":35.036739,"lon":128.397025},{"id":1631190,"name":"suwol","country":"kr","lat":34.823897,"lon":128.342901},{"id":1628670,"name":"sokkongni","country":"kr","lat":35.391722,"lon":128.328354},{"id":1614959,"name":"mokhyolli","country":"kr","lat":35.482778,"lon":127.749722},{"id":1622690,"name":"pusuam","country":"kr","lat":34.999791,"lon":128.313343},{"id":1600548,"name":"chonggongni","country":"kr","lat":35.060559,"lon":128.425318},{"id":1618428,"name":"oeryu","country":"kr","lat":35.275556,"lon":127.990556},{"id":1635331,"name":"tungdae","country":"kr","lat":35.432383,"lon":128.312786},{"id":1630171,"name":"sosanni","country":"kr","lat":34.633333,"lon":128.233333},{"id":1626612,"name":"shimchon","country":"kr","lat":35.107222,"lon":127.888333},{"id":1604901,"name":"hantigol","country":"kr","lat":35.186559,"lon":128.462935},{"id":1636250,"name":"ungpo","country":"kr","lat":34.816569,"lon":128.356594},{"id":1614047,"name":"mallim","country":"kr","lat":34.965631,"lon":128.313921},{"id":1609826,"name":"kkachigol","country":"kr","lat":35.102595,"lon":128.327127},{"id":1611046,"name":"kosanni","country":"kr","lat":35.012498,"lon":128.365962},{"id":1601601,"name":"chumakchon","country":"kr","lat":34.89463,"lon":128.407049},{"id":1612736,"name":"kwanam","country":"kr","lat":34.812878,"lon":128.468064},{"id":1611637,"name":"kumballi","country":"kr","lat":35.469444,"lon":127.7225},{"id":1630012,"name":"soppat","country":"kr","lat":35.223056,"lon":127.934444},{"id":1630509,"name":"suban","country":"kr","lat":35.246379,"lon":128.459702},{"id":1605218,"name":"hauigok","country":"kr","lat":34.8,"lon":127.6},{"id":1600925,"name":"chongyangdong","country":"kr","lat":34.84596,"lon":128.4371},{"id":1610184,"name":"kohyon","country":"kr","lat":35.100062,"lon":128.476031},{"id":1621609,"name":"pongdangni","country":"kr","lat":35.012222,"lon":127.580833},{"id":1632139,"name":"taesup","country":"kr","lat":35.481399,"lon":128.405897},{"id":1598004,"name":"changchondong","country":"kr","lat":35.416667,"lon":127.683333},{"id":1622698,"name":"pusugol","country":"kr","lat":35.320556,"lon":128.120278},{"id":1628607,"name":"sokchon","country":"kr","lat":35.081254,"lon":128.407103},{"id":1624134,"name":"sambal","country":"kr","lat":35.308095,"lon":128.44462},{"id":1609441,"name":"kaya","country":"kr","lat":35.278042,"lon":128.409187},{"id":1622220,"name":"pujae","country":"kr","lat":35.153307,"lon":128.416857},{"id":1605802,"name":"hoyo","country":"kr","lat":34.716667,"lon":127.7},{"id":1636146,"name":"unchon","country":"kr","lat":35.165972,"lon":128.265043},{"id":1634382,"name":"tongjon","country":"kr","lat":34.983333,"lon":127.633333},{"id":1600445,"name":"chongcholli","country":"kr","lat":34.978575,"lon":128.376021},{"id":1628364,"name":"sogun","country":"kr","lat":34.95,"lon":127.783333},{"id":1622422,"name":"pultang","country":"kr","lat":35.244167,"lon":127.531944},{"id":1629678,"name":"songnimni","country":"kr","lat":35.116944,"lon":127.951111},{"id":1631888,"name":"taenae","country":"kr","lat":35.054415,"lon":128.449354},{"id":1619573,"name":"paegisan","country":"kr","lat":35.241098,"lon":128.342917},{"id":1612237,"name":"kunjin","country":"kr","lat":35.038032,"lon":128.413678},{"id":1607152,"name":"imoeri","country":"kr","lat":34.958785,"lon":128.413142},{"id":1634037,"name":"tonamdong","country":"kr","lat":34.82562,"lon":128.426992},{"id":1612048,"name":"kunbuk","country":"kr","lat":35.263452,"lon":128.344623},{"id":1616143,"name":"nabolli","country":"kr","lat":35.180833,"lon":127.784444},{"id":1640331,"name":"yulli","country":"kr","lat":35.459174,"lon":128.342216},{"id":1600827,"name":"chongsam","country":"kr","lat":35.17217,"lon":128.462127},{"id":1604499,"name":"hambakkol","country":"kr","lat":35.124799,"lon":128.452157},{"id":1640393,"name":"yunoeri","country":"kr","lat":35.311827,"lon":128.371137},{"id":1604727,"name":"hangnimdong","country":"kr","lat":34.75,"lon":128.416667},{"id":1599580,"name":"chinpo","country":"kr","lat":34.5,"lon":127.766667},{"id":1632233,"name":"taeyulli","country":"kr","lat":34.605833,"lon":127.791111},{"id":1600802,"name":"chongpori","country":"kr","lat":34.881944,"lon":127.83},{"id":1633354,"name":"togulli","country":"kr","lat":35.174444,"lon":127.636111},{"id":1623407,"name":"saebakkol","country":"kr","lat":35.174379,"lon":128.354073},{"id":1631445,"name":"taechong","country":"kr","lat":34.793729,"lon":128.384569},{"id":1630992,"name":"supan","country":"kr","lat":35.131589,"lon":128.447899},{"id":1614823,"name":"modulttam","country":"kr","lat":35.099954,"lon":128.348738},{"id":1629137,"name":"sondul","country":"kr","lat":34.944503,"lon":128.416405},{"id":1619342,"name":"osinaraettam","country":"kr","lat":35.059373,"lon":128.420253},{"id":1609730,"name":"kipungol","country":"kr","lat":35.369444,"lon":127.919167},{"id":1608720,"name":"kamgol","country":"kr","lat":35.294862,"lon":128.433568},{"id":1638925,"name":"yochon","country":"kr","lat":34.762778,"lon":127.665278},{"id":1634919,"name":"totchae","country":"kr","lat":34.92038,"lon":128.265728},{"id":1637339,"name":"wolcholli","country":"kr","lat":35.303005,"lon":128.301483},{"id":1627890,"name":"sinwolli","country":"kr","lat":35.038889,"lon":127.79},{"id":1622096,"name":"pubongni","country":"kr","lat":35.304992,"lon":128.437107},{"id":1598271,"name":"changjaegi","country":"kr","lat":35.207778,"lon":127.767222},{"id":1596404,"name":"anmuryang","country":"kr","lat":34.987328,"lon":128.292376},{"id":1620356,"name":"pangchon","country":"kr","lat":35.198253,"lon":128.253133},{"id":1636460,"name":"upo","country":"kr","lat":34.854065,"lon":128.385745},{"id":1625410,"name":"sangnyongni","country":"kr","lat":35.116667,"lon":128.466667},{"id":1608433,"name":"kalbaji","country":"kr","lat":34.929572,"lon":128.488657},{"id":1637963,"name":"wonjongdong","country":"kr","lat":35.166667,"lon":127.716667},{"id":1609631,"name":"kilsom","country":"kr","lat":34.933333,"lon":127.7},{"id":1617557,"name":"nongjuri","country":"kr","lat":34.873333,"lon":127.532222},{"id":1636854,"name":"wangji","country":"kr","lat":34.933333,"lon":127.9},{"id":1610371,"name":"kolliri","country":"kr","lat":34.782711,"lon":128.367613},{"id":1622705,"name":"puulli","country":"kr","lat":35.3775,"lon":127.593333},{"id":1608844,"name":"kangchong","country":"kr","lat":34.933333,"lon":128.083333},{"id":1619777,"name":"paemangol","country":"kr","lat":35.195289,"lon":128.293175},{"id":1605754,"name":"hori","country":"kr","lat":35.233333,"lon":127.9},{"id":1625013,"name":"sanggongni","country":"kr","lat":35.40209,"lon":128.251339},{"id":1627205,"name":"sincholli","country":"kr","lat":34.884821,"lon":128.468064},{"id":1618231,"name":"oechu","country":"kr","lat":35.157457,"lon":128.478079},{"id":1600857,"name":"chongsokkum","country":"kr","lat":34.691667,"lon":128.193333},{"id":1636202,"name":"unggok","country":"kr","lat":35.389049,"lon":128.407419},{"id":1631559,"name":"taega","country":"kr","lat":35.016378,"lon":128.297465},{"id":1608479,"name":"kalchon","country":"kr","lat":35.151389,"lon":128.216667},{"id":1619121,"name":"optong","country":"kr","lat":34.966667,"lon":127.5},{"id":1640379,"name":"yumpo","country":"kr","lat":34.916667,"lon":127.616667},{"id":1612130,"name":"kunghangni","country":"kr","lat":34.966667,"lon":127.8},{"id":1630361,"name":"ssakkol","country":"kr","lat":35.176751,"lon":128.276037},{"id":1639054,"name":"yommakpo","country":"kr","lat":34.825876,"lon":128.475553},{"id":1636493,"name":"uptongni","country":"kr","lat":34.82,"lon":128.219444},{"id":1600315,"name":"chomun","country":"kr","lat":35.203858,"lon":128.288971},{"id":1613664,"name":"maehwagol","country":"kr","lat":35.193188,"lon":128.328313},{"id":1604980,"name":"hapo","country":"kr","lat":34.913333,"lon":127.659444},{"id":1598500,"name":"changpyong","country":"kr","lat":34.883333,"lon":128.466667},{"id":1630164,"name":"sosangri","country":"kr","lat":34.810278,"lon":127.839722},{"id":1601476,"name":"chukchonni","country":"kr","lat":34.766667,"lon":127.883333},{"id":1616988,"name":"namulgol","country":"kr","lat":35.262095,"lon":128.250103},{"id":1611163,"name":"kounji","country":"kr","lat":34.944824,"lon":128.344998},{"id":1636043,"name":"umji","country":"kr","lat":34.881718,"lon":128.409708},{"id":1596787,"name":"araekkajim","country":"kr","lat":35.440044,"lon":128.443293},{"id":1606147,"name":"hwajaeri","country":"kr","lat":34.816667,"lon":127.65},{"id":1610831,"name":"konnomal","country":"kr","lat":35.449381,"lon":128.458667},{"id":1602465,"name":"daichido","country":"kr","lat":34.766667,"lon":128.05},{"id":1615966,"name":"myongdok","country":"kr","lat":34.95,"lon":127.816667},{"id":1601660,"name":"chungang","country":"kr","lat":35.34663,"lon":128.439183},{"id":1619325,"name":"osenri","country":"kr","lat":35.111111,"lon":127.815556},{"id":1621305,"name":"poksang","country":"kr","lat":35.043056,"lon":128.140556},{"id":1627089,"name":"simwon","country":"kr","lat":35.0875,"lon":127.597778},{"id":1625894,"name":"sansenho","country":"kr","lat":34.928333,"lon":128.074722},{"id":1625213,"name":"sangjindu","country":"kr","lat":35.034044,"lon":128.390558},{"id":1639531,"name":"yongi","country":"kr","lat":34.872398,"lon":128.466343},{"id":1636264,"name":"ungye","country":"kr","lat":35.103611,"lon":128.085},{"id":1621135,"name":"podisom","country":"kr","lat":34.830637,"lon":128.404413},{"id":1620027,"name":"pakkatmuryang","country":"kr","lat":34.992303,"lon":128.290557},{"id":1598982,"name":"chicholli","country":"kr","lat":35.227463,"lon":128.294253},{"id":1616579,"name":"naesong","country":"kr","lat":35.330139,"lon":128.349878},{"id":1612296,"name":"kunoryang","country":"kr","lat":34.949722,"lon":127.861944},{"id":1612778,"name":"kwandong","country":"kr","lat":35.042829,"lon":128.30045},{"id":1623557,"name":"saemal","country":"kr","lat":34.946962,"lon":128.420751},{"id":1611534,"name":"kuktongni","country":"kr","lat":35.256944,"lon":127.823056},{"id":1600433,"name":"chongbuk","country":"kr","lat":35.01778,"lon":128.405626},{"id":1601355,"name":"chudongni","country":"kr","lat":35.075,"lon":127.937778},{"id":1621809,"name":"pongpyongni","country":"kr","lat":34.816667,"lon":128.416667},{"id":1613846,"name":"maguchon","country":"kr","lat":34.867223,"lon":128.404306},{"id":1629434,"name":"songhyonni","country":"kr","lat":34.783333,"lon":127.966667},{"id":1621535,"name":"ponchon","country":"kr","lat":35.151389,"lon":127.951389},{"id":1632774,"name":"tanmok","country":"kr","lat":35.253611,"lon":128.140278},{"id":1596652,"name":"apkok","country":"kr","lat":35.292743,"lon":128.283153},{"id":1606094,"name":"hwadong","country":"kr","lat":34.6875,"lon":127.594444},{"id":1619248,"name":"oryongto","country":"kr","lat":35.313952,"lon":128.477442},{"id":1606110,"name":"hwagaeri","country":"kr","lat":35.134722,"lon":128.1025},{"id":1617724,"name":"norunji","country":"kr","lat":34.957979,"lon":128.300493},{"id":1622913,"name":"pyonggwan","country":"kr","lat":35.23975,"lon":128.338606},{"id":1638278,"name":"worun","country":"kr","lat":35.071111,"lon":127.884167},{"id":1628457,"name":"sohwa","country":"kr","lat":35.061314,"lon":128.341462},{"id":1606752,"name":"hyondong","country":"kr","lat":35.3075,"lon":128.04},{"id":1606874,"name":"ichonni","country":"kr","lat":34.736111,"lon":127.581944},{"id":1626632,"name":"shindaeri","country":"kr","lat":34.9375,"lon":127.551667},{"id":1618148,"name":"odongri","country":"kr","lat":35.088889,"lon":128.200556},{"id":1625133,"name":"sanghwari","country":"kr","lat":34.6,"lon":127.6},{"id":1635672,"name":"uam","country":"kr","lat":34.6,"lon":127.5},{"id":1633516,"name":"tokchae","country":"kr","lat":35.295395,"lon":128.354705},{"id":1600815,"name":"chongpyongni","country":"kr","lat":35.286389,"lon":128.059444},{"id":1607353,"name":"ipsalli","country":"kr","lat":35.452679,"lon":128.350335},{"id":1619920,"name":"paeyanggol","country":"kr","lat":35.268009,"lon":128.352039},{"id":1631430,"name":"taechi","country":"kr","lat":34.970278,"lon":127.884444},{"id":1626889,"name":"sijongni","country":"kr","lat":35.171111,"lon":128.284444},{"id":1635126,"name":"tuho","country":"kr","lat":35.016667,"lon":128.35},{"id":1617953,"name":"nungyangdong","country":"kr","lat":34.806944,"lon":128.235},{"id":1626666,"name":"shinjon","country":"kr","lat":35.375,"lon":128.174167},{"id":1607304,"name":"inpyongni","country":"kr","lat":35.416944,"lon":128.140556},{"id":1619257,"name":"oryudong","country":"kr","lat":35.323289,"lon":128.358707},{"id":1632157,"name":"taeui","country":"kr","lat":35.368889,"lon":128.104444},{"id":1623109,"name":"rasui","country":"kr","lat":34.744167,"lon":127.737778},{"id":1638806,"name":"yemyongwon","country":"kr","lat":35.259041,"lon":128.321793},{"id":1622638,"name":"puram","country":"kr","lat":34.968947,"lon":128.307235},{"id":1634321,"name":"tonghwa","country":"kr","lat":35.057649,"lon":128.345989},{"id":1616705,"name":"naktong","country":"kr","lat":35.088529,"lon":128.340331},{"id":1603754,"name":"hadaeri","country":"kr","lat":34.883333,"lon":127.516667},{"id":1629544,"name":"songjonni","country":"kr","lat":35.069128,"lon":128.312899},{"id":1630001,"name":"sopo","country":"kr","lat":34.86043,"lon":128.404948},{"id":1606059,"name":"hwabuk","country":"kr","lat":35.481957,"lon":128.443547},{"id":1607305,"name":"inri","country":"kr","lat":35.266667,"lon":127.833333},{"id":1635061,"name":"tubaedong","country":"kr","lat":35.342824,"lon":128.321463},{"id":1622949,"name":"pyongjichon","country":"kr","lat":34.784444,"lon":127.868611},{"id":1604607,"name":"hanbin","country":"kr","lat":35.325833,"lon":128.006944},{"id":1597007,"name":"araettam","country":"kr","lat":34.917064,"lon":128.282095},{"id":1638233,"name":"woran","country":"kr","lat":35.104805,"lon":128.409097},{"id":1625762,"name":"sanik","country":"kr","lat":35.256111,"lon":128.469444},{"id":1624028,"name":"sajongni","country":"kr","lat":35.353852,"lon":128.328288},{"id":1606852,"name":"ichi","country":"kr","lat":34.95,"lon":128.1},{"id":1602078,"name":"chungok","country":"kr","lat":35.252469,"lon":128.377678},{"id":1630958,"name":"sungwol","country":"kr","lat":34.633333,"lon":127.766667},{"id":1623677,"name":"saengnimjang","country":"kr","lat":35.472222,"lon":127.852222},{"id":1630163,"name":"sosangni","country":"kr","lat":34.608056,"lon":128.239722},{"id":1632048,"name":"taesanni","country":"kr","lat":34.983333,"lon":128.166667},{"id":1598202,"name":"changhang","country":"kr","lat":34.996601,"lon":128.435821},{"id":1610391,"name":"kolmaul","country":"kr","lat":35.211049,"lon":128.371327},{"id":1608954,"name":"kangok","country":"kr","lat":34.95,"lon":128.2},{"id":1599383,"name":"chinbungye","country":"kr","lat":34.973889,"lon":128.125278},{"id":1626046,"name":"sapyong","country":"kr","lat":35.330088,"lon":128.360635},{"id":1636948,"name":"waun","country":"kr","lat":35.364444,"lon":127.594722},{"id":1600210,"name":"cholsu","country":"kr","lat":35.439444,"lon":127.954722},{"id":1606234,"name":"hwangbang","country":"kr","lat":34.912222,"lon":127.628889},{"id":1625320,"name":"sangmultong","country":"kr","lat":35.1,"lon":128.283333},{"id":1623041,"name":"pyongsan","country":"kr","lat":35.033333,"lon":128.366667},{"id":1626647,"name":"shingiri","country":"kr","lat":35.286944,"lon":128.026389},{"id":1639040,"name":"yomhaeri","country":"kr","lat":34.854444,"lon":127.813889},{"id":1637482,"name":"wolmyongchon","country":"kr","lat":35.494591,"lon":128.472621},{"id":1626309,"name":"seisonri","country":"kr","lat":34.690833,"lon":127.580833},{"id":1599557,"name":"chinmok","country":"kr","lat":34.983333,"lon":127.833333},{"id":1604503,"name":"hambangni","country":"kr","lat":35.416667,"lon":128.033333},{"id":1603727,"name":"hachonni","country":"kr","lat":35.270833,"lon":128.208056},{"id":1599618,"name":"chintori","country":"kr","lat":35.11499,"lon":128.488372},{"id":1606467,"name":"hwarimni","country":"kr","lat":35.09726,"lon":128.328959},{"id":1626539,"name":"sepori","country":"kr","lat":34.817746,"lon":128.389329},{"id":1613731,"name":"maenari","country":"kr","lat":34.95,"lon":127.85},{"id":1635748,"name":"ugye","country":"kr","lat":35.250044,"lon":128.317696},{"id":1633891,"name":"tolgae","country":"kr","lat":35.297916,"lon":128.334298},{"id":1632620,"name":"tangjin","country":"kr","lat":35.0,"lon":127.783333},{"id":1629795,"name":"songsa","country":"kr","lat":35.425532,"lon":128.451919},{"id":1624043,"name":"sakkattung","country":"kr","lat":35.293844,"lon":128.398669},{"id":1613568,"name":"madodong","country":"kr","lat":34.933333,"lon":128.033333},{"id":1624234,"name":"samga","country":"kr","lat":35.407222,"lon":128.120278},{"id":1599742,"name":"chisim","country":"kr","lat":35.488611,"lon":128.020556},{"id":1600607,"name":"chonghyolli","country":"kr","lat":35.320833,"lon":128.006667},{"id":1626626,"name":"shinbong","country":"kr","lat":34.795548,"lon":128.413506},{"id":1616362,"name":"naehang","country":"kr","lat":34.725556,"lon":128.459167},{"id":1618874,"name":"omgam","country":"kr","lat":34.910752,"lon":128.357888},{"id":1623328,"name":"sachonri","country":"kr","lat":35.236982,"lon":128.362118},{"id":1606418,"name":"hwangyongdong","country":"kr","lat":35.458422,"lon":128.459298},{"id":1626754,"name":"shokiri","country":"kr","lat":35.041805,"lon":128.42451},{"id":1640398,"name":"yupori","country":"kr","lat":34.84,"lon":127.79},{"id":1624817,"name":"sangdaepo","country":"kr","lat":35.409447,"lon":128.475108},{"id":1632925,"name":"taranggol","country":"kr","lat":34.815125,"lon":128.379487},{"id":1635814,"name":"uitalli","country":"kr","lat":35.4025,"lon":127.684167},{"id":1621388,"name":"polpo","country":"kr","lat":34.818869,"lon":128.379915},{"id":1634565,"name":"tongsalli","country":"kr","lat":34.974722,"lon":128.186667},{"id":1597744,"name":"chakchang","country":"kr","lat":34.833889,"lon":127.818889},{"id":1615664,"name":"munjongdong","country":"kr","lat":35.183333,"lon":127.933333},{"id":1614503,"name":"mayun","country":"kr","lat":34.983333,"lon":127.55},{"id":1630949,"name":"sungsan","country":"kr","lat":35.235116,"lon":128.268061},{"id":1598349,"name":"changjondong","country":"kr","lat":35.047625,"lon":128.262672},{"id":1605242,"name":"hawolli","country":"kr","lat":34.982801,"lon":128.413838},{"id":1605184,"name":"hasugok","country":"kr","lat":34.816667,"lon":127.983333},{"id":1613710,"name":"maekkol","country":"kr","lat":34.821704,"lon":128.34028},{"id":1636385,"name":"unpo","country":"kr","lat":34.883333,"lon":128.033333},{"id":1626652,"name":"shingye","country":"kr","lat":35.438015,"lon":128.249157},{"id":1617823,"name":"nukka","country":"kr","lat":34.910752,"lon":128.276318},{"id":1614651,"name":"minamni","country":"kr","lat":34.766667,"lon":128.420556},{"id":1631721,"name":"taejaeri","country":"kr","lat":35.166667,"lon":128.466667},{"id":1604725,"name":"hangni","country":"kr","lat":34.705278,"lon":128.1825},{"id":1612060,"name":"kundaengi","country":"kr","lat":35.313378,"lon":128.387472},{"id":1631716,"name":"taeiyol","country":"kr","lat":35.322477,"lon":128.417212},{"id":1611555,"name":"kulgok","country":"kr","lat":35.088421,"lon":128.261486},{"id":1634051,"name":"tondaesan","country":"kr","lat":35.325014,"lon":128.312736},{"id":1625359,"name":"sangnam","country":"kr","lat":35.145547,"lon":128.27981},{"id":1628231,"name":"soegol","country":"kr","lat":35.146032,"lon":128.268438},{"id":1630334,"name":"soyanghwa","country":"kr","lat":34.824806,"lon":128.379487},{"id":1635617,"name":"twimmigi","country":"kr","lat":34.797467,"lon":128.383742},{"id":1627794,"name":"sinsochon","country":"kr","lat":35.192325,"lon":128.49651},{"id":1600788,"name":"chongol","country":"kr","lat":35.366667,"lon":128.1},{"id":1636244,"name":"ungongni","country":"kr","lat":35.294519,"lon":128.248802},{"id":1631207,"name":"suyangni","country":"kr","lat":34.9525,"lon":128.206944},{"id":1612056,"name":"kundabul","country":"kr","lat":35.166242,"lon":128.371426},{"id":1633592,"name":"tokchon","country":"kr","lat":35.254921,"lon":128.348888},{"id":1608726,"name":"kamhyon","country":"kr","lat":34.95,"lon":128.133333},{"id":1625455,"name":"sangpi","country":"kr","lat":34.95,"lon":127.55},{"id":1637480,"name":"wolmok","country":"kr","lat":34.566667,"lon":127.7},{"id":1609180,"name":"karakkol","country":"kr","lat":35.336177,"lon":128.250425},{"id":1601523,"name":"chukori","country":"kr","lat":34.9,"lon":127.533333},{"id":1631090,"name":"suryuk","country":"kr","lat":34.82026,"lon":128.440143},{"id":1620618,"name":"pangyori","country":"kr","lat":35.024444,"lon":127.505833},{"id":1620474,"name":"panghwachon","country":"kr","lat":35.108889,"lon":127.851389},{"id":1620481,"name":"panghwagol","country":"kr","lat":35.000861,"lon":128.272317},{"id":1608644,"name":"kamagol","country":"kr","lat":35.289675,"lon":128.340503},{"id":1606972,"name":"ijongni","country":"kr","lat":34.983333,"lon":127.75},{"id":1616710,"name":"nalgaji","country":"kr","lat":35.234415,"lon":128.408612},{"id":1609580,"name":"kiho","country":"kr","lat":34.872625,"lon":128.425487},{"id":1636426,"name":"unso","country":"kr","lat":35.434722,"lon":127.753611},{"id":1621819,"name":"pongsalli","country":"kr","lat":35.293844,"lon":128.361345},{"id":1611175,"name":"kowon","country":"kr","lat":35.343382,"lon":128.447352},{"id":1634532,"name":"tongpo","country":"kr","lat":34.809936,"lon":128.254538},{"id":1631145,"name":"susong","country":"kr","lat":35.140319,"lon":128.327612},{"id":1599176,"name":"chiktong","country":"kr","lat":35.266667,"lon":127.566667},{"id":1625399,"name":"sangnosalli","country":"kr","lat":34.901766,"lon":128.394742},{"id":1630790,"name":"suksalli","country":"kr","lat":35.273611,"lon":128.325},{"id":1632955,"name":"tarimok","country":"kr","lat":34.9,"lon":127.5},{"id":1619623,"name":"paegya","country":"kr","lat":35.313191,"lon":128.286705},{"id":1631655,"name":"taehangni","country":"kr","lat":34.755646,"lon":128.299415},{"id":1603806,"name":"hadongchon","country":"kr","lat":35.341454,"lon":128.413711},{"id":1640080,"name":"yosongni","country":"kr","lat":34.583333,"lon":127.65},{"id":1627966,"name":"siranni","country":"kr","lat":34.933333,"lon":128.05},{"id":1598427,"name":"changnaeri","country":"kr","lat":35.379764,"lon":128.324812},{"id":1614436,"name":"masang","country":"kr","lat":34.716667,"lon":127.566667},{"id":1631932,"name":"taepori","country":"kr","lat":34.810556,"lon":127.618889},{"id":1612534,"name":"kusangni","country":"kr","lat":34.903889,"lon":127.561111},{"id":1599014,"name":"chidong","country":"kr","lat":34.983333,"lon":128.283333},{"id":1639904,"name":"yonhak","country":"kr","lat":34.833333,"lon":127.566667},{"id":1619698,"name":"paekkol","country":"kr","lat":34.963492,"lon":128.251232},{"id":1639856,"name":"yongunni","country":"kr","lat":34.8025,"lon":128.426389},{"id":1623672,"name":"saengmok","country":"kr","lat":34.95,"lon":127.516667},{"id":1619541,"name":"paegamdong","country":"kr","lat":35.142475,"lon":128.254965},{"id":1600451,"name":"chongchon","country":"kr","lat":35.006111,"lon":128.133611},{"id":1617741,"name":"noryangni","country":"kr","lat":34.937222,"lon":127.872778},{"id":1606982,"name":"ikkuri","country":"kr","lat":35.493983,"lon":128.331826},{"id":1604940,"name":"hanyuri","country":"kr","lat":34.9,"lon":127.566667},{"id":1610313,"name":"kokhae","country":"kr","lat":34.783333,"lon":127.95},{"id":1605161,"name":"hasong","country":"kr","lat":35.287446,"lon":128.428576},{"id":1619621,"name":"paegyang","country":"kr","lat":35.001111,"lon":127.671667},{"id":1595963,"name":"ajiri","country":"kr","lat":35.432078,"lon":128.437001},{"id":1615213,"name":"mosagum","country":"kr","lat":34.8,"lon":127.733333},{"id":1614381,"name":"marigae","country":"kr","lat":34.943405,"lon":128.306264},{"id":1626726,"name":"shisen","country":"kr","lat":35.084167,"lon":128.088611},{"id":1610606,"name":"konae","country":"kr","lat":34.7175,"lon":127.631944},{"id":1632437,"name":"tamchupo","country":"kr","lat":34.635278,"lon":128.290278},{"id":1600191,"name":"chollangni","country":"kr","lat":35.488401,"lon":128.305835},{"id":1613805,"name":"maettam","country":"kr","lat":34.916636,"lon":128.273216},{"id":1612924,"name":"kwangpo","country":"kr","lat":34.956667,"lon":128.037778},{"id":1613577,"name":"madong","country":"kr","lat":34.765648,"lon":128.422385},{"id":1610875,"name":"kopo","country":"kr","lat":34.959722,"lon":127.783611},{"id":1611832,"name":"kumidong","country":"kr","lat":34.783333,"lon":127.85},{"id":1622914,"name":"pyonggyeri","country":"kr","lat":35.004372,"lon":128.34705},{"id":1621771,"name":"pongnamdong","country":"kr","lat":34.933333,"lon":128.116667},{"id":1635178,"name":"tulmal","country":"kr","lat":35.248373,"lon":128.273343},{"id":1607968,"name":"kadung","country":"kr","lat":35.338613,"lon":128.441517},{"id":1617627,"name":"nonsil","country":"kr","lat":35.309452,"lon":128.414858},{"id":1597655,"name":"chagunkaryongpo","country":"kr","lat":35.004722,"lon":128.475},{"id":1637195,"name":"witchagusil","country":"kr","lat":35.079475,"lon":128.299103},{"id":1606558,"name":"hwayang","country":"kr","lat":34.685833,"lon":127.596667},{"id":1601332,"name":"chuchon","country":"kr","lat":34.904815,"lon":128.30349},{"id":1621927,"name":"pooe","country":"kr","lat":35.370022,"lon":128.412797},{"id":1602265,"name":"churye","country":"kr","lat":35.037332,"lon":128.481151},{"id":1601361,"name":"chugam","country":"kr","lat":35.301462,"lon":128.403604},{"id":1601893,"name":"chunggye","country":"kr","lat":35.232744,"lon":128.497211},{"id":1605278,"name":"hayong","country":"kr","lat":35.381641,"lon":128.2795},{"id":1601861,"name":"chunggok","country":"kr","lat":35.009911,"lon":128.307004},{"id":1623623,"name":"saemol","country":"kr","lat":35.219487,"lon":128.248714},{"id":1629362,"name":"songgyeri","country":"kr","lat":35.051559,"lon":128.259492},{"id":1617717,"name":"norumok","country":"kr","lat":34.958892,"lon":128.322479},{"id":1615901,"name":"myododong","country":"kr","lat":34.876111,"lon":127.714444},{"id":1624591,"name":"sanchong","country":"kr","lat":35.414444,"lon":127.874444},{"id":1627965,"name":"sirangni","country":"kr","lat":35.073278,"lon":128.438414},{"id":1629637,"name":"songnae","country":"kr","lat":34.887281,"lon":128.495985},{"id":1630602,"name":"sudong","country":"kr","lat":35.123565,"lon":128.337155},{"id":1611543,"name":"kulbawi","country":"kr","lat":35.215122,"lon":128.431462},{"id":1633197,"name":"todong","country":"kr","lat":34.65,"lon":128.233333},{"id":1636045,"name":"umjom","country":"kr","lat":34.785278,"lon":128.050278},{"id":1604395,"name":"haksanni","country":"kr","lat":34.85952,"lon":128.479404},{"id":1618195,"name":"oebang","country":"kr","lat":35.338333,"lon":128.086944},{"id":1604360,"name":"hakkyodam","country":"kr","lat":35.141721,"lon":128.373205},{"id":1627468,"name":"singye","country":"kr","lat":34.889624,"lon":128.490915},{"id":1625426,"name":"sangok","country":"kr","lat":34.833333,"lon":127.616667},{"id":1640432,"name":"yusang","country":"kr","lat":35.300194,"lon":128.494109},{"id":1636561,"name":"usil","country":"kr","lat":34.977253,"lon":128.270988},{"id":1620099,"name":"paksonggae","country":"kr","lat":34.906847,"lon":128.456521},{"id":1635075,"name":"tudok","country":"kr","lat":35.447656,"lon":128.436138},{"id":1600075,"name":"chokchiri","country":"kr","lat":35.4025,"lon":127.943056},{"id":1626649,"name":"shingi","country":"kr","lat":34.604444,"lon":127.742778},{"id":1637008,"name":"wigye","country":"kr","lat":35.055439,"lon":128.306917},{"id":1603667,"name":"habuchon","country":"kr","lat":35.03233,"lon":128.473692},{"id":1639252,"name":"yongchon","country":"kr","lat":34.989444,"lon":127.805278},{"id":1609835,"name":"kkaechamgol","country":"kr","lat":34.965059,"lon":128.352762},{"id":1615191,"name":"morosil","country":"kr","lat":35.263743,"lon":128.329015},{"id":1611123,"name":"kosun","country":"kr","lat":34.883333,"lon":127.983333},{"id":1639974,"name":"yonmok","country":"kr","lat":34.933333,"lon":127.783333},{"id":1618007,"name":"nurusil","country":"kr","lat":35.223152,"lon":128.256582},{"id":1621652,"name":"ponggok","country":"kr","lat":34.997671,"lon":128.398379},{"id":1616555,"name":"naesil","country":"kr","lat":35.437507,"lon":128.421017},{"id":1620451,"name":"panggyeri","country":"kr","lat":35.483479,"lon":128.377481},{"id":1596797,"name":"araekkol","country":"kr","lat":35.393971,"lon":128.474803},{"id":1624615,"name":"sandobakkol","country":"kr","lat":35.488046,"lon":128.438016},{"id":1616172,"name":"nadong","country":"kr","lat":35.121996,"lon":128.316564},{"id":1605580,"name":"hokeiri","country":"kr","lat":35.116667,"lon":127.933333},{"id":1633862,"name":"tokwolli","country":"kr","lat":34.773056,"lon":127.86},{"id":1629466,"name":"songjangni","country":"kr","lat":34.883333,"lon":127.616667},{"id":1614240,"name":"manha","country":"kr","lat":35.297259,"lon":128.28016},{"id":1635730,"name":"ugokudo","country":"kr","lat":34.727778,"lon":128.43},{"id":1640211,"name":"yuguri","country":"kr","lat":34.753611,"lon":127.842778},{"id":1608186,"name":"kagok","country":"kr","lat":35.016667,"lon":128.166667},{"id":1624559,"name":"sanbamni","country":"kr","lat":34.95,"lon":128.216667},{"id":1603261,"name":"ginei","country":"kr","lat":35.319167,"lon":128.261111},{"id":1597906,"name":"changam","country":"kr","lat":35.288124,"lon":128.474042},{"id":1633085,"name":"tobari","country":"kr","lat":34.871111,"lon":127.887778},{"id":1634004,"name":"tomige","country":"kr","lat":34.994889,"lon":128.475403},{"id":1634381,"name":"tongjong","country":"kr","lat":35.043206,"lon":128.361295},{"id":1618269,"name":"oegalchon","country":"kr","lat":35.045146,"lon":128.250924},{"id":1621606,"name":"pongdae","country":"kr","lat":35.001255,"lon":128.394742},{"id":1606174,"name":"hwajong","country":"kr","lat":35.136944,"lon":127.871111},{"id":1622970,"name":"pyongjongdong","country":"kr","lat":35.383333,"lon":128.233333},{"id":1613696,"name":"maejong","country":"kr","lat":35.025055,"lon":128.479189},{"id":1604174,"name":"hahaechi","country":"kr","lat":34.866667,"lon":127.85},{"id":1615817,"name":"musang","country":"kr","lat":35.33298,"lon":128.266104},{"id":1607972,"name":"kaeam","country":"kr","lat":35.169798,"lon":128.294253},{"id":1597772,"name":"chakpo","country":"kr","lat":35.425888,"lon":128.483531},{"id":1600495,"name":"chongdongdong","country":"kr","lat":35.116822,"lon":128.308103},{"id":1624179,"name":"samchon","country":"kr","lat":35.0,"lon":127.833333},{"id":1636015,"name":"umjimal","country":"kr","lat":35.377328,"lon":128.262248},{"id":1612673,"name":"kuyangni","country":"kr","lat":35.4225,"lon":127.689444},{"id":1617033,"name":"nangdori","country":"kr","lat":34.608889,"lon":127.543889},{"id":1600111,"name":"chokkum","country":"kr","lat":34.633333,"lon":127.516667},{"id":1616330,"name":"naegoktong","country":"kr","lat":35.399299,"lon":128.321362},{"id":1600526,"name":"chonggeri","country":"kr","lat":35.324722,"lon":127.903611},{"id":1601370,"name":"chugimni","country":"kr","lat":34.978889,"lon":127.645556},{"id":1618729,"name":"okkol","country":"kr","lat":35.231882,"lon":128.438576},{"id":1625698,"name":"sangyangji","country":"kr","lat":34.882948,"lon":128.332471},{"id":1600407,"name":"chongam","country":"kr","lat":35.210541,"lon":128.434588},{"id":1616339,"name":"naegongri","country":"kr","lat":35.235278,"lon":127.821111},{"id":1605379,"name":"hodokkol","country":"kr","lat":35.24875,"lon":128.256582},{"id":1627715,"name":"sinpung","country":"kr","lat":35.188611,"lon":127.995278},{"id":1599739,"name":"chisil","country":"kr","lat":35.262725,"lon":128.307397},{"id":1611083,"name":"kosimgol","country":"kr","lat":35.226547,"lon":128.398372},{"id":1602290,"name":"chusongni","country":"kr","lat":35.383611,"lon":127.690278},{"id":1632452,"name":"tamnae","country":"kr","lat":34.807004,"lon":128.398645},{"id":1628504,"name":"sojangsan","country":"kr","lat":35.054722,"lon":128.321667},{"id":1617831,"name":"nulbatchang","country":"kr","lat":35.483333,"lon":127.833333},{"id":1599810,"name":"choam","country":"kr","lat":34.888244,"lon":128.415218},{"id":1630295,"name":"sowol","country":"kr","lat":35.097314,"lon":128.431139},{"id":1598298,"name":"changjakchi","country":"kr","lat":34.771264,"lon":128.474322},{"id":1610516,"name":"kompo","country":"kr","lat":35.046763,"lon":128.443696},{"id":1624612,"name":"sanda","country":"kr","lat":35.284828,"lon":128.257665},{"id":1606596,"name":"hyanggyochon","country":"kr","lat":34.876316,"lon":128.405055},{"id":1623283,"name":"sabu","country":"kr","lat":35.441567,"lon":128.470947},{"id":1640179,"name":"yudong","country":"kr","lat":34.616667,"lon":128.25},{"id":1627554,"name":"sininwol","country":"kr","lat":35.45,"lon":127.6},{"id":1619107,"name":"oongni","country":"kr","lat":35.303889,"lon":128.136667},{"id":1608929,"name":"kangju","country":"kr","lat":35.32131,"lon":128.334605},{"id":1620678,"name":"panpori","country":"kr","lat":35.438218,"lon":128.400163},{"id":1622032,"name":"posil","country":"kr","lat":35.16317,"lon":128.270648},{"id":1634272,"name":"tonggwangyang","country":"kr","lat":34.940278,"lon":127.701667},{"id":1626618,"name":"shimpo","country":"kr","lat":34.500833,"lon":127.772778},{"id":1626089,"name":"sari","country":"kr","lat":35.277778,"lon":127.838611},{"id":1615574,"name":"mundae","country":"kr","lat":35.335556,"lon":128.002222},{"id":1617795,"name":"nowol","country":"kr","lat":34.85,"lon":127.533333},{"id":1615045,"name":"moktan","country":"kr","lat":35.072222,"lon":127.99},{"id":1629524,"name":"songjongni","country":"kr","lat":34.753889,"lon":128.053889},{"id":1624095,"name":"salmuni","country":"kr","lat":34.806667,"lon":127.976111},{"id":1637943,"name":"wonjigol","country":"kr","lat":35.194104,"lon":128.451887},{"id":1631790,"name":"taejong","country":"kr","lat":35.418611,"lon":127.624167},{"id":1619735,"name":"paeksan","country":"kr","lat":35.257781,"lon":128.410835},{"id":1634145,"name":"tongchonni","country":"kr","lat":34.8,"lon":128.05},{"id":1597983,"name":"changchok","country":"kr","lat":34.65,"lon":127.6},{"id":1636734,"name":"wado","country":"kr","lat":34.895829,"lon":128.251286},{"id":1619836,"name":"paenamusil","country":"kr","lat":35.309646,"lon":128.423825},{"id":1624072,"name":"salgujingi","country":"kr","lat":35.45,"lon":127.7},{"id":1627825,"name":"sinsori","country":"kr","lat":35.005278,"lon":127.974722},{"id":1628291,"name":"sogae","country":"kr","lat":35.276394,"lon":128.342393},{"id":1636760,"name":"waesong","country":"kr","lat":34.866667,"lon":128.483333},{"id":1616025,"name":"myongjongni","country":"kr","lat":34.85035,"lon":128.40587},{"id":1602341,"name":"chwaryongni","country":"kr","lat":34.95,"lon":128.083333},{"id":1638300,"name":"yachon","country":"kr","lat":35.118978,"lon":128.494678},{"id":1619692,"name":"paekkok","country":"kr","lat":35.27334,"lon":128.253981},{"id":1606265,"name":"hwanggil","country":"kr","lat":34.913333,"lon":127.659167},{"id":1597457,"name":"chabongni","country":"kr","lat":34.583333,"lon":127.683333},{"id":1613220,"name":"kyehyolli","country":"kr","lat":35.43563,"lon":128.270874},{"id":1612821,"name":"kwangchonni","country":"kr","lat":34.868333,"lon":127.966667},{"id":1599158,"name":"chikpo","country":"kr","lat":34.508333,"lon":127.744722},{"id":1621614,"name":"pongdimi","country":"kr","lat":35.251553,"lon":128.335804},{"id":1624627,"name":"sandung","country":"kr","lat":34.666667,"lon":128.233333},{"id":1604795,"name":"hanjo","country":"kr","lat":35.171415,"lon":128.280618},{"id":1634367,"name":"tongjom","country":"kr","lat":35.138333,"lon":127.754444},{"id":1639022,"name":"yombuni","country":"kr","lat":35.057222,"lon":128.406944},{"id":1596043,"name":"ampyong","country":"kr","lat":35.46983,"lon":128.31101},{"id":1611296,"name":"kuchon","country":"kr","lat":34.888779,"lon":128.34151},{"id":1608606,"name":"kalsongni","country":"kr","lat":35.188056,"lon":127.837778},{"id":1632063,"name":"taesari","country":"kr","lat":34.8925,"lon":127.870556},{"id":1606389,"name":"hwangsanjang","country":"kr","lat":35.458056,"lon":127.933611},{"id":1640289,"name":"yulcholli","country":"kr","lat":35.000556,"lon":127.625},{"id":1595983,"name":"algaesil","country":"kr","lat":35.400466,"lon":128.441771},{"id":1615643,"name":"munhyon","country":"kr","lat":35.342418,"lon":128.334148},{"id":1616367,"name":"naehoe","country":"kr","lat":35.105,"lon":127.656944},{"id":1633821,"name":"toktongni","country":"kr","lat":35.367778,"lon":127.5625},{"id":1601934,"name":"chunghyang","country":"kr","lat":34.933333,"lon":128.1},{"id":1634830,"name":"toryonggok","country":"kr","lat":34.933333,"lon":128.2},{"id":1609303,"name":"kasadae","country":"kr","lat":35.283083,"lon":128.437688},{"id":1633682,"name":"tokkwang","country":"kr","lat":35.212212,"lon":128.309289},{"id":1612479,"name":"kuryedong","country":"kr","lat":35.094942,"lon":128.251732},{"id":1600373,"name":"chondo","country":"kr","lat":35.050589,"lon":128.468163},{"id":1597936,"name":"changbak","country":"kr","lat":34.933333,"lon":128.233333},{"id":1610684,"name":"kongi","country":"kr","lat":35.018103,"lon":128.351195},{"id":1600389,"name":"chondori","country":"kr","lat":35.0,"lon":127.8},{"id":1612797,"name":"kwangamni","country":"kr","lat":35.087667,"lon":128.338929},{"id":1621352,"name":"polgumal","country":"kr","lat":34.661944,"lon":127.56},{"id":1632113,"name":"taesong","country":"kr","lat":35.431063,"lon":128.458363},{"id":1618093,"name":"ochok","country":"kr","lat":35.400213,"lon":128.375756},{"id":1628742,"name":"sokpyongni","country":"kr","lat":34.8,"lon":127.933333},{"id":1598417,"name":"changmuri","country":"kr","lat":34.733611,"lon":127.621111},{"id":1635377,"name":"tungkkal","country":"kr","lat":35.221643,"lon":128.439762},{"id":1638256,"name":"worho","country":"kr","lat":34.566667,"lon":127.733333},{"id":1620566,"name":"pangong","country":"kr","lat":35.234722,"lon":127.785556},{"id":1625453,"name":"sangpa","country":"kr","lat":35.233607,"lon":128.404678},{"id":1606155,"name":"hwajibakkol","country":"kr","lat":35.212535,"lon":128.313438},{"id":1621931,"name":"popchin","country":"kr","lat":35.054092,"lon":128.352834},{"id":1609284,"name":"karye","country":"kr","lat":35.321944,"lon":128.239722},{"id":1614139,"name":"mangchon","country":"kr","lat":34.772778,"lon":128.486944},{"id":1612923,"name":"kwangpo","country":"kr","lat":34.95,"lon":127.716667},{"id":1613199,"name":"kyedang","country":"kr","lat":34.873889,"lon":127.53},{"id":1625725,"name":"sangyon","country":"kr","lat":35.363171,"lon":128.288634},{"id":1637045,"name":"wikkujip","country":"kr","lat":34.917277,"lon":128.422931},{"id":1602334,"name":"chwajin","country":"kr","lat":34.889142,"lon":128.381744},{"id":1630157,"name":"sosamni","country":"kr","lat":34.578889,"lon":127.655833},{"id":1606642,"name":"hyangyang","country":"kr","lat":35.405556,"lon":127.836111},{"id":1610916,"name":"koran","country":"kr","lat":35.35622,"lon":128.36708},{"id":1633156,"name":"todalchon","country":"kr","lat":34.766667,"lon":127.566667},{"id":1607446,"name":"iun","country":"kr","lat":34.798276,"lon":128.432441},{"id":1629501,"name":"songjolli","country":"kr","lat":35.418611,"lon":127.723889},{"id":1602276,"name":"chusamdong","country":"kr","lat":34.788889,"lon":127.670833},{"id":1605708,"name":"hongnaedong","country":"kr","lat":34.916667,"lon":127.5},{"id":1614160,"name":"manggongni","country":"kr","lat":34.775971,"lon":128.488283},{"id":1601654,"name":"chungam","country":"kr","lat":35.077643,"lon":128.342109},{"id":1600711,"name":"chongnamdong","country":"kr","lat":35.110032,"lon":128.303037},{"id":1622238,"name":"pukchangni","country":"kr","lat":35.257222,"lon":128.168611},{"id":1599401,"name":"chinchon","country":"kr","lat":34.841111,"lon":128.221389},{"id":1609724,"name":"kipungaegol","country":"kr","lat":35.190385,"lon":128.463959},{"id":1604243,"name":"hajang","country":"kr","lat":35.00088,"lon":128.454221},{"id":1617335,"name":"nogu","country":"kr","lat":34.754444,"lon":128.052222},{"id":1638667,"name":"yangpo","country":"kr","lat":35.314687,"lon":128.402789},{"id":1617166,"name":"nasanri","country":"kr","lat":34.707222,"lon":127.614444},{"id":1601039,"name":"chonpo","country":"kr","lat":35.035176,"lon":128.36981},{"id":1639176,"name":"yongam","country":"kr","lat":35.164086,"lon":128.335534},{"id":1596285,"name":"anin","country":"kr","lat":35.287688,"lon":128.437688},{"id":1601991,"name":"chungmal","country":"kr","lat":35.158535,"lon":128.400528},{"id":1598187,"name":"changgyeri","country":"kr","lat":34.994496,"lon":128.337359},{"id":1608374,"name":"kakangni","country":"kr","lat":35.340642,"lon":128.267576},{"id":1616467,"name":"naengchonni","country":"kr","lat":34.9,"lon":128.033333},{"id":1608961,"name":"kangsalli","country":"kr","lat":34.825,"lon":128.437778},{"id":1605872,"name":"huin","country":"kr","lat":34.909444,"lon":128.006667},{"id":1607253,"name":"ingok","country":"kr","lat":35.13105,"lon":128.444881},{"id":1616955,"name":"namsan","country":"kr","lat":35.147757,"lon":128.261163},{"id":1616415,"name":"naejori","country":"kr","lat":35.353056,"lon":128.191111},{"id":1601878,"name":"chunggulli","country":"kr","lat":35.444167,"lon":127.609167},{"id":1614855,"name":"mogok","country":"kr","lat":35.169583,"lon":128.326211},{"id":1618098,"name":"ocholli","country":"kr","lat":34.875888,"lon":128.452018},{"id":1608701,"name":"kamdo","country":"kr","lat":34.728056,"lon":127.567222},{"id":1607397,"name":"irun","country":"kr","lat":34.802395,"lon":128.42982},{"id":1608728,"name":"kamiri","country":"kr","lat":35.362867,"lon":128.265546},{"id":1621923,"name":"ponyang","country":"kr","lat":35.113805,"lon":128.250438},{"id":1612174,"name":"kungongni","country":"kr","lat":35.116176,"lon":128.445905},{"id":1640284,"name":"yulchiri","country":"kr","lat":35.105721,"lon":128.461103},{"id":1600050,"name":"chojon","country":"kr","lat":34.971889,"lon":128.402765},{"id":1619410,"name":"oul","country":"kr","lat":35.48972,"lon":128.45202},{"id":1611912,"name":"kumol","country":"kr","lat":34.919684,"lon":128.467594},{"id":1631927,"name":"taepongdong","country":"kr","lat":34.847778,"lon":128.425278},{"id":1616867,"name":"namjongni","country":"kr","lat":34.816667,"lon":127.866667},{"id":1625522,"name":"sangsan","country":"kr","lat":35.492815,"lon":128.266409},{"id":1635299,"name":"tundoktong","country":"kr","lat":34.784722,"lon":127.7025},{"id":1597979,"name":"changchiri","country":"kr","lat":34.956111,"lon":128.236111},{"id":1635893,"name":"ulbit","country":"kr","lat":35.093757,"lon":128.426396},{"id":1617110,"name":"nanyang","country":"kr","lat":34.8,"lon":127.966667},{"id":1636179,"name":"ungchonni","country":"kr","lat":34.75,"lon":127.683333},{"id":1638974,"name":"yokchol","country":"kr","lat":34.807316,"lon":128.484325},{"id":1629663,"name":"songna","country":"kr","lat":35.336786,"lon":128.459987},{"id":1600933,"name":"chongyeri","country":"kr","lat":35.329733,"lon":128.495455},{"id":1622192,"name":"pugyangdong","country":"kr","lat":35.390369,"lon":128.34384},{"id":1631103,"name":"susalli","country":"kr","lat":34.854444,"lon":128.020278},{"id":1622448,"name":"punam","country":"kr","lat":35.315982,"lon":128.390167},{"id":1631439,"name":"taecholli","country":"kr","lat":35.199167,"lon":127.933333},{"id":1599725,"name":"chisanni","country":"kr","lat":35.118116,"lon":128.471073},{"id":1606715,"name":"hyojungni","country":"kr","lat":35.140556,"lon":127.543333},{"id":1616019,"name":"myongji","country":"kr","lat":34.827588,"lon":128.340708},{"id":1633656,"name":"tokkol","country":"kr","lat":34.94461,"lon":128.289958},{"id":1599050,"name":"chigum","country":"kr","lat":35.456586,"lon":128.310148},{"id":1622025,"name":"posanni","country":"kr","lat":34.883333,"lon":127.866667},{"id":1633470,"name":"tojang","country":"kr","lat":35.159613,"lon":128.279271},{"id":1627268,"name":"sindanggol","country":"kr","lat":35.212697,"lon":128.258307},{"id":1611884,"name":"kumjon","country":"kr","lat":34.716667,"lon":127.983333},{"id":1631934,"name":"taepori","country":"kr","lat":35.291389,"lon":127.824444},{"id":1638025,"name":"wonmulli","country":"kr","lat":34.869776,"lon":128.417275},{"id":1626744,"name":"shohori","country":"kr","lat":35.089284,"lon":128.459486},{"id":1632528,"name":"tangdong","country":"kr","lat":34.833333,"lon":128.411111},{"id":1616286,"name":"naedongni","country":"kr","lat":35.389167,"lon":127.876389},{"id":1610150,"name":"kogok","country":"kr","lat":35.206768,"lon":128.284983},