callback({"markets":[{"id":350358,"name":"richelieu","country":"ca","lat":45.45,"lon":-75.25},{"id":2990823,"name":"ogdensburg","country":"us","lat":44.6941667,"lon":-75.4866667},{"id":2988628,"name":"eben","country":"us","lat":44.6269444,"lon":-75.0655556},{"id":2988370,"name":"dishaw","country":"us","lat":44.8386111,"lon":-75.0405556},{"id":2989428,"name":"high flats","country":"us","lat":44.5933333,"lon":-74.8891667},{"id":2989409,"name":"heuvelton","country":"us","lat":44.6180556,"lon":-75.4075},{"id":2989899,"name":"laverys corner","country":"us","lat":44.7691667,"lon":-74.6716667},{"id":2988171,"name":"coteys corner","country":"us","lat":44.7761111,"lon":-74.6733333},{"id":2988140,"name":"coopers falls","country":"us","lat":44.5177778,"lon":-75.3386111},{"id":2991319,"name":"raymondville","country":"us","lat":44.8380556,"lon":-74.9783333},{"id":2988300,"name":"de kalb junction","country":"us","lat":44.505,"lon":-75.2741667},{"id":2987626,"name":"brasher falls","country":"us","lat":44.8075,"lon":-74.7741667},{"id":2991775,"name":"sisson","country":"us","lat":44.7055556,"lon":-74.9872222},{"id":2991967,"name":"southville","country":"us","lat":44.6736111,"lon":-74.8544444},{"id":2987420,"name":"beechertown","country":"us","lat":44.7019444,"lon":-74.7888889},{"id":347096,"name":"cardinal","country":"ca","lat":44.783333,"lon":-75.366667},{"id":2987625,"name":"brasher center","country":"us","lat":44.8672222,"lon":-74.7841667},{"id":2990215,"name":"massena springs","country":"us","lat":44.9144444,"lon":-74.8877778},{"id":2992847,"name":"winthrop","country":"us","lat":44.7947222,"lon":-74.7872222},{"id":348877,"name":"lancaster","country":"ca","lat":45.133333,"lon":-74.5},{"id":2990213,"name":"massena","country":"us","lat":44.9280556,"lon":-74.8922222},{"id":2990613,"name":"norfolk","country":"us","lat":44.8008333,"lon":-74.9913889},{"id":348150,"name":"glen robertson","country":"ca","lat":45.35,"lon":-74.5},{"id":349007,"name":"limoges","country":"ca","lat":45.333333,"lon":-75.25},{"id":347399,"name":"cornwall","country":"ca","lat":45.016667,"lon":-74.733333},{"id":349074,"name":"long sault","country":"ca","lat":45.033333,"lon":-74.9},{"id":2991310,"name":"raquette river","country":"us","lat":44.9511111,"lon":-74.7941667},{"id":2988561,"name":"east part","country":"us","lat":44.7655556,"lon":-74.8066667},{"id":2990110,"name":"madrid","country":"us","lat":44.7502778,"lon":-75.1313889},{"id":2987711,"name":"bucks bridge","country":"us","lat":44.705,"lon":-75.1594444},{"id":2989133,"name":"grantville","country":"us","lat":44.8594444,"lon":-74.9213889},{"id":2987817,"name":"canton","country":"us","lat":44.5955556,"lon":-75.1694444},{"id":2990970,"name":"parishville center","country":"us","lat":44.6288889,"lon":-74.8902778},{"id":2987933,"name":"chase mills","country":"us","lat":44.8488889,"lon":-75.0811111},{"id":2988400,"name":"drews corner","country":"us","lat":44.8477778,"lon":-75.1597222},{"id":2991781,"name":"skinnerville","country":"us","lat":44.7844444,"lon":-74.8161111},{"id":2988366,"name":"dickinson center","country":"us","lat":44.7175,"lon":-74.5530556},{"id":2989389,"name":"helena","country":"us","lat":44.9216667,"lon":-74.7266667},{"id":351502,"name":"upper canada village","country":"ca","lat":44.95,"lon":-75.066667},{"id":2990599,"name":"nicholville","country":"us","lat":44.6972222,"lon":-74.6597222},{"id":2987702,"name":"brushton","country":"us","lat":44.8302778,"lon":-74.5138889},{"id":2989722,"name":"kellogg","country":"us","lat":44.7330556,"lon":-74.7305556},{"id":2991585,"name":"sandfordville","country":"us","lat":44.7319444,"lon":-74.8997222},{"id":2990380,"name":"moira","country":"us","lat":44.8180556,"lon":-74.5561111},{"id":349951,"name":"pendleton","country":"ca","lat":45.45,"lon":-75.066667},{"id":2990057,"name":"louisville","country":"us","lat":44.8975,"lon":-75.0161111},{"id":2991773,"name":"sinclair corner","country":"us","lat":44.6436111,"lon":-74.8913889},{"id":2992810,"name":"willisville","country":"us","lat":44.5933333,"lon":-74.9386111},{"id":350498,"name":"russell","country":"ca","lat":45.26,"lon":-75.36},{"id":2991355,"name":"rensselaer falls","country":"us","lat":44.5919444,"lon":-75.3194444},{"id":2991559,"name":"saint regis falls","country":"us","lat":44.6738889,"lon":-74.5452778},{"id":347236,"name":"chesterville","country":"ca","lat":45.1,"lon":-75.216667},{"id":2991084,"name":"pierrepont","country":"us","lat":44.5422222,"lon":-75.0122222},{"id":2990736,"name":"north russell","country":"us","lat":44.5025,"lon":-75.1230556},{"id":2992302,"name":"tucker terrace","country":"us","lat":44.9486111,"lon":-74.9736111},{"id":2990238,"name":"mcewens corner","country":"us","lat":44.7658333,"lon":-74.6902778},{"id":347884,"name":"finch","country":"ca","lat":45.133333,"lon":-75.083333},{"id":346399,"name":"alexandria","country":"ca","lat":45.3,"lon":-74.633333},{"id":2990111,"name":"madrid springs","country":"us","lat":44.74,"lon":-75.1438889},{"id":349522,"name":"morrisburg","country":"ca","lat":44.9,"lon":-75.183333},{"id":348551,"name":"ingleside","country":"ca","lat":45.0,"lon":-75.0},{"id":349129,"name":"lunenburg","country":"ca","lat":45.06,"lon":-74.91},{"id":2992690,"name":"west potsdam","country":"us","lat":44.6869444,"lon":-75.09},{"id":351791,"name":"winchester","country":"ca","lat":45.1,"lon":-75.35},{"id":2987138,"name":"alburg","country":"us","lat":44.7772222,"lon":-74.5819444},{"id":2991080,"name":"pickettville","country":"us","lat":44.6088889,"lon":-74.8211111},{"id":2989978,"name":"lisbon","country":"us","lat":44.7272222,"lon":-75.3213889},{"id":2992081,"name":"stockholm center","country":"us","lat":44.7594444,"lon":-74.8319444},{"id":2990747,"name":"north stockholm","country":"us","lat":44.7694444,"lon":-74.935},{"id":2988879,"name":"fort jackson","country":"us","lat":44.7055556,"lon":-74.7152778},{"id":2988128,"name":"converse","country":"us","lat":44.6802778,"lon":-74.825},{"id":2992466,"name":"wagstaff corner","country":"us","lat":44.7616667,"lon":-74.7144444},{"id":2991276,"name":"pyrites","country":"us","lat":44.5147222,"lon":-75.1861111},{"id":2989410,"name":"hewittville","country":"us","lat":44.7044444,"lon":-75.0111111},{"id":2992677,"name":"west parishville","country":"us","lat":44.615,"lon":-74.9463889},{"id":2987860,"name":"catherineville","country":"us","lat":44.6294444,"lon":-74.7675},{"id":2992186,"name":"taylors corner","country":"us","lat":44.7686111,"lon":-74.6291667},{"id":2990709,"name":"north lawrence","country":"us","lat":44.805,"lon":-74.6752778},{"id":2990058,"name":"louisville corner","country":"us","lat":44.9091667,"lon":-75.0286111},{"id":2988630,"name":"eddy","country":"us","lat":44.54,"lon":-75.2369444},{"id":2989468,"name":"hogansburg","country":"us","lat":44.9738889,"lon":-74.6636111},{"id":2988206,"name":"crary mills","country":"us","lat":44.5775,"lon":-75.0672222},{"id":2989504,"name":"hopkinton","country":"us","lat":44.6902778,"lon":-74.7036111},{"id":2989902,"name":"lawrenceville","country":"us","lat":44.775,"lon":-74.65},{"id":2991155,"name":"plumbrook","country":"us","lat":44.8355556,"lon":-74.9072222},{"id":2990214,"name":"massena center","country":"us","lat":44.96,"lon":-74.8316667},{"id":2991872,"name":"south colton","country":"us","lat":44.5105556,"lon":-74.8880556},{"id":2991785,"name":"slab city","country":"us","lat":44.6697222,"lon":-75.0925},{"id":2988302,"name":"de peyster","country":"us","lat":44.5525,"lon":-75.4358333},{"id":2988095,"name":"colton","country":"us","lat":44.5530556,"lon":-74.94},{"id":348575,"name":"iroquois","country":"ca","lat":44.85,"lon":-75.316667},{"id":2988818,"name":"flackville","country":"us","lat":44.6652778,"lon":-75.3577778},{"id":2990054,"name":"lost village","country":"us","lat":44.6194444,"lon":-75.4927778},{"id":2989245,"name":"hague crossing","country":"us","lat":44.7277778,"lon":-75.2355556},{"id":2988270,"name":"dalton crossing","country":"us","lat":44.8536111,"lon":-75.1225},{"id":2990421,"name":"morley","country":"us","lat":44.665,"lon":-75.1991667},{"id":2987713,"name":"buckton","country":"us","lat":44.7383333,"lon":-74.7875},{"id":2988365,"name":"dickinson","country":"us","lat":44.7483333,"lon":-74.565},{"id":2987570,"name":"bombay","country":"us","lat":44.9388889,"lon":-74.5680556},{"id":2987627,"name":"brasher iron works","country":"us","lat":44.89,"lon":-74.6983333},{"id":2990782,"name":"norwood","country":"us","lat":44.7513889,"lon":-74.9947222},{"id":347137,"name":"casselman","country":"ca","lat":45.3,"lon":-75.083333},{"id":2990969,"name":"parishville","country":"us","lat":44.6286111,"lon":-74.8141667},{"id":349273,"name":"maxville","country":"ca","lat":45.283333,"lon":-74.85},{"id":2992459,"name":"waddington","country":"us","lat":44.8644444,"lon":-75.2044444},{"id":2991473,"name":"rooseveltown","country":"us","lat":44.9727778,"lon":-74.7313889},{"id":2989613,"name":"ironton","country":"us","lat":44.8983333,"lon":-74.6858333},{"id":2992310,"name":"turnbull corner","country":"us","lat":44.7747222,"lon":-75.1463889},{"id":2989296,"name":"hannawa falls","country":"us","lat":44.6122222,"lon":-74.9713889},{"id":2987975,"name":"chipman","country":"us","lat":44.7811111,"lon":-75.1963889},{"id":2991334,"name":"red mills","country":"us","lat":44.7583333,"lon":-75.3866667},{"id":2991558,"name":"saint regis","country":"us","lat":44.9972222,"lon":-74.6513889},{"id":2991223,"name":"potsdam","country":"us","lat":44.6697222,"lon":-74.9816667},{"id":2992707,"name":"west stockholm","country":"us","lat":44.7136111,"lon":-74.9011111},{"id":2991858,"name":"south bombay","country":"us","lat":44.89,"lon":-74.5547222},{"id":2992916,"name":"yaleville","country":"us","lat":44.7672222,"lon":-74.9927778}]});