callback({"markets":[{"id":135616,"name":"villa alianza","country":"ar","lat":-34.612605,"lon":-58.550473},{"id":130814,"name":"g. risos","country":"ar","lat":-34.855433,"lon":-59.216128},{"id":131304,"name":"juan vucetich","country":"ar","lat":-34.5,"lon":-58.8},{"id":131700,"name":"la noria","country":"ar","lat":-35.166667,"lon":-58.8},{"id":130768,"name":"goldey","country":"ar","lat":-34.601385,"lon":-59.285041},{"id":135814,"name":"villa luzuriaga","country":"ar","lat":-34.656819,"lon":-58.582186},{"id":128251,"name":"boulogne","country":"ar","lat":-34.507324,"lon":-58.565812},{"id":130796,"name":"gowlan","country":"ar","lat":-34.651043,"lon":-59.353337},{"id":135989,"name":"v.m. de hoz","country":"ar","lat":-34.623073,"lon":-58.575949},{"id":128205,"name":"billinghurst","country":"ar","lat":-34.579765,"lon":-58.585587},{"id":128653,"name":"caseros","country":"ar","lat":-34.600707,"lon":-58.564242},{"id":127384,"name":"abbott","country":"ar","lat":-35.282135,"lon":-58.804866},{"id":135084,"name":"sucre","country":"ar","lat":-34.5,"lon":-59.116667},{"id":130381,"name":"f. alvarez","country":"ar","lat":-34.633868,"lon":-58.858341},{"id":134446,"name":"san antonio de padua","country":"ar","lat":-34.664457,"lon":-58.707689},{"id":132079,"name":"la verde","country":"ar","lat":-34.721493,"lon":-59.270164},{"id":135813,"name":"villa luro","country":"ar","lat":-34.638139,"lon":-58.502728},{"id":132563,"name":"marcelo torcuato de alvear","country":"ar","lat":-34.65,"lon":-58.5},{"id":133719,"name":"presidente roque saenz pena","country":"ar","lat":-34.55,"lon":-58.5},{"id":131011,"name":"i. casanova","country":"ar","lat":-34.699328,"lon":-58.590412},{"id":135800,"name":"villa leloir","country":"ar","lat":-34.612184,"lon":-58.678337},{"id":132709,"name":"mercedes","country":"ar","lat":-34.651455,"lon":-59.430676},{"id":135502,"name":"uribelarrea","country":"ar","lat":-35.121629,"lon":-58.893934},{"id":135573,"name":"versailles","country":"ar","lat":-34.62749,"lon":-58.515041},{"id":131155,"name":"ituzaingo","country":"ar","lat":-34.655822,"lon":-58.658364},{"id":131851,"name":"las chacras","country":"ar","lat":-35.09099,"lon":-59.17454},{"id":128670,"name":"castelar","country":"ar","lat":-34.652403,"lon":-58.637467},{"id":135879,"name":"villa real","country":"ar","lat":-34.62077,"lon":-58.522402},{"id":131081,"name":"ingeniero williams","country":"ar","lat":-34.9,"lon":-59.366667},{"id":132407,"name":"lozano","country":"ar","lat":-34.850228,"lon":-59.053557},{"id":130655,"name":"general martin miguel de guemes","country":"ar","lat":-34.722959,"lon":-58.52979},{"id":132196,"name":"lomas del mirador","country":"ar","lat":-34.664841,"lon":-58.531957},{"id":135885,"name":"villa reichembach","country":"ar","lat":-34.655802,"lon":-58.69997},{"id":135302,"name":"t. jofre","country":"ar","lat":-34.700028,"lon":-59.319792},{"id":133610,"name":"pontevedra","country":"ar","lat":-34.749738,"lon":-58.686965},{"id":132568,"name":"marcos paz","country":"ar","lat":-34.780632,"lon":-58.837402},{"id":135440,"name":"t. suarez","country":"ar","lat":-34.892554,"lon":-58.568879},{"id":128508,"name":"canning","country":"ar","lat":-34.878345,"lon":-58.510544},{"id":133585,"name":"plomer","country":"ar","lat":-34.792097,"lon":-59.02971},{"id":130882,"name":"haedo","country":"ar","lat":-34.641909,"lon":-58.586642},{"id":132430,"name":"lujan","country":"ar","lat":-34.570278,"lon":-59.105},{"id":127377,"name":"6 de septiembre","country":"ar","lat":-34.653436,"lon":-58.619751},{"id":135801,"name":"villa leon","country":"ar","lat":-34.631973,"lon":-58.702601},{"id":130494,"name":"francisco a. berra","country":"ar","lat":-35.376187,"lon":-58.850921},{"id":130690,"name":"general san martin","country":"ar","lat":-34.570721,"lon":-58.524362},{"id":135780,"name":"villa iglesias","country":"ar","lat":-34.513053,"lon":-58.747247},{"id":130799,"name":"goyeneche","country":"ar","lat":-35.342951,"lon":-58.723526},{"id":127617,"name":"altamira","country":"ar","lat":-34.666598,"lon":-59.369154},{"id":130138,"name":"empalme lobos","country":"ar","lat":-35.148952,"lon":-59.086988},{"id":135636,"name":"villa ballester","country":"ar","lat":-34.545732,"lon":-58.546759},{"id":134264,"name":"r. mejia","country":"ar","lat":-34.640714,"lon":-58.563756},{"id":136072,"name":"zapiola","country":"ar","lat":-35.05902,"lon":-59.040978},{"id":135792,"name":"villa lamadrid","country":"ar","lat":-34.666667,"lon":-58.516667},{"id":128141,"name":"bella vista","country":"ar","lat":-34.564299,"lon":-58.676243},{"id":130695,"name":"general sarmiento","country":"ar","lat":-34.523889,"lon":-58.779444},{"id":135213,"name":"tapiales","country":"ar","lat":-34.699914,"lon":-58.508492},{"id":135126,"name":"tablada","country":"ar","lat":-34.687268,"lon":-58.527264},{"id":135805,"name":"villa linch","country":"ar","lat":-34.592559,"lon":-58.52493},{"id":135898,"name":"villars","country":"ar","lat":-34.82635,"lon":-58.940842},{"id":129272,"name":"comandante l. piedrabuena","country":"ar","lat":-34.683333,"lon":-58.5},{"id":130628,"name":"general hornos","country":"ar","lat":-34.890903,"lon":-58.925184},{"id":130687,"name":"general rodriguez","country":"ar","lat":-34.60838,"lon":-58.952534},{"id":135785,"name":"villa iturbe","country":"ar","lat":-34.526473,"lon":-58.746565},{"id":135958,"name":"villa zagala","country":"ar","lat":-34.551255,"lon":-58.537678},{"id":134329,"name":"r. perez","country":"ar","lat":-35.397945,"lon":-59.332707},{"id":134690,"name":"san miguel de monte","country":"ar","lat":-35.439616,"lon":-58.806748},{"id":131456,"name":"la choza","country":"ar","lat":-34.781982,"lon":-59.110069},{"id":135783,"name":"villa insuperable","country":"ar","lat":-34.670834,"lon":-58.511053},{"id":131221,"name":"j. leon suarez","country":"ar","lat":-34.53396,"lon":-58.570171},{"id":131533,"name":"laferrere","country":"ar","lat":-34.748296,"lon":-58.587911},{"id":132718,"name":"merlo","country":"ar","lat":-34.668544,"lon":-58.722246},{"id":129946,"name":"el palomar","country":"ar","lat":-34.541667,"lon":-58.615278},{"id":131191,"name":"jauregui","country":"ar","lat":-34.597429,"lon":-59.177779},{"id":133049,"name":"nueva chicago","country":"ar","lat":-34.665028,"lon":-58.503878},{"id":131726,"name":"la paz","country":"ar","lat":-35.3812,"lon":-59.386398},{"id":133122,"name":"olivera","country":"ar","lat":-34.625371,"lon":-59.25556},{"id":127564,"name":"alejandro petion","country":"ar","lat":-34.976944,"lon":-58.686944},{"id":135627,"name":"villa ansaldi","country":"ar","lat":-34.679599,"lon":-58.51445},{"id":133541,"name":"pinero","country":"ar","lat":-34.533333,"lon":-58.75},{"id":135611,"name":"villa adelina","country":"ar","lat":-34.522143,"lon":-58.539897},{"id":135693,"name":"villa de los patricios","country":"ar","lat":-34.619694,"lon":-58.537334},{"id":134061,"name":"rafael castillo","country":"ar","lat":-34.698573,"lon":-58.62706},{"id":133331,"name":"parque chas","country":"ar","lat":-34.583333,"lon":-58.5},{"id":135639,"name":"villa basso","country":"ar","lat":-34.63377,"lon":-58.591764},{"id":135670,"name":"villa colon","country":"ar","lat":-35.0,"lon":-59.016667},{"id":134436,"name":"san andres","country":"ar","lat":-34.563087,"lon":-58.545293},{"id":128289,"name":"buenos aires","country":"ar","lat":-34.5875,"lon":-58.6725},{"id":135645,"name":"villa bosch","country":"ar","lat":-34.586373,"lon":-58.574784},{"id":135042,"name":"s. lugares","country":"ar","lat":-34.600165,"lon":-58.545919},{"id":135803,"name":"villa libertad","country":"ar","lat":-34.583497,"lon":-58.567269},{"id":129127,"name":"colonia hogar ricardo gutierrez","country":"ar","lat":-34.84906,"lon":-58.835319},{"id":127558,"name":"aldo bonzi","country":"ar","lat":-34.706572,"lon":-58.518962},{"id":134085,"name":"ramon l. falcon","country":"ar","lat":-34.65,"lon":-58.516667},{"id":135549,"name":"v. casares","country":"ar","lat":-34.965766,"lon":-58.650142},{"id":134412,"name":"salvador maria","country":"ar","lat":-35.300935,"lon":-59.168206},{"id":130630,"name":"general j. de san martin","country":"ar","lat":-34.583333,"lon":-58.516667},{"id":130367,"name":"ezeiza","country":"ar","lat":-34.847868,"lon":-58.528689},{"id":134645,"name":"san justo","country":"ar","lat":-34.676597,"lon":-58.56058},{"id":128575,"name":"carboni","country":"ar","lat":-35.201302,"lon":-59.343735},{"id":132845,"name":"monte castro","country":"ar","lat":-34.616667,"lon":-58.5},{"id":132938,"name":"muniz","country":"ar","lat":-34.546751,"lon":-58.698398},{"id":132674,"name":"m. de pinazo","country":"ar","lat":-34.513461,"lon":-58.752346},{"id":135910,"name":"villa sanguinetti","country":"ar","lat":-34.649645,"lon":-58.755868},{"id":132941,"name":"munro","country":"ar","lat":-34.530868,"lon":-58.520126},{"id":130439,"name":"florida","country":"ar","lat":-34.533381,"lon":-58.509393},{"id":132588,"name":"mariana acosta","country":"ar","lat":-34.719866,"lon":-58.79309},{"id":133604,"name":"polvorines","country":"ar","lat":-34.503363,"lon":-58.695327},{"id":128518,"name":"canuelas","country":"ar","lat":-35.051841,"lon":-58.760613},{"id":127782,"name":"apeadero punke","country":"ar","lat":-35.466667,"lon":-58.983333},{"id":134509,"name":"san eladio","country":"ar","lat":-34.766667,"lon":-59.183333},{"id":131262,"name":"j. santos arevalo","country":"ar","lat":-35.174208,"lon":-59.223129},{"id":135871,"name":"villa progreso","country":"ar","lat":-34.590974,"lon":-58.527735},{"id":131786,"name":"la reja","country":"ar","lat":-34.639762,"lon":-58.825028},{"id":132177,"name":"lobos","country":"ar","lat":-35.182859,"lon":-59.089749},{"id":132983,"name":"navarro","country":"ar","lat":-35.005591,"lon":-59.276993},{"id":130758,"name":"gobernador udaondo","country":"ar","lat":-35.300438,"lon":-58.597071},{"id":129430,"name":"cortines","country":"ar","lat":-34.556026,"lon":-59.203757},{"id":128584,"name":"carlos beguerle","country":"ar","lat":-35.485372,"lon":-59.099628},{"id":130642,"name":"general las heras","country":"ar","lat":-34.927264,"lon":-58.946213},{"id":130150,"name":"enrique fynn","country":"ar","lat":-34.821498,"lon":-59.136528},{"id":134361,"name":"saenz pena","country":"ar","lat":-34.600521,"lon":-58.530082},{"id":135706,"name":"villa devoto","country":"ar","lat":-34.600638,"lon":-58.512313},{"id":133358,"name":"paso del rey","country":"ar","lat":-34.656222,"lon":-58.758981},{"id":131725,"name":"la paz chica","country":"ar","lat":-35.348127,"lon":-59.42789},{"id":127431,"name":"agote","country":"ar","lat":-34.642203,"lon":-59.360333},{"id":128957,"name":"ciudadela","country":"ar","lat":-34.637715,"lon":-58.540777},{"id":127703,"name":"anasagasti","country":"ar","lat":-35.007832,"lon":-59.389527},{"id":130109,"name":"elvira","country":"ar","lat":-35.244286,"lon":-59.483992},{"id":130582,"name":"g. catan","country":"ar","lat":-34.76895,"lon":-58.647136},{"id":129877,"name":"elias romero","country":"ar","lat":-34.766667,"lon":-58.866667},{"id":133788,"name":"puente cascallares","country":"ar","lat":-34.686217,"lon":-58.819624},{"id":132158,"name":"liniers","country":"ar","lat":-34.642857,"lon":-58.523858},{"id":132629,"name":"mataderos","country":"ar","lat":-34.666667,"lon":-58.5},{"id":127371,"name":"28 de septiembre","country":"ar","lat":-34.58831,"lon":-58.63905},{"id":132135,"name":"libertad","country":"ar","lat":-34.688909,"lon":-58.680097},{"id":132650,"name":"maximo paz","country":"ar","lat":-34.938782,"lon":-58.617879}]});