callback({"markets":[{"id":1870716,"name":"el capire","country":"mx","lat":18.333333,"lon":-99.933333},{"id":1915966,"name":"tulantengo","country":"mx","lat":18.3,"lon":-100.316667},{"id":1875605,"name":"el terrero blanco","country":"mx","lat":18.35,"lon":-100.166667},{"id":1860414,"name":"balsas sur","country":"mx","lat":18.0,"lon":-99.766667},{"id":1874729,"name":"el remanse","country":"mx","lat":18.1,"lon":-100.316667},{"id":1880955,"name":"jimotla","country":"mx","lat":17.883333,"lon":-100.183333},{"id":1886409,"name":"las fraguas","country":"mx","lat":18.258333,"lon":-100.491667},{"id":1874450,"name":"el puente de rio san juan","country":"mx","lat":18.225,"lon":-99.65},{"id":1870582,"name":"el cajete","country":"mx","lat":18.454167,"lon":-100.266667},{"id":1897370,"name":"petlacala","country":"mx","lat":17.766667,"lon":-100.283333},{"id":1868400,"name":"cuetzala de la reforma","country":"mx","lat":18.15,"lon":-99.758333},{"id":1858598,"name":"amacahuite","country":"mx","lat":17.958333,"lon":-100.066667},{"id":1911030,"name":"santo nino","country":"mx","lat":18.283333,"lon":-100.333333},{"id":1896631,"name":"paso de las laderas","country":"mx","lat":17.891667,"lon":-99.925},{"id":1917944,"name":"xocomanatlan","country":"mx","lat":17.55,"lon":-99.633333},{"id":1895449,"name":"otatlan","country":"mx","lat":17.666667,"lon":-100.15},{"id":1906234,"name":"san francisco","country":"mx","lat":17.766667,"lon":-100.35},{"id":1872013,"name":"eleodoro castillo","country":"mx","lat":17.5,"lon":-99.9},{"id":1899674,"name":"puerto viejo","country":"mx","lat":17.55,"lon":-100.116667},{"id":1886484,"name":"las habillas","country":"mx","lat":17.758333,"lon":-100.4},{"id":1906194,"name":"san francisco lagunita","country":"mx","lat":18.183333,"lon":-99.766667},{"id":1912966,"name":"tecalpulco","country":"mx","lat":18.483333,"lon":-99.633333},{"id":1886416,"name":"las funciciones","country":"mx","lat":17.6,"lon":-100.1},{"id":1917585,"name":"xalostoc","country":"mx","lat":18.416667,"lon":-99.716667},{"id":1914940,"name":"tlalaquipa","country":"mx","lat":18.225,"lon":-99.866667},{"id":1874151,"name":"el pinzon","country":"mx","lat":17.933333,"lon":-100.083333},{"id":1859067,"name":"apetlanca","country":"mx","lat":18.166667,"lon":-99.8},{"id":1898053,"name":"planta del zapotal","country":"mx","lat":18.266667,"lon":-99.566667},{"id":1872184,"name":"el frio","country":"mx","lat":17.583333,"lon":-100.133333},{"id":1892300,"name":"metlapa","country":"mx","lat":18.316667,"lon":-99.6},{"id":1917320,"name":"villa madero","country":"mx","lat":18.4,"lon":-100.45},{"id":1875642,"name":"el texcal","country":"mx","lat":18.383333,"lon":-100.083333},{"id":1904501,"name":"sacacoyuca","country":"mx","lat":18.233333,"lon":-99.55},{"id":1865212,"name":"chilacachapa","country":"mx","lat":18.283333,"lon":-99.716667},{"id":1905541,"name":"san bartolo","country":"mx","lat":18.225,"lon":-100.383333},{"id":1911265,"name":"sauces","country":"mx","lat":18.25,"lon":-99.833333},{"id":1864377,"name":"cerro verde","country":"mx","lat":18.341667,"lon":-100.116667},{"id":1914831,"name":"tlachilapa","country":"mx","lat":18.316667,"lon":-99.7},{"id":1916886,"name":"venta vieja","country":"mx","lat":17.85,"lon":-99.566667},{"id":1893494,"name":"moyoapan","country":"mx","lat":17.65,"lon":-99.616667},{"id":1913379,"name":"temazcalapa","country":"mx","lat":18.433333,"lon":-99.683333},{"id":1860032,"name":"azcala","country":"mx","lat":17.975,"lon":-99.666667},{"id":1864323,"name":"cerro pelon","country":"mx","lat":17.85,"lon":-100.0},{"id":1897524,"name":"piedra concha","country":"mx","lat":17.85,"lon":-100.2},{"id":1879973,"name":"iglesia vieja","country":"mx","lat":18.116667,"lon":-99.866667},{"id":1917887,"name":"xochilapa","country":"mx","lat":17.816667,"lon":-99.616667},{"id":1877113,"name":"filo de los caballos","country":"mx","lat":17.65,"lon":-99.833333},{"id":1879250,"name":"huacali viejo","country":"mx","lat":18.441667,"lon":-100.133333},{"id":1911656,"name":"simon tovar","country":"mx","lat":18.375,"lon":-100.133333},{"id":1902444,"name":"rancho nuevo","country":"mx","lat":18.466667,"lon":-100.333333},{"id":1859214,"name":"arcelia","country":"mx","lat":18.283333,"lon":-100.266667},{"id":1867429,"name":"corral de bravo","country":"mx","lat":17.625,"lon":-99.833333},{"id":1888255,"name":"limon real","country":"mx","lat":17.95,"lon":-99.833333},{"id":1899479,"name":"puerto de gallina","country":"mx","lat":17.533333,"lon":-100.25},{"id":1865073,"name":"chichihualco","country":"mx","lat":17.683333,"lon":-99.65},{"id":1917929,"name":"xochitla","country":"mx","lat":18.283333,"lon":-100.133333},{"id":1895810,"name":"palma real","country":"mx","lat":17.6,"lon":-99.633333},{"id":1870225,"name":"el aviluz","country":"mx","lat":18.233333,"lon":-100.275},{"id":1861046,"name":"benito juarez","country":"mx","lat":18.275,"lon":-100.466667},{"id":1908777,"name":"san pablo","country":"mx","lat":18.033333,"lon":-100.466667},{"id":1873241,"name":"el mirador","country":"mx","lat":18.216667,"lon":-99.816667},{"id":1858051,"name":"ahuehuetla","country":"mx","lat":18.316667,"lon":-99.966667},{"id":1866211,"name":"coacoyula","country":"mx","lat":18.025,"lon":-100.225},{"id":1858251,"name":"alcalmantlila","country":"mx","lat":18.133333,"lon":-99.75},{"id":1858417,"name":"almoloya","country":"mx","lat":18.35,"lon":-100.183333},{"id":1866296,"name":"coatepec costales","country":"mx","lat":18.333333,"lon":-99.75},{"id":1918827,"name":"zapotitla","country":"mx","lat":17.733333,"lon":-100.033333},{"id":1885104,"name":"la parota","country":"mx","lat":18.45,"lon":-100.25},{"id":1889489,"name":"los espinos","country":"mx","lat":18.35,"lon":-99.766667},{"id":1887972,"name":"la yerbabuena","country":"mx","lat":18.458333,"lon":-100.258333},{"id":1858689,"name":"amates grandes","country":"mx","lat":18.4,"lon":-100.133333},{"id":1868251,"name":"cuaxilotla","country":"mx","lat":18.166667,"lon":-99.833333},{"id":1867187,"name":"conndon","country":"mx","lat":18.35,"lon":-100.1},{"id":1894942,"name":"oculixtlahuacan","country":"mx","lat":18.45,"lon":-99.683333},{"id":1857968,"name":"ahoaxotitla","country":"mx","lat":18.15,"lon":-99.775},{"id":1878829,"name":"hacienda nueva","country":"mx","lat":18.316667,"lon":-100.333333},{"id":1915587,"name":"totoapan","country":"mx","lat":18.366667,"lon":-99.65},{"id":1915371,"name":"tonalapita del norte","country":"mx","lat":18.366667,"lon":-99.516667},{"id":1884726,"name":"la montana","country":"mx","lat":18.366667,"lon":-100.316667},{"id":1885914,"name":"las anonas","country":"mx","lat":17.875,"lon":-99.875},{"id":1895664,"name":"pailas","country":"mx","lat":18.433333,"lon":-100.183333},{"id":1915365,"name":"tonalapa del rio","country":"mx","lat":18.333333,"lon":-99.683333},{"id":1857226,"name":"acatlan de la cruz","country":"mx","lat":18.383333,"lon":-99.933333},{"id":1919146,"name":"zumpango","country":"mx","lat":17.65,"lon":-99.5},{"id":1908498,"name":"san miguel lindavista","country":"mx","lat":18.241667,"lon":-100.116667},{"id":1873409,"name":"el nanche","country":"mx","lat":18.216667,"lon":-100.491667},{"id":1870369,"name":"el barroso","country":"mx","lat":17.941667,"lon":-100.433333},{"id":1871905,"name":"el durazno del rosario","country":"mx","lat":17.75,"lon":-100.116667},{"id":1913487,"name":"tenantla","country":"mx","lat":17.883333,"lon":-99.666667},{"id":1857288,"name":"achotla","country":"mx","lat":18.15,"lon":-100.15},{"id":1888822,"name":"los aguajes","country":"mx","lat":18.416667,"lon":-99.95},{"id":1903884,"name":"rincon grande","country":"mx","lat":18.45,"lon":-100.333333},{"id":1918830,"name":"zapotito","country":"mx","lat":18.4,"lon":-99.966667},{"id":1887087,"name":"las pascuas","country":"mx","lat":17.9,"lon":-99.85},{"id":1880033,"name":"iguala","country":"mx","lat":18.35,"lon":-99.533333},{"id":1913767,"name":"tepehuaje","country":"mx","lat":18.133333,"lon":-99.616667},{"id":1857163,"name":"acapetlahuaya","country":"mx","lat":18.416667,"lon":-100.066667},{"id":1909484,"name":"santa ana","country":"mx","lat":18.216667,"lon":-100.425},{"id":1910850,"name":"santiago temixco","country":"mx","lat":18.483333,"lon":-99.641667},{"id":1862445,"name":"camotlan","country":"mx","lat":17.566667,"lon":-99.816667},{"id":1879950,"name":"icatepec","country":"mx","lat":18.4,"lon":-99.616667},{"id":1879033,"name":"hidalgo","country":"mx","lat":18.191667,"lon":-100.433333},{"id":1891815,"name":"mazapa","country":"mx","lat":17.916667,"lon":-99.7},{"id":1914860,"name":"tlacomulco","country":"mx","lat":17.766667,"lon":-99.833333},{"id":1915354,"name":"tomixtlahuacan","country":"mx","lat":17.983333,"lon":-99.816667},{"id":1913216,"name":"tehuehuetla","country":"mx","lat":17.8,"lon":-100.416667},{"id":1867873,"name":"cruz blanca","country":"mx","lat":18.341667,"lon":-100.083333},{"id":1867448,"name":"corral de piedra","country":"mx","lat":17.65,"lon":-99.95},{"id":1880373,"name":"ixtemalco","country":"mx","lat":17.533333,"lon":-99.6},{"id":1880299,"name":"ixpepec","country":"mx","lat":18.475,"lon":-100.091667},{"id":1897393,"name":"pezuapilla","country":"mx","lat":18.25,"lon":-99.9},{"id":1893859,"name":"nautzintal","country":"mx","lat":17.733333,"lon":-100.15},{"id":1862821,"name":"campuzano","country":"mx","lat":18.45,"lon":-99.6},{"id":1890129,"name":"los pericos","country":"mx","lat":17.85,"lon":-100.408333},{"id":1911071,"name":"santo tomas","country":"mx","lat":18.108333,"lon":-100.233333},{"id":1914538,"name":"tierras prietas","country":"mx","lat":17.6,"lon":-99.533333},{"id":1857227,"name":"acatlan del rio","country":"mx","lat":17.916667,"lon":-99.916667},{"id":1884183,"name":"la laguna seca","country":"mx","lat":18.275,"lon":-99.958333},{"id":1883111,"name":"la escalera","country":"mx","lat":17.733333,"lon":-99.833333},{"id":1875517,"name":"el tejamanil","country":"mx","lat":17.541667,"lon":-100.116667},{"id":1862702,"name":"campo morado","country":"mx","lat":17.583333,"lon":-100.083333},{"id":1914881,"name":"tlacotepec","country":"mx","lat":17.766667,"lon":-99.983333},{"id":1867389,"name":"coronilla","country":"mx","lat":17.866667,"lon":-100.25},{"id":1883586,"name":"la guitarra","country":"mx","lat":17.5,"lon":-100.075},{"id":1888163,"name":"liberaltepec","country":"mx","lat":18.216667,"lon":-100.066667},{"id":1888268,"name":"lindavista","country":"mx","lat":17.683333,"lon":-100.316667},{"id":1862454,"name":"campamento de vaca","country":"mx","lat":17.616667,"lon":-100.316667},{"id":1916809,"name":"velazquez","country":"mx","lat":17.866667,"lon":-100.341667},{"id":1863827,"name":"catana","country":"mx","lat":18.25,"lon":-100.35},{"id":1913456,"name":"tenancingo","country":"mx","lat":18.383333,"lon":-100.466667},{"id":1913176,"name":"tecuescontitlan","country":"mx","lat":18.15,"lon":-99.566667},{"id":1882749,"name":"la comunidad","country":"mx","lat":18.1,"lon":-100.35},{"id":1876257,"name":"emiliano zapata","country":"mx","lat":17.658333,"lon":-99.75},{"id":1893285,"name":"montoncuaguil","country":"mx","lat":18.466667,"lon":-100.225},{"id":1913977,"name":"tepoztepec","country":"mx","lat":18.15,"lon":-99.875},{"id":1886525,"name":"las huertas","country":"mx","lat":17.733333,"lon":-100.433333},{"id":1860419,"name":"baluarte","country":"mx","lat":17.791667,"lon":-100.025},{"id":1914329,"name":"texocotla","country":"mx","lat":18.033333,"lon":-99.9},{"id":1872038,"name":"el escondido","country":"mx","lat":18.216667,"lon":-100.3},{"id":1874191,"name":"el plan","country":"mx","lat":17.65,"lon":-99.966667},{"id":1858752,"name":"ameyaltepec","country":"mx","lat":17.966667,"lon":-99.5},{"id":1895604,"name":"pachivia","country":"mx","lat":18.4,"lon":-99.766667},{"id":1914872,"name":"tlacotenco","country":"mx","lat":17.791667,"lon":-99.933333},{"id":1860010,"name":"ayuguila","country":"mx","lat":18.1,"lon":-100.016667},{"id":1918353,"name":"yextla","country":"mx","lat":17.533333,"lon":-99.966667},{"id":1897995,"name":"plan de la cruz","country":"mx","lat":17.816667,"lon":-100.4},{"id":1871826,"name":"el devamador","country":"mx","lat":18.454167,"lon":-100.316667},{"id":1916645,"name":"valle xochil","country":"mx","lat":18.333333,"lon":-99.875},{"id":1859042,"name":"apatzingan","country":"mx","lat":18.258333,"lon":-99.8125},{"id":1913947,"name":"tepotzonalquillo","country":"mx","lat":18.266667,"lon":-99.9},{"id":1892451,"name":"mezquititlan","country":"mx","lat":17.733333,"lon":-99.55},{"id":1863591,"name":"carrizalillo","country":"mx","lat":17.866667,"lon":-99.716667},{"id":1858575,"name":"alvaro obregon","country":"mx","lat":18.25,"lon":-99.641667},{"id":1886773,"name":"las margaritas","country":"mx","lat":17.583333,"lon":-100.066667},{"id":1894604,"name":"nuevo leon","country":"mx","lat":18.283333,"lon":-100.166667},{"id":1914249,"name":"tetzilacatlan","country":"mx","lat":18.25,"lon":-100.033333},{"id":1918407,"name":"yolotla","country":"mx","lat":17.841667,"lon":-100.133333},{"id":1858446,"name":"alpixaha","country":"mx","lat":18.416667,"lon":-99.883333},{"id":1902459,"name":"rancho nuevos","country":"mx","lat":18.416667,"lon":-100.0},{"id":1875958,"name":"el varal","country":"mx","lat":17.75,"lon":-100.2},{"id":1862602,"name":"campo de aviacion","country":"mx","lat":17.65,"lon":-99.816667},{"id":1912332,"name":"talchapa","country":"mx","lat":18.4,"lon":-100.466667},{"id":1887037,"name":"las palmitas","country":"mx","lat":18.141667,"lon":-100.483333},{"id":1874205,"name":"el platanar","country":"mx","lat":17.716667,"lon":-99.533333},{"id":1905393,"name":"san antonio","country":"mx","lat":18.4,"lon":-100.25},{"id":1914931,"name":"tlajocotla","country":"mx","lat":18.233333,"lon":-99.9},{"id":1915369,"name":"tonalapa","country":"mx","lat":18.1,"lon":-99.566667},{"id":1908761,"name":"san pablo oriente","country":"mx","lat":18.183333,"lon":-100.366667},{"id":1916618,"name":"valle luz","country":"mx","lat":18.141667,"lon":-100.35},{"id":1906605,"name":"san jacinto","country":"mx","lat":18.45,"lon":-100.483333},{"id":1892930,"name":"moctezuma","country":"mx","lat":18.483333,"lon":-100.216667},{"id":1898056,"name":"plan verde","country":"mx","lat":17.675,"lon":-100.366667},{"id":1914242,"name":"tetoltepec","country":"mx","lat":18.266667,"lon":-100.083333},{"id":1898037,"name":"plan el sabino","country":"mx","lat":18.433333,"lon":-100.0},{"id":1908566,"name":"san miguel tecomatlan","country":"mx","lat":18.316667,"lon":-100.408333},{"id":1916859,"name":"venta de palula","country":"mx","lat":18.116667,"lon":-99.55},{"id":1863744,"name":"casa verde","country":"mx","lat":17.816667,"lon":-99.566667},{"id":1860062,"name":"azuchil","country":"mx","lat":18.466667,"lon":-100.283333},{"id":1913405,"name":"temixco","country":"mx","lat":18.15,"lon":-100.2},{"id":1892316,"name":"mexcala","country":"mx","lat":17.933333,"lon":-99.616667},{"id":1894561,"name":"nuevo copaltepec","country":"mx","lat":18.383333,"lon":-100.25},{"id":1915954,"name":"tuiatengo","country":"mx","lat":18.266667,"lon":-100.283333},{"id":1865276,"name":"chilpancinguito","country":"mx","lat":17.6,"lon":-100.166667},{"id":1889250,"name":"los chicahuales","country":"mx","lat":17.716667,"lon":-100.116667},{"id":1866421,"name":"cocula","country":"mx","lat":18.233333,"lon":-99.666667},{"id":1908538,"name":"san miguel","country":"mx","lat":18.133333,"lon":-100.383333},{"id":1867924,"name":"cruz de ocote","country":"mx","lat":17.55,"lon":-99.883333},{"id":1873015,"name":"el manchon","country":"mx","lat":18.133333,"lon":-100.033333},{"id":1881209,"name":"joya de pantla","country":"mx","lat":18.266667,"lon":-99.533333},{"id":1868402,"name":"cuetzala de progreso","country":"mx","lat":18.116667,"lon":-99.833333},{"id":1917404,"name":"vinatas","country":"mx","lat":17.816667,"lon":-99.85},{"id":1887415,"name":"las tunas","country":"mx","lat":17.933333,"lon":-100.225},{"id":1913324,"name":"teloloapan","country":"mx","lat":18.35,"lon":-99.85},{"id":1870553,"name":"el cacahuananche","country":"mx","lat":18.483333,"lon":-100.325},{"id":1893015,"name":"molinito","country":"mx","lat":17.983333,"lon":-100.416667},{"id":1884202,"name":"la lagunita","country":"mx","lat":17.783333,"lon":-99.7},{"id":1867932,"name":"cruz de piedra","country":"mx","lat":18.275,"lon":-100.033333},{"id":1883449,"name":"la gavia","country":"mx","lat":18.1,"lon":-100.358333},{"id":1858727,"name":"amealco","country":"mx","lat":18.466667,"lon":-99.708333},{"id":1860411,"name":"balsas","country":"mx","lat":17.983333,"lon":-99.783333},{"id":1913928,"name":"tepochica","country":"mx","lat":18.316667,"lon":-99.533333},{"id":1873003,"name":"el mamey","country":"mx","lat":17.733333,"lon":-100.275},{"id":1885107,"name":"la parota lidice","country":"mx","lat":18.466667,"lon":-100.016667},{"id":1873394,"name":"el municipio","country":"mx","lat":18.291667,"lon":-99.633333},{"id":1879843,"name":"huixtac","country":"mx","lat":18.458333,"lon":-99.65},{"id":1891795,"name":"mayotla","country":"mx","lat":17.925,"lon":-100.083333},{"id":1904394,"name":"rusas","country":"mx","lat":17.7,"lon":-100.183333},{"id":1879454,"name":"huaxtla","country":"mx","lat":18.416667,"lon":-99.633333},{"id":1918354,"name":"yeyecatlazala","country":"mx","lat":18.166667,"lon":-100.0},{"id":1917535,"name":"vuelta del rio","country":"mx","lat":18.466667,"lon":-100.3},{"id":1904406,"name":"sabana grande","country":"mx","lat":18.15,"lon":-99.55},{"id":1907277,"name":"san jose poliutla","country":"mx","lat":18.266667,"lon":-100.4},{"id":1909397,"name":"san simon","country":"mx","lat":18.483333,"lon":-100.116667},{"id":1894009,"name":"nicolas bravo","country":"mx","lat":18.25,"lon":-100.133333},{"id":1888257,"name":"limon terrero","country":"mx","lat":18.45,"lon":-100.283333},{"id":1879598,"name":"huerta vieja","country":"mx","lat":17.666667,"lon":-99.966667},{"id":1895966,"name":"palo alto","country":"mx","lat":18.35,"lon":-100.283333},{"id":1896423,"name":"paredes","country":"mx","lat":18.366667,"lon":-100.25},{"id":1880368,"name":"ixtayotla","country":"mx","lat":17.883333,"lon":-100.083333},{"id":1872716,"name":"el jiguero","country":"mx","lat":17.5,"lon":-100.016667},{"id":1860617,"name":"barranca honda","country":"mx","lat":18.466667,"lon":-100.25},{"id":1876785,"name":"estacion toro muerto","country":"mx","lat":17.566667,"lon":-100.266667},{"id":1914413,"name":"tianquizolco","country":"mx","lat":18.216667,"lon":-99.75},{"id":1858604,"name":"amacuahuitl","country":"mx","lat":18.233333,"lon":-100.25},{"id":1872931,"name":"el machito de las flores","country":"mx","lat":18.216667,"lon":-99.716667},{"id":1868194,"name":"cuaulotitlan","country":"mx","lat":18.35,"lon":-100.333333},{"id":1858698,"name":"amatitlan","country":"mx","lat":17.9,"lon":-99.65},{"id":1873897,"name":"el paso de amatitlan","country":"mx","lat":18.333333,"lon":-100.316667},{"id":1878881,"name":"hacienda vieja","country":"mx","lat":17.816667,"lon":-100.133333},{"id":1908478,"name":"san miguelito","country":"mx","lat":17.85,"lon":-100.116667},{"id":1886623,"name":"las juntas de zicatecoyan","country":"mx","lat":18.466667,"lon":-100.183333},{"id":1915096,"name":"tlapexpa","country":"mx","lat":18.325,"lon":-100.45},{"id":1865270,"name":"chilmaya","country":"mx","lat":18.05,"lon":-100.15},{"id":1872915,"name":"el lomillo","country":"mx","lat":17.583333,"lon":-100.416667},{"id":1913147,"name":"tecualoya","country":"mx","lat":17.9,"lon":-100.366667},{"id":1890473,"name":"los timontos","country":"mx","lat":17.716667,"lon":-99.783333},{"id":1897101,"name":"pena el organo","country":"mx","lat":18.458333,"lon":-100.25},{"id":1895536,"name":"oxtotitlan","country":"mx","lat":18.183333,"lon":-99.933333},{"id":1913729,"name":"tepatitlan","country":"mx","lat":17.966667,"lon":-100.283333},{"id":1858106,"name":"ajuchitlan","country":"mx","lat":18.15,"lon":-100.483333},{"id":1863990,"name":"ceja blanca","country":"mx","lat":18.3,"lon":-99.558333},{"id":1897276,"name":"pericotepec","country":"mx","lat":17.95,"lon":-100.2},{"id":1882228,"name":"la campana","country":"mx","lat":18.05,"lon":-99.716667},{"id":1890535,"name":"los varales","country":"mx","lat":17.716667,"lon":-100.483333},{"id":1875784,"name":"el trapichal","country":"mx","lat":18.008333,"lon":-100.0625},{"id":1866268,"name":"coapango","country":"mx","lat":17.5,"lon":-99.633333},{"id":1907795,"name":"san juan union","country":"mx","lat":18.433333,"lon":-99.633333},{"id":1919108,"name":"zoyacalco","country":"mx","lat":17.75,"lon":-99.958333},{"id":1909202,"name":"san rafael","country":"mx","lat":18.0,"lon":-100.433333},{"id":1910664,"name":"santa teresa","country":"mx","lat":18.233333,"lon":-99.516667},{"id":1889467,"name":"los encinos","country":"mx","lat":17.975,"lon":-100.191667},{"id":1859079,"name":"apipilulco","country":"mx","lat":18.183333,"lon":-99.683333},{"id":1864877,"name":"chautipan","country":"mx","lat":17.5,"lon":-99.75},{"id":1866328,"name":"coaxilopa","country":"mx","lat":18.425,"lon":-100.2},{"id":1899593,"name":"puerto las pastillas","country":"mx","lat":17.741667,"lon":-99.883333},{"id":1892467,"name":"miahuatepec","country":"mx","lat":18.366667,"lon":-100.233333},{"id":1910361,"name":"santa maria sur","country":"mx","lat":17.983333,"lon":-100.433333},{"id":1863684,"name":"casahualillo","country":"mx","lat":18.05,"lon":-100.05},{"id":1880253,"name":"ixcatepec","country":"mx","lat":18.283333,"lon":-100.183333},{"id":1879628,"name":"hueyanalco","country":"mx","lat":17.808333,"lon":-100.183333},{"id":1910215,"name":"santa maria de las flores","country":"mx","lat":18.05,"lon":-100.233333},{"id":1857992,"name":"ahuacatitlan","country":"mx","lat":18.366667,"lon":-99.816667},{"id":1918548,"name":"zacapostepec","country":"mx","lat":18.025,"lon":-99.95},{"id":1896228,"name":"pandoloma","country":"mx","lat":17.658333,"lon":-100.141667},{"id":1908650,"name":"san nicolas del oro","country":"mx","lat":17.9,"lon":-100.25},{"id":1872818,"name":"el limoncito","country":"mx","lat":18.433333,"lon":-100.233333},{"id":1864673,"name":"chapa","country":"mx","lat":18.316667,"lon":-99.816667},{"id":1893564,"name":"mumuxtitlan","country":"mx","lat":18.241667,"lon":-100.1},{"id":1876015,"name":"el verdecillo","country":"mx","lat":18.433333,"lon":-99.875},{"id":1863728,"name":"casas quemadas","country":"mx","lat":17.583333,"lon":-99.533333},{"id":1918521,"name":"zacacoyuca","country":"mx","lat":18.25,"lon":-99.533333},{"id":1917916,"name":"xochitepec","country":"mx","lat":18.166667,"lon":-100.15},{"id":1865006,"name":"chicahuates","country":"mx","lat":17.525,"lon":-99.925},{"id":1866079,"name":"ciudad bravos","country":"mx","lat":17.55,"lon":-99.5},{"id":1864749,"name":"chapultepec","country":"mx","lat":17.75,"lon":-99.9},{"id":1915062,"name":"tlanquizolco ixticapa","country":"mx","lat":18.35,"lon":-99.883333},{"id":1875544,"name":"el temblor","country":"mx","lat":18.4,"lon":-100.3125},{"id":1878521,"name":"guayatenco","country":"mx","lat":18.175,"lon":-100.45},{"id":1877032,"name":"felicidad","country":"mx","lat":17.666667,"lon":-100.083333},{"id":1916141,"name":"tuxtla cuevillas","country":"mx","lat":18.383333,"lon":-99.691667},{"id":1892379,"name":"mezcala","country":"mx","lat":17.916667,"lon":-99.616667},{"id":1873451,"name":"el naranjo","country":"mx","lat":18.383333,"lon":-100.258333},{"id":1915039,"name":"tlampatlan","country":"mx","lat":18.2,"lon":-99.983333},{"id":1870704,"name":"el canton","country":"mx","lat":18.4,"lon":-100.033333},{"id":1896304,"name":"papalotepec","country":"mx","lat":17.7625,"lon":-99.616667},{"id":1887459,"name":"las ventanas","country":"mx","lat":17.683333,"lon":-100.266667},{"id":1892827,"name":"miraval","country":"mx","lat":17.741667,"lon":-99.758333},{"id":1892209,"name":"mesas de mirabal","country":"mx","lat":18.3,"lon":-99.875},{"id":1918598,"name":"zacatlan de guerrero","country":"mx","lat":18.4,"lon":-99.983333},{"id":1884218,"name":"la laja","country":"mx","lat":18.1,"lon":-100.483333},{"id":1866290,"name":"coatepec","country":"mx","lat":17.766667,"lon":-99.766667},{"id":1866405,"name":"cocotitlan nuevo","country":"mx","lat":18.1,"lon":-99.716667},{"id":1893939,"name":"nejana","country":"mx","lat":18.191667,"lon":-99.9},{"id":1859054,"name":"apaxtla de castrejon","country":"mx","lat":18.15,"lon":-99.866667},{"id":1857696,"name":"agua escondida","country":"mx","lat":18.116667,"lon":-100.483333},{"id":1863081,"name":"canoas","country":"mx","lat":18.016667,"lon":-99.75},{"id":1870451,"name":"el bonete","country":"mx","lat":18.416667,"lon":-100.291667},{"id":1914262,"name":"teusisapan","country":"mx","lat":18.45,"lon":-99.708333},{"id":1895253,"name":"omiltemi","country":"mx","lat":17.5,"lon":-99.666667},{"id":1857179,"name":"acatempa","country":"mx","lat":18.316667,"lon":-99.866667},{"id":1887970,"name":"la yerbabuena","country":"mx","lat":18.433333,"lon":-99.916667},{"id":1903308,"name":"rancho viejo","country":"mx","lat":17.975,"lon":-100.483333},{"id":1876170,"name":"el zapote","country":"mx","lat":18.475,"lon":-100.3125},{"id":1884548,"name":"la mazimba","country":"mx","lat":17.583333,"lon":-100.383333},{"id":1917991,"name":"xonacaltla","country":"mx","lat":18.25,"lon":-99.583333},{"id":1891759,"name":"maxela","country":"mx","lat":18.05,"lon":-99.583333},{"id":1904192,"name":"rodeo","country":"mx","lat":17.916667,"lon":-100.1},{"id":1890831,"name":"magdalena","country":"mx","lat":18.466667,"lon":-99.816667},{"id":1872823,"name":"el limon de guadalupe","country":"mx","lat":18.1,"lon":-100.466667},{"id":1916858,"name":"venta del zopilote","country":"mx","lat":17.766667,"lon":-99.533333},{"id":1897391,"name":"pezuapan","country":"mx","lat":18.066667,"lon":-100.2},{"id":1884720,"name":"la monera","country":"mx","lat":18.233333,"lon":-99.683333},{"id":1879440,"name":"huautla","country":"mx","lat":17.85,"lon":-100.083333},{"id":1913106,"name":"tecomazuchil","country":"mx","lat":17.625,"lon":-100.05},{"id":1897330,"name":"pesoapa","country":"mx","lat":18.066667,"lon":-100.133333},{"id":1886610,"name":"las joyitas","country":"mx","lat":17.558333,"lon":-99.775},{"id":1896170,"name":"palula","country":"mx","lat":18.1,"lon":-99.541667},{"id":1914177,"name":"tetela del rio","country":"mx","lat":17.983333,"lon":-100.083333},{"id":1916575,"name":"valle de galeana","country":"mx","lat":18.133333,"lon":-100.233333},{"id":1917877,"name":"xochicalco","country":"mx","lat":18.216667,"lon":-100.183333},{"id":1864172,"name":"cerro alto","country":"mx","lat":18.375,"lon":-99.95},{"id":1905193,"name":"san antonio de la gavia","country":"mx","lat":18.116667,"lon":-100.383333},{"id":1915058,"name":"tlanipatlan","country":"mx","lat":18.225,"lon":-99.75},{"id":1916948,"name":"verde rico","country":"mx","lat":17.683333,"lon":-99.9},{"id":1880388,"name":"ixtlahuaca","country":"mx","lat":18.141667,"lon":-100.033333},{"id":1908604,"name":"san miguel vista hermosa","country":"mx","lat":17.95,"lon":-99.733333},{"id":1898006,"name":"plan de las libres","country":"mx","lat":17.875,"lon":-99.566667},{"id":1886142,"name":"las ceibas","country":"mx","lat":17.816667,"lon":-100.116667},{"id":1917579,"name":"xalitla","country":"mx","lat":18.016667,"lon":-99.55},{"id":1906393,"name":"san gregorio","country":"mx","lat":17.933333,"lon":-100.4},{"id":1911229,"name":"sasamuico","country":"mx","lat":18.15,"lon":-99.575},{"id":1880421,"name":"iyotla","country":"mx","lat":17.6,"lon":-99.733333},{"id":1886613,"name":"las juntas de azuchi","country":"mx","lat":18.483333,"lon":-100.275},{"id":1858986,"name":"antonio lopez mateos","country":"mx","lat":18.316667,"lon":-99.633333}]});