callback({"markets":[{"id":270869,"name":"barbecho","country":"bo","lat":-11.1833333,"lon":-69.1833333},{"id":291406,"name":"brasilia","country":"br","lat":-11.0,"lon":-68.733333},{"id":283063,"name":"salvatierra","country":"bo","lat":-11.2166667,"lon":-69.1333333},{"id":271096,"name":"buenos aires","country":"bo","lat":-11.0166667,"lon":-68.9833333},{"id":317460,"name":"seringal sacado","country":"br","lat":-10.933333,"lon":-69.25},{"id":284914,"name":"tres puentes","country":"bo","lat":-11.05,"lon":-68.7833333},{"id":312145,"name":"porvir novo","country":"br","lat":-10.866667,"lon":-68.6},{"id":271993,"name":"centro noayafrontera","country":"bo","lat":-11.0666667,"lon":-69.4666667},{"id":270832,"name":"bajio","country":"bo","lat":-11.2333333,"lon":-68.5833333},{"id":2083884,"name":"tahuamanu","country":"pe","lat":-11.3833333,"lon":-69.4666667},{"id":273768,"name":"corranes","country":"bo","lat":-11.0666667,"lon":-69.15},{"id":271984,"name":"centro ana","country":"bo","lat":-11.25,"lon":-68.8166667},{"id":283696,"name":"serpa","country":"bo","lat":-11.1,"lon":-68.5},{"id":2068385,"name":"esperanza","country":"pe","lat":-11.2833333,"lon":-69.3666667},{"id":277375,"name":"filadelfia","country":"bo","lat":-11.3333333,"lon":-68.7666667},{"id":271076,"name":"buen aire","country":"bo","lat":-11.2166667,"lon":-68.5166667},{"id":284936,"name":"trionto","country":"bo","lat":-10.9666667,"lon":-69.1833333},{"id":284693,"name":"tokio","country":"bo","lat":-11.0833333,"lon":-69.2666667},{"id":271936,"name":"cavalcanti","country":"bo","lat":-11.0833333,"lon":-68.5333333},{"id":271009,"name":"boca muyumanu","country":"bo","lat":-11.45,"lon":-69.05},{"id":274451,"name":"empresa","country":"bo","lat":-11.4666667,"lon":-68.8},{"id":270822,"name":"bagio","country":"bo","lat":-11.2,"lon":-68.6166667},{"id":285823,"name":"yokoama","country":"bo","lat":-11.25,"lon":-69.1666667},{"id":271991,"name":"centro grande","country":"bo","lat":-11.3333333,"lon":-69.1333333},{"id":282238,"name":"puerto flor","country":"bo","lat":-10.9833333,"lon":-69.25},{"id":285348,"name":"vesubio","country":"bo","lat":-11.2333333,"lon":-69.3},{"id":281423,"name":"paraiso","country":"bo","lat":-11.0166667,"lon":-68.8833333},{"id":280671,"name":"mukden","country":"bo","lat":-11.1833333,"lon":-69.0333333},{"id":307873,"name":"nova esperanca","country":"br","lat":-10.7,"lon":-68.5},{"id":272242,"name":"chapacura","country":"bo","lat":-11.4333333,"lon":-69.1333333},{"id":270371,"name":"alto porvenir","country":"bo","lat":-11.35,"lon":-69.2166667},{"id":312146,"name":"porvir","country":"br","lat":-10.916667,"lon":-68.616667},{"id":314880,"name":"santa fe","country":"br","lat":-10.833333,"lon":-68.583333},{"id":272934,"name":"cobija","country":"bo","lat":-11.0333333,"lon":-68.7333333},{"id":284905,"name":"tres estrellas","country":"bo","lat":-11.3,"lon":-69.25},{"id":2079847,"name":"puerto oyaque","country":"pe","lat":-11.4166667,"lon":-69.4333333},{"id":273669,"name":"contra","country":"bo","lat":-11.05,"lon":-69.25},{"id":312852,"name":"raimundo","country":"br","lat":-11.0,"lon":-68.566667},{"id":270825,"name":"bahia floresta","country":"bo","lat":-11.15,"lon":-68.7833333},{"id":307616,"name":"nazare","country":"br","lat":-10.6,"lon":-68.616667},{"id":285220,"name":"ururuqui","country":"bo","lat":-11.0333333,"lon":-68.9833333},{"id":329023,"name":"xapuri","country":"br","lat":-10.65,"lon":-68.516667},{"id":317112,"name":"sao vicente","country":"br","lat":-10.633333,"lon":-69.416667},{"id":282156,"name":"puente flor","country":"bo","lat":-11.0166667,"lon":-69.4166667},{"id":280950,"name":"ojo de mundo","country":"bo","lat":-10.9833333,"lon":-68.6},{"id":285339,"name":"vermelho","country":"bo","lat":-11.0666667,"lon":-68.8333333},{"id":270604,"name":"arashico","country":"bo","lat":-11.4,"lon":-68.8666667},{"id":274535,"name":"estacion","country":"bo","lat":-11.05,"lon":-68.8333333},{"id":2082135,"name":"san lorenzo","country":"pe","lat":-11.4666667,"lon":-69.3},{"id":316752,"name":"sao miguel","country":"br","lat":-10.916667,"lon":-69.416667},{"id":299643,"name":"fronteira","country":"br","lat":-10.583333,"lon":-68.966667},{"id":271091,"name":"buen jesus","country":"bo","lat":-11.4833333,"lon":-69.0333333},{"id":280773,"name":"napoleon","country":"bo","lat":-10.95,"lon":-69.35},{"id":273717,"name":"corazon","country":"bo","lat":-11.15,"lon":-69.2},{"id":272089,"name":"chaco","country":"bo","lat":-11.3333333,"lon":-68.8},{"id":273763,"name":"corralincha","country":"bo","lat":-11.05,"lon":-69.15},{"id":270309,"name":"alicia","country":"bo","lat":-10.9833333,"lon":-69.0333333},{"id":279484,"name":"lano","country":"bo","lat":-11.4166667,"lon":-68.5833333},{"id":304836,"name":"lua cheia","country":"br","lat":-10.566667,"lon":-68.816667},{"id":277374,"name":"fica","country":"bo","lat":-11.05,"lon":-68.5},{"id":278482,"name":"iruruqui","country":"bo","lat":-11.0333333,"lon":-68.9},{"id":273092,"name":"colores","country":"bo","lat":-11.0166667,"lon":-68.8166667},{"id":281541,"name":"patagonia","country":"bo","lat":-10.9666667,"lon":-69.1333333},{"id":274145,"name":"discusion","country":"bo","lat":-11.2166667,"lon":-69.2},{"id":280799,"name":"natal","country":"bo","lat":-10.9666667,"lon":-69.25}]});