callback({"markets":[{"id":151687,"name":"big bell","country":"au","lat":-27.35,"lon":117.666667},{"id":153404,"name":"cuddingwarra","country":"au","lat":-27.35,"lon":117.783333},{"id":156923,"name":"meekatharra","country":"au","lat":-26.59524,"lon":118.493927},{"id":160410,"name":"tuckannarra","country":"au","lat":-27.116667,"lon":118.083333},{"id":159026,"name":"reedy","country":"au","lat":-27.15,"lon":118.266667},{"id":157805,"name":"nannine","country":"au","lat":-26.883333,"lon":118.333333},{"id":153600,"name":"day dawn","country":"au","lat":-27.483333,"lon":117.85},{"id":153412,"name":"cue","country":"au","lat":-27.42395,"lon":117.897392}]});