callback({"markets":[{"id":2972474,"name":"wildwood","country":"us","lat":47.8905556,"lon":-93.9666667},{"id":2971307,"name":"hendrickson landing","country":"us","lat":48.3,"lon":-93.82},{"id":2970642,"name":"bigfork","country":"us","lat":47.7444444,"lon":-93.6538889},{"id":2971110,"name":"forest grove","country":"us","lat":47.9766667,"lon":-94.2311111},{"id":2971566,"name":"littlefork","country":"us","lat":48.3988889,"lon":-93.5555556},{"id":2972243,"name":"squaw lake","country":"us","lat":47.6325,"lon":-94.1361111},{"id":2971637,"name":"marcell","country":"us","lat":47.5930556,"lon":-93.6905556},{"id":2972296,"name":"talmoon","country":"us","lat":47.6,"lon":-93.7736111},{"id":2971425,"name":"kelliher","country":"us","lat":47.9416667,"lon":-94.4480556},{"id":2971718,"name":"mizpah","country":"us","lat":47.9241667,"lon":-94.2036111},{"id":2970481,"name":"alder","country":"us","lat":47.5616667,"lon":-93.7036111},{"id":2971951,"name":"pomroy","country":"us","lat":47.8175,"lon":-93.9927778},{"id":2970624,"name":"bergville","country":"us","lat":47.7875,"lon":-94.2641667},{"id":2972500,"name":"wisner","country":"us","lat":48.3069444,"lon":-93.6761111},{"id":2971856,"name":"orth","country":"us","lat":47.8391667,"lon":-94.315},{"id":2971550,"name":"lindford","country":"us","lat":48.4108333,"lon":-93.7816667},{"id":2971639,"name":"margie","country":"us","lat":48.0952778,"lon":-93.9397222},{"id":2971655,"name":"max","country":"us","lat":47.6147222,"lon":-94.0677778},{"id":2972234,"name":"spring lake","country":"us","lat":47.6425,"lon":-93.8677778},{"id":2972499,"name":"wirt","country":"us","lat":47.7305556,"lon":-93.9597222},{"id":2971374,"name":"inger","country":"us","lat":47.5541667,"lon":-93.985},{"id":2971160,"name":"gemmell","country":"us","lat":47.9733333,"lon":-94.1236111},{"id":2971208,"name":"grand falls","country":"us","lat":48.1986111,"lon":-93.7925},{"id":2971350,"name":"houpt","country":"us","lat":47.8005556,"lon":-94.3911111},{"id":2971811,"name":"northome","country":"us","lat":47.8725,"lon":-94.2802778},{"id":2971149,"name":"funkley","country":"us","lat":47.7836111,"lon":-94.4311111},{"id":2971406,"name":"jessie lake","country":"us","lat":47.6011111,"lon":-93.8169444},{"id":2972272,"name":"sturgeon river landing","country":"us","lat":48.2125,"lon":-93.8861111},{"id":2971072,"name":"fairland","country":"us","lat":48.4675,"lon":-94.1544444},{"id":2972066,"name":"rosy","country":"us","lat":47.6580556,"lon":-94.3058333},{"id":2970957,"name":"dora lake","country":"us","lat":47.7386111,"lon":-94.04},{"id":2971862,"name":"oslund","country":"us","lat":47.6555556,"lon":-94.0330556},{"id":2970494,"name":"alvwood","country":"us","lat":47.7305556,"lon":-94.2677778},{"id":2971011,"name":"effie","country":"us","lat":47.8402778,"lon":-93.6427778},{"id":2970635,"name":"big falls","country":"us","lat":48.1911111,"lon":-93.8063889},{"id":2970978,"name":"dunbar","country":"us","lat":47.6583333,"lon":-94.2244444},{"id":2972181,"name":"shooks","country":"us","lat":47.8741667,"lon":-94.4380556},{"id":2972423,"name":"wayland","country":"us","lat":48.4683333,"lon":-94.3202778},{"id":2970879,"name":"craigville","country":"us","lat":47.9030556,"lon":-93.6127778},{"id":2970679,"name":"bowstring","country":"us","lat":47.5430556,"lon":-93.7963889},{"id":2970613,"name":"ben linn landing","country":"us","lat":48.2505556,"lon":-93.8852778},{"id":2971936,"name":"pinetop","country":"us","lat":47.9058333,"lon":-94.1016667}]});