callback({"markets":[{"id":1804634,"name":"nyokorla","country":"ml","lat":14.4,"lon":-7.2333333},{"id":1807621,"name":"toubakoro","country":"ml","lat":13.8833333,"lon":-7.1833333},{"id":1808281,"name":"zankabougou","country":"ml","lat":13.7666667,"lon":-7.35},{"id":1797180,"name":"bokerela","country":"ml","lat":13.6,"lon":-7.4},{"id":1806750,"name":"taimana","country":"ml","lat":13.9166667,"lon":-6.7333333},{"id":1803525,"name":"moribougou kouna","country":"ml","lat":14.3666667,"lon":-7.2666667},{"id":1806666,"name":"soutourabougou","country":"ml","lat":13.55,"lon":-7.0333333},{"id":1802962,"name":"malo","country":"ml","lat":14.2666667,"lon":-7.3},{"id":1797787,"name":"dangedou","country":"ml","lat":14.35,"lon":-7.4},{"id":1797339,"name":"boudougou","country":"ml","lat":13.5,"lon":-7.4},{"id":1802165,"name":"koroninedo","country":"ml","lat":13.5,"lon":-7.2},{"id":1801679,"name":"kogoni","country":"ml","lat":13.8166667,"lon":-7.4666667},{"id":1801651,"name":"kodji","country":"ml","lat":14.3166667,"lon":-6.55},{"id":1804798,"name":"oueta","country":"ml","lat":13.6166667,"lon":-6.6},{"id":1805974,"name":"siguimana","country":"ml","lat":14.1666667,"lon":-7.2333333},{"id":1796907,"name":"belamougou","country":"ml","lat":14.3333333,"lon":-6.8833333},{"id":1808132,"name":"yemougou","country":"ml","lat":14.0666667,"lon":-6.8166667},{"id":1806180,"name":"siranvoga","country":"ml","lat":13.55,"lon":-7.1666667},{"id":1796562,"name":"banamba","country":"ml","lat":13.55,"lon":-7.45},{"id":1806301,"name":"sogoni","country":"ml","lat":13.95,"lon":-7.2166667},{"id":1804758,"name":"ouarde","country":"ml","lat":14.2666667,"lon":-6.7166667},{"id":1802578,"name":"koyana","country":"ml","lat":13.7666667,"lon":-7.25},{"id":1799746,"name":"flaninnbougou","country":"ml","lat":13.7833333,"lon":-7.1333333},{"id":1796566,"name":"bananble","country":"ml","lat":13.5,"lon":-6.85},{"id":1801606,"name":"koble","country":"ml","lat":14.1833333,"lon":-7.1833333},{"id":1806116,"name":"siradian","country":"ml","lat":13.95,"lon":-7.1666667},{"id":1801503,"name":"kindiola","country":"ml","lat":13.7166667,"lon":-7.1833333},{"id":1803999,"name":"newou","country":"ml","lat":14.15,"lon":-6.85},{"id":1805970,"name":"siguidanfan","country":"ml","lat":13.9833333,"lon":-7.3166667},{"id":1797929,"name":"demabougou","country":"ml","lat":13.9666667,"lon":-7.2},{"id":1798735,"name":"djikone","country":"ml","lat":14.2833333,"lon":-6.9333333},{"id":1798953,"name":"dosorola","country":"ml","lat":14.2,"lon":-7.4833333},{"id":1798364,"name":"dietou","country":"ml","lat":13.5666667,"lon":-7.2833333},{"id":1800902,"name":"kamiki","country":"ml","lat":13.6666667,"lon":-6.7666667},{"id":1806257,"name":"siyan","country":"ml","lat":13.7833333,"lon":-7.3833333},{"id":1798542,"name":"dionninnbougou","country":"ml","lat":13.65,"lon":-7.2166667},{"id":1800264,"name":"goumba","country":"ml","lat":13.8833333,"lon":-6.8},{"id":1797214,"name":"bomandyougou","country":"ml","lat":14.2833333,"lon":-7.45},{"id":1799239,"name":"dyonkoloni","country":"ml","lat":14.3333333,"lon":-7.2666667},{"id":1805431,"name":"sanga","country":"ml","lat":13.85,"lon":-6.9666667},{"id":1798809,"name":"dodougou","country":"ml","lat":13.65,"lon":-7.1666667},{"id":1801921,"name":"konani","country":"ml","lat":13.7666667,"lon":-6.9666667},{"id":1806674,"name":"srafinnkoro","country":"ml","lat":13.9166667,"lon":-7.1},{"id":1806179,"name":"sirani","country":"ml","lat":13.9166667,"lon":-7.2},{"id":1797722,"name":"dalebougo","country":"ml","lat":14.3166667,"lon":-7.2666667},{"id":1801517,"name":"kino","country":"ml","lat":14.3333333,"lon":-7.3666667},{"id":1802949,"name":"malebougou","country":"ml","lat":13.6166667,"lon":-7.45},{"id":1806467,"name":"sorobala","country":"ml","lat":13.75,"lon":-7.35},{"id":1799769,"name":"folanta","country":"ml","lat":13.7166667,"lon":-6.8333333},{"id":1806274,"name":"sobougou fitobe","country":"ml","lat":14.0,"lon":-7.4166667},{"id":1800489,"name":"guinian","country":"ml","lat":13.5833333,"lon":-7.1333333},{"id":1806900,"name":"tantani","country":"ml","lat":14.45,"lon":-6.5666667},{"id":1803604,"name":"mourdhia","country":"ml","lat":14.4666667,"lon":-7.4666667},{"id":1796608,"name":"banbila","country":"ml","lat":13.85,"lon":-7.3666667},{"id":1799933,"name":"galamadibi","country":"ml","lat":13.5,"lon":-7.4833333},{"id":1804022,"name":"nganou","country":"ml","lat":13.7,"lon":-7.3833333},{"id":1800254,"name":"gouloumba","country":"ml","lat":13.95,"lon":-7.3666667},{"id":1801483,"name":"kilikon","country":"ml","lat":14.1333333,"lon":-7.3333333},{"id":1803917,"name":"ndondila","country":"ml","lat":14.2,"lon":-6.65},{"id":1798492,"name":"diomadie","country":"ml","lat":13.95,"lon":-7.4333333},{"id":1803882,"name":"ndenematou","country":"ml","lat":14.3,"lon":-6.5833333},{"id":1808062,"name":"woro","country":"ml","lat":13.7166667,"lon":-7.4833333},{"id":1798360,"name":"diessourouna","country":"ml","lat":13.8833333,"lon":-6.6666667},{"id":1803531,"name":"moribougou traoure","country":"ml","lat":13.8,"lon":-7.3833333},{"id":1799442,"name":"fanibougou","country":"ml","lat":14.05,"lon":-7.0166667},{"id":1805962,"name":"siewole","country":"ml","lat":13.5333333,"lon":-7.3},{"id":1804818,"name":"ouleni","country":"ml","lat":13.7166667,"lon":-7.3},{"id":1798290,"name":"diego","country":"ml","lat":13.7333333,"lon":-7.1333333},{"id":1799091,"name":"dounde","country":"ml","lat":14.0833333,"lon":-6.9833333},{"id":1808165,"name":"yoko","country":"ml","lat":13.8833333,"lon":-7.3166667},{"id":1803530,"name":"moribougou tiguira","country":"ml","lat":13.8333333,"lon":-7.3333333},{"id":1806195,"name":"siribila","country":"ml","lat":13.8666667,"lon":-7.3833333},{"id":1807441,"name":"tlokobougou","country":"ml","lat":14.3333333,"lon":-6.8333333},{"id":1801175,"name":"kassorola","country":"ml","lat":14.1333333,"lon":-7.4166667},{"id":1801571,"name":"kobadeguie","country":"ml","lat":13.7333333,"lon":-7.4833333},{"id":1805839,"name":"serimana","country":"ml","lat":13.5333333,"lon":-7.15},{"id":1798549,"name":"dionvola","country":"ml","lat":13.6,"lon":-6.6833333},{"id":1796677,"name":"baniamebougou","country":"ml","lat":13.5333333,"lon":-6.7166667},{"id":1804084,"name":"ngouna","country":"ml","lat":13.6333333,"lon":-7.3666667},{"id":1797697,"name":"dakolobougou","country":"ml","lat":14.0333333,"lon":-7.4666667},{"id":1798851,"name":"dole","country":"ml","lat":13.5,"lon":-6.9666667},{"id":1798031,"name":"diado","country":"ml","lat":13.5,"lon":-6.5166667},{"id":1799178,"name":"dyango","country":"ml","lat":14.3666667,"lon":-6.8333333},{"id":1805625,"name":"sebete","country":"ml","lat":14.0333333,"lon":-7.15},{"id":1796635,"name":"baneguebougou","country":"ml","lat":14.0166667,"lon":-7.4333333},{"id":1797454,"name":"boumoundo","country":"ml","lat":13.7666667,"lon":-7.3833333},{"id":1802851,"name":"madina konare","country":"ml","lat":14.1333333,"lon":-7.0166667},{"id":1801259,"name":"keke","country":"ml","lat":14.1666667,"lon":-7.35},{"id":1800455,"name":"guibile","country":"ml","lat":13.7333333,"lon":-7.3833333},{"id":1803716,"name":"naka","country":"ml","lat":14.3166667,"lon":-7.4},{"id":1801638,"name":"kodiani ouere","country":"ml","lat":13.5333333,"lon":-6.75},{"id":1803176,"name":"markaninnbougou","country":"ml","lat":13.7833333,"lon":-7.15},{"id":1797340,"name":"bouela","country":"ml","lat":13.7833333,"lon":-7.3333333},{"id":1803284,"name":"medina keita","country":"ml","lat":14.4333333,"lon":-7.0833333},{"id":1807694,"name":"toumofing","country":"ml","lat":14.0333333,"lon":-6.9166667},{"id":1799936,"name":"galama","country":"ml","lat":14.1333333,"lon":-6.55},{"id":1799861,"name":"fouroukoro","country":"ml","lat":13.5166667,"lon":-6.9333333},{"id":1799238,"name":"dyonke","country":"ml","lat":14.4333333,"lon":-7.4166667},{"id":1805575,"name":"sasa","country":"ml","lat":14.2,"lon":-6.5},{"id":1807541,"name":"tondourouba","country":"ml","lat":13.8333333,"lon":-6.75},{"id":1805758,"name":"semene","country":"ml","lat":13.9833333,"lon":-7.15},{"id":1797808,"name":"dankolo","country":"ml","lat":13.6,"lon":-7.4166667},{"id":1806930,"name":"tara","country":"ml","lat":13.5,"lon":-7.15},{"id":1801070,"name":"karafabougou","country":"ml","lat":14.05,"lon":-7.4666667},{"id":1807648,"name":"toukoroba","country":"ml","lat":13.6166667,"lon":-7.0333333},{"id":1805014,"name":"piebougou","country":"ml","lat":13.9,"lon":-7.2333333},{"id":1808037,"name":"wolokoro","country":"ml","lat":13.5666667,"lon":-6.5},{"id":1804020,"name":"nganoumba","country":"ml","lat":13.6833333,"lon":-7.4166667},{"id":1796375,"name":"bagadadie","country":"ml","lat":13.8333333,"lon":-7.1},{"id":1799461,"name":"fantanbougou","country":"ml","lat":13.5,"lon":-6.6333333},{"id":1798504,"name":"dionbile","country":"ml","lat":13.6666667,"lon":-7.1333333},{"id":1800217,"name":"goudji tourela","country":"ml","lat":14.2666667,"lon":-6.55},{"id":1798366,"name":"difia","country":"ml","lat":13.55,"lon":-7.3833333},{"id":1805987,"name":"sikolo","country":"ml","lat":13.5333333,"lon":-7.35},{"id":1798908,"name":"donguene","country":"ml","lat":14.1166667,"lon":-6.85},{"id":1798238,"name":"diassani","country":"ml","lat":13.5833333,"lon":-7.4666667},{"id":1803042,"name":"mangasi","country":"ml","lat":14.1333333,"lon":-7.3},{"id":1803092,"name":"manta","country":"ml","lat":13.5,"lon":-7.05},{"id":1807614,"name":"touana","country":"ml","lat":13.6333333,"lon":-7.4833333},{"id":1808050,"name":"wondiona","country":"ml","lat":13.6166667,"lon":-7.3833333},{"id":1806514,"name":"souakou","country":"ml","lat":13.85,"lon":-6.9},{"id":1804238,"name":"niare","country":"ml","lat":13.85,"lon":-7.3166667},{"id":1806439,"name":"sonongo","country":"ml","lat":13.8,"lon":-6.65},{"id":1798286,"name":"diedougou","country":"ml","lat":13.55,"lon":-7.1333333},{"id":1799981,"name":"ganfatou","country":"ml","lat":13.7666667,"lon":-6.7833333},{"id":1807517,"name":"tomona","country":"ml","lat":13.5,"lon":-6.9},{"id":1804420,"name":"nomobougou","country":"ml","lat":13.5833333,"lon":-7.45},{"id":1804559,"name":"n\u0027toninkoro","country":"ml","lat":13.5,"lon":-7.0333333},{"id":1797210,"name":"bolonka","country":"ml","lat":13.5833333,"lon":-6.75},{"id":1804557,"name":"ntomono","country":"ml","lat":14.2666667,"lon":-6.7},{"id":1798248,"name":"diatoroubougou","country":"ml","lat":13.6166667,"lon":-7.4166667},{"id":1796938,"name":"belleko","country":"ml","lat":13.6166667,"lon":-7.3333333},{"id":1805244,"name":"samandoura","country":"ml","lat":14.2666667,"lon":-6.9},{"id":1804576,"name":"ntyebougou","country":"ml","lat":14.45,"lon":-6.8666667},{"id":1801694,"name":"koio","country":"ml","lat":13.8166667,"lon":-7.05},{"id":1803301,"name":"meikele","country":"ml","lat":13.9833333,"lon":-7.4666667},{"id":1807817,"name":"tyemabala","country":"ml","lat":14.1,"lon":-7.4},{"id":1804485,"name":"ntakabougou","country":"ml","lat":13.85,"lon":-7.4833333},{"id":1805124,"name":"safaena","country":"ml","lat":13.7666667,"lon":-7.4833333},{"id":1797108,"name":"blanegoudia","country":"ml","lat":13.75,"lon":-7.4833333},{"id":1805648,"name":"segela","country":"ml","lat":14.1166667,"lon":-6.7333333},{"id":1804343,"name":"niokonongo","country":"ml","lat":13.9666667,"lon":-6.9},{"id":1800966,"name":"kandila","country":"ml","lat":13.8333333,"lon":-7.2833333},{"id":1801699,"name":"koitala","country":"ml","lat":13.5666667,"lon":-7.2666667},{"id":1796911,"name":"beleelinko","country":"ml","lat":13.55,"lon":-7.4166667},{"id":1801456,"name":"kiban","country":"ml","lat":13.5833333,"lon":-7.35},{"id":1805979,"name":"siguiniona","country":"ml","lat":13.6833333,"lon":-6.6666667},{"id":1804005,"name":"ngabaninnkoro","country":"ml","lat":13.6,"lon":-7.2666667},{"id":1797274,"name":"boronba","country":"ml","lat":13.9,"lon":-7.4333333},{"id":1802048,"name":"kono","country":"ml","lat":13.7833333,"lon":-7.25},{"id":1807214,"name":"tienikoroba","country":"ml","lat":13.7833333,"lon":-7.4166667},{"id":1808261,"name":"zanga","country":"ml","lat":13.6833333,"lon":-7.2166667},{"id":1797732,"name":"damadie","country":"ml","lat":13.8666667,"lon":-7.4333333},{"id":1799323,"name":"fafa","country":"ml","lat":13.6333333,"lon":-7.0666667},{"id":1803506,"name":"monzona","country":"ml","lat":13.9166667,"lon":-7.3166667},{"id":1801118,"name":"karewal","country":"ml","lat":14.4166667,"lon":-6.9},{"id":1804703,"name":"ortobila","country":"ml","lat":14.0,"lon":-7.25},{"id":1800441,"name":"guesserebougou","country":"ml","lat":13.5333333,"lon":-7.2166667}]});