callback({"markets":[{"id":1355907,"name":"selbari","country":"in","lat":20.866667,"lon":74.133333},{"id":1326568,"name":"bhamer","country":"in","lat":21.066667,"lon":74.333333},{"id":1338806,"name":"kalvan","country":"in","lat":20.5,"lon":74.016667},{"id":1338288,"name":"kahdaibari","country":"in","lat":21.116667,"lon":74.133333},{"id":1360758,"name":"vaygaon","country":"in","lat":20.65,"lon":74.35},{"id":1360560,"name":"vajpur","country":"in","lat":21.333333,"lon":73.75},{"id":1343274,"name":"lakhmapur","country":"in","lat":20.55,"lon":74.35},{"id":1348826,"name":"navapur","country":"in","lat":21.15,"lon":73.8},{"id":1351759,"name":"pimpri","country":"in","lat":20.8,"lon":73.583333},{"id":1326367,"name":"bhadvad","country":"in","lat":21.316667,"lon":74.1},{"id":1354362,"name":"rupdevli","country":"in","lat":21.45,"lon":73.85},{"id":1354796,"name":"sakri","country":"in","lat":20.983333,"lon":74.316667},{"id":1360799,"name":"velda","country":"in","lat":21.483333,"lon":74.15},{"id":1335919,"name":"hatgarh","country":"in","lat":20.533333,"lon":73.75},{"id":1360740,"name":"vasurna","country":"in","lat":20.7,"lon":73.666667},{"id":1360168,"name":"umarpada","country":"in","lat":21.45,"lon":73.5},{"id":1358021,"name":"surgana","country":"in","lat":20.566667,"lon":73.616667},{"id":1356127,"name":"shahada","country":"in","lat":21.466667,"lon":74.3},{"id":1349243,"name":"nijhar","country":"in","lat":21.483333,"lon":74.2},{"id":1343761,"name":"linga","country":"in","lat":20.7,"lon":73.766667},{"id":1356415,"name":"shevali","country":"in","lat":20.833333,"lon":74.45},{"id":1360715,"name":"varse","country":"in","lat":20.916667,"lon":73.983333},{"id":1340504,"name":"khakurdi","country":"in","lat":20.683333,"lon":74.416667},{"id":1353505,"name":"ranala","country":"in","lat":21.333333,"lon":74.4},{"id":1347159,"name":"mulher","country":"in","lat":20.766667,"lon":74.066667},{"id":1326499,"name":"bhaitana","country":"in","lat":20.6,"lon":73.9},{"id":1359624,"name":"tokarwa","country":"in","lat":21.316667,"lon":73.733333},{"id":1333889,"name":"garvi","country":"in","lat":20.833333,"lon":73.683333},{"id":1341486,"name":"kirli","country":"in","lat":20.85,"lon":73.8},{"id":1339001,"name":"kanasi","country":"in","lat":20.533333,"lon":73.9},{"id":1336909,"name":"jaikhedan","country":"in","lat":20.783333,"lon":74.2},{"id":1358189,"name":"taharabad","country":"in","lat":20.766667,"lon":74.133333},{"id":1357487,"name":"songadh","country":"in","lat":21.166667,"lon":73.566667},{"id":1328052,"name":"borvihir","country":"in","lat":21.033333,"lon":73.833333},{"id":1353599,"name":"ranianiba","country":"in","lat":20.983333,"lon":73.516667},{"id":1358479,"name":"tana","country":"in","lat":20.733333,"lon":74.2},{"id":1337170,"name":"jamdar","country":"in","lat":20.616667,"lon":73.783333},{"id":1339802,"name":"kasare","country":"in","lat":20.933333,"lon":74.266667},{"id":1329451,"name":"chhadvel","country":"in","lat":21.216667,"lon":74.25},{"id":1357508,"name":"sonpara","country":"in","lat":21.316667,"lon":73.983333},{"id":1360876,"name":"verul","country":"in","lat":20.55,"lon":73.866667},{"id":1342432,"name":"kuher","country":"in","lat":21.05,"lon":74.016667},{"id":1322522,"name":"amalpada","country":"in","lat":21.25,"lon":73.683333},{"id":1330505,"name":"dahivel","country":"in","lat":21.066667,"lon":74.166667},{"id":1357012,"name":"singpur","country":"in","lat":21.266667,"lon":73.516667},{"id":1359006,"name":"thanepada","country":"in","lat":21.266667,"lon":74.266667},{"id":1351813,"name":"pipalner","country":"in","lat":20.95,"lon":74.116667},{"id":1332234,"name":"dighave","country":"in","lat":20.9,"lon":74.216667},{"id":1330047,"name":"chodwan","country":"in","lat":21.416667,"lon":73.833333},{"id":1337638,"name":"jhalambi","country":"in","lat":21.183333,"lon":73.916667},{"id":1341934,"name":"koparli","country":"in","lat":21.433333,"lon":74.433333},{"id":1353932,"name":"raygad","country":"in","lat":21.466667,"lon":74.016667},{"id":1329730,"name":"chikli","country":"in","lat":21.466667,"lon":73.966667},{"id":1336581,"name":"indva","country":"in","lat":21.233333,"lon":74.45},{"id":1330740,"name":"dangshirvade","country":"in","lat":20.916667,"lon":74.016667},{"id":1348537,"name":"narayanpur","country":"in","lat":21.216667,"lon":73.716667},{"id":1328040,"name":"borpada","country":"in","lat":21.133333,"lon":73.933333},{"id":1331510,"name":"dhaita","country":"in","lat":21.25,"lon":73.866667},{"id":1348354,"name":"nandurbar","country":"in","lat":21.366667,"lon":74.25},{"id":1348246,"name":"nampur","country":"in","lat":20.716667,"lon":74.316667},{"id":1360494,"name":"vadel","country":"in","lat":20.633333,"lon":74.466667},{"id":1322133,"name":"ahwa","country":"in","lat":20.75,"lon":73.683333},{"id":1343646,"name":"lavchali","country":"in","lat":21.033333,"lon":73.716667},{"id":1346404,"name":"mhasdi","country":"in","lat":20.883333,"lon":74.433333},{"id":1348201,"name":"nal","country":"in","lat":21.45,"lon":73.716667},{"id":1328651,"name":"chakra","country":"in","lat":21.466667,"lon":73.633333},{"id":1334049,"name":"ghana","country":"in","lat":20.883333,"lon":73.716667},{"id":1333853,"name":"garkhadi","country":"in","lat":20.8,"lon":73.883333},{"id":1324513,"name":"balsana","country":"in","lat":21.166667,"lon":74.483333},{"id":1350164,"name":"palasvihir","country":"in","lat":20.933333,"lon":73.833333},{"id":1332914,"name":"dusana","country":"in","lat":21.15,"lon":74.433333},{"id":1359084,"name":"thengode","country":"in","lat":20.516667,"lon":74.2},{"id":1328088,"name":"brahmanvel","country":"in","lat":21.15,"lon":74.216667},{"id":1355671,"name":"satana","country":"in","lat":20.583333,"lon":74.2},{"id":1328077,"name":"brahmangaon","country":"in","lat":20.55,"lon":74.3},{"id":1331341,"name":"desran","country":"in","lat":20.566667,"lon":73.983333},{"id":1361019,"name":"visarwari","country":"in","lat":21.183333,"lon":73.966667}]});