callback({"markets":[{"id":585746,"name":"sidaoyingzi","country":"cn","lat":41.034167,"lon":115.418056},{"id":433631,"name":"changdi","country":"cn","lat":40.9,"lon":115.116667},{"id":429217,"name":"bianlicun","country":"cn","lat":41.036389,"lon":114.936389},{"id":452958,"name":"dashuiquan","country":"cn","lat":41.222222,"lon":115.232222},{"id":497896,"name":"hungniwan","country":"cn","lat":40.85,"lon":115.0},{"id":425713,"name":"banshentu","country":"cn","lat":41.205,"lon":115.282222},{"id":582340,"name":"shizuizi","country":"cn","lat":40.988056,"lon":114.999444},{"id":648430,"name":"zhangbei muchang","country":"cn","lat":41.416667,"lon":114.966667},{"id":457404,"name":"disantun","country":"cn","lat":40.666667,"lon":114.578333},{"id":648059,"name":"zhaimiangou","country":"cn","lat":41.05,"lon":115.4},{"id":630274,"name":"xiyuanshanzi","country":"cn","lat":41.071944,"lon":114.820833},{"id":470283,"name":"ganzhuangzi","country":"cn","lat":40.632778,"lon":114.894722},{"id":602871,"name":"tumaoying","country":"cn","lat":41.345833,"lon":115.106667},{"id":557153,"name":"qiandayingtan","country":"cn","lat":41.098333,"lon":114.599167},{"id":590508,"name":"taercun","country":"cn","lat":40.5825,"lon":114.880556},{"id":583684,"name":"shuangyinzi","country":"cn","lat":40.625278,"lon":115.277222},{"id":623449,"name":"xidanao","country":"cn","lat":41.317778,"lon":114.689722},{"id":587427,"name":"songjiaying","country":"cn","lat":40.6125,"lon":115.241389},{"id":535244,"name":"malianqu","country":"cn","lat":41.094167,"lon":114.5425},{"id":463841,"name":"ertai","country":"cn","lat":41.413889,"lon":114.935833},{"id":642522,"name":"youlougou","country":"cn","lat":41.062222,"lon":114.724722},{"id":534388,"name":"mahulun","country":"cn","lat":41.356944,"lon":115.398333},{"id":645319,"name":"yulin","country":"cn","lat":40.716111,"lon":114.959444},{"id":624477,"name":"xihonghua","country":"cn","lat":40.925,"lon":115.4075},{"id":634783,"name":"yangmingpao","country":"cn","lat":40.691667,"lon":114.565833},{"id":558695,"name":"qiaojiafang","country":"cn","lat":40.652778,"lon":114.7575},{"id":473005,"name":"geyubu","country":"cn","lat":40.766667,"lon":115.216667},{"id":582523,"name":"shuangaitang","country":"cn","lat":41.4175,"lon":115.0675},{"id":548261,"name":"ningyuanbu","country":"cn","lat":40.727778,"lon":114.892778},{"id":569781,"name":"shanfangpao","country":"cn","lat":40.951111,"lon":114.726111},{"id":500846,"name":"jiangjialiang","country":"cn","lat":40.747222,"lon":114.599444},{"id":430895,"name":"cainaobao","country":"cn","lat":41.195,"lon":114.7525},{"id":490915,"name":"hsiwangshan","country":"cn","lat":40.729167,"lon":115.047778},{"id":617519,"name":"xiangshuipu","country":"cn","lat":40.503056,"lon":115.183889},{"id":460581,"name":"dongxiaonao","country":"cn","lat":41.317778,"lon":114.903333},{"id":429946,"name":"boluosu","country":"cn","lat":41.375278,"lon":114.881389},{"id":600879,"name":"toupaihu","country":"cn","lat":40.525,"lon":114.518889},{"id":422037,"name":"baibuluo","country":"cn","lat":41.143056,"lon":114.518889},{"id":545582,"name":"nanshanyao","country":"cn","lat":41.07,"lon":115.372222},{"id":447010,"name":"dabaiyang","country":"cn","lat":40.748889,"lon":115.300556},{"id":518258,"name":"liangchiachuang","country":"cn","lat":40.914167,"lon":114.686667},{"id":429047,"name":"benhanmiao","country":"cn","lat":41.36,"lon":114.550278},{"id":535819,"name":"manketu","country":"cn","lat":41.398611,"lon":114.630833},{"id":601069,"name":"tsaichiaying","country":"cn","lat":41.459722,"lon":115.279167},{"id":424806,"name":"bakou","country":"cn","lat":40.5,"lon":115.4},{"id":491046,"name":"hsuanhuashih","country":"cn","lat":40.610278,"lon":115.044722},{"id":477307,"name":"guojiaying","country":"cn","lat":41.238056,"lon":115.178611},{"id":546677,"name":"naobaodi","country":"cn","lat":41.478333,"lon":114.859444},{"id":581877,"name":"shiyaozi","country":"cn","lat":41.161944,"lon":115.277222},{"id":572923,"name":"shangwangzifu","country":"cn","lat":40.868333,"lon":115.276111},{"id":538823,"name":"meiyiyong","country":"cn","lat":41.290833,"lon":114.966111},{"id":626766,"name":"xinhekou","country":"cn","lat":40.946389,"lon":114.543056},{"id":423242,"name":"baimiaotan xiang","country":"cn","lat":41.238889,"lon":114.942222},{"id":590819,"name":"tahulun","country":"cn","lat":41.343056,"lon":115.208333},{"id":618618,"name":"xiaocun","country":"cn","lat":40.676111,"lon":115.317222},{"id":428686,"name":"beixintun","country":"cn","lat":40.893333,"lon":114.631111},{"id":491016,"name":"hsiyungfengpu","country":"cn","lat":40.904444,"lon":114.541667},{"id":604044,"name":"tungyaotzu","country":"cn","lat":40.8475,"lon":114.896111},{"id":605903,"name":"wanchuan","country":"cn","lat":40.859444,"lon":114.742778},{"id":630906,"name":"xuejiagou","country":"cn","lat":41.435833,"lon":115.273333},{"id":569397,"name":"shalingzi","country":"cn","lat":40.660833,"lon":114.91},{"id":599894,"name":"tonghaidiancun","country":"cn","lat":41.167222,"lon":114.927222},{"id":637340,"name":"yaojiafang","country":"cn","lat":40.746667,"lon":114.882222},{"id":605251,"name":"wafangyingzi","country":"cn","lat":41.474722,"lon":115.311944},{"id":486207,"name":"houhanlahutong","country":"cn","lat":41.3375,"lon":114.990278},{"id":601238,"name":"tsaochiafang","country":"cn","lat":41.416667,"lon":114.55},{"id":627784,"name":"xinsheng muchang","country":"cn","lat":41.257778,"lon":114.964444},{"id":638025,"name":"yaoziwan","country":"cn","lat":40.849167,"lon":115.375556},{"id":513009,"name":"kungchiachuang","country":"cn","lat":40.7525,"lon":114.726111},{"id":452473,"name":"dasanyanjing","country":"cn","lat":41.325556,"lon":115.334722},{"id":452229,"name":"daqidingfang","country":"cn","lat":41.487778,"lon":114.581389},{"id":456828,"name":"dingfangshui","country":"cn","lat":40.527778,"lon":115.313611},{"id":630049,"name":"xixinying","country":"cn","lat":41.440833,"lon":115.488611},{"id":603405,"name":"tunghsinyingtzu","country":"cn","lat":41.35,"lon":115.383333},{"id":423223,"name":"baimiao","country":"cn","lat":40.655278,"lon":115.355833},{"id":486360,"name":"houjiamiao","country":"cn","lat":40.583333,"lon":115.118333},{"id":500125,"name":"jiajiaying","country":"cn","lat":40.607222,"lon":115.221667},{"id":514874,"name":"langwokou","country":"cn","lat":41.023056,"lon":114.728611},{"id":448565,"name":"dahao","country":"cn","lat":40.519722,"lon":115.029722},{"id":637435,"name":"yaojiaying","country":"cn","lat":40.613333,"lon":115.196944},{"id":419962,"name":"anchiapu","country":"cn","lat":40.702778,"lon":114.626111},{"id":658178,"name":"zuowei","country":"cn","lat":40.675278,"lon":114.714722},{"id":621813,"name":"xiashancha","country":"cn","lat":41.219444,"lon":115.132778},{"id":591232,"name":"tailugou","country":"cn","lat":41.036667,"lon":114.561111},{"id":624230,"name":"xigeyu","country":"cn","lat":40.666389,"lon":115.210833},{"id":490805,"name":"hsitientzu","country":"cn","lat":40.881667,"lon":114.901111},{"id":635998,"name":"yanjiabu","country":"cn","lat":40.682222,"lon":114.7975},{"id":466107,"name":"fengjiawa","country":"cn","lat":41.490556,"lon":114.8925},{"id":539567,"name":"mensanying","country":"cn","lat":41.063333,"lon":115.439444},{"id":538469,"name":"meijiaying","country":"cn","lat":40.756111,"lon":114.968056},{"id":602713,"name":"tujingzi","country":"cn","lat":40.915833,"lon":114.806667},{"id":486237,"name":"houhezicun","country":"cn","lat":41.111111,"lon":114.941389},{"id":461561,"name":"duanjiabu","country":"cn","lat":40.524167,"lon":115.413333},{"id":630210,"name":"xiyaozhanpu","country":"cn","lat":40.829167,"lon":114.534167},{"id":463769,"name":"erquanjing","country":"cn","lat":41.3975,"lon":114.679722},{"id":460308,"name":"dongtieying","country":"cn","lat":41.397222,"lon":115.158333},{"id":540223,"name":"miaotan","country":"cn","lat":41.216667,"lon":114.516667},{"id":586759,"name":"sitaizui","country":"cn","lat":40.792222,"lon":115.366111},{"id":463895,"name":"erxianshengyingcun","country":"cn","lat":41.265278,"lon":114.738889},{"id":534904,"name":"majiawan","country":"cn","lat":40.659167,"lon":115.1275},{"id":445482,"name":"chunglihsien","country":"cn","lat":40.971389,"lon":115.2725},{"id":493567,"name":"huangkainao","country":"cn","lat":41.416667,"lon":115.3},{"id":582159,"name":"shizigou","country":"cn","lat":41.110556,"lon":115.394444},{"id":621778,"name":"xiasanhao","country":"cn","lat":41.1475,"lon":115.390278},{"id":454030,"name":"daxibu","country":"cn","lat":40.65,"lon":115.416667},{"id":476619,"name":"gujiaying","country":"cn","lat":40.559722,"lon":115.138333},{"id":621248,"name":"xiaoyingpan","country":"cn","lat":40.758889,"lon":115.242222},{"id":433363,"name":"changchiakow","country":"cn","lat":40.81,"lon":114.879444},{"id":566456,"name":"sanhao","country":"cn","lat":41.385,"lon":115.280556},{"id":639898,"name":"yimatu","country":"cn","lat":41.096389,"lon":115.093056},{"id":486932,"name":"housopu","country":"cn","lat":40.519444,"lon":114.514722},{"id":578446,"name":"shihao","country":"cn","lat":41.204722,"lon":115.384444},{"id":530094,"name":"ludiantan","country":"cn","lat":41.285278,"lon":115.168333},{"id":516639,"name":"laoyachuang","country":"cn","lat":40.754444,"lon":114.875},{"id":495038,"name":"huangtuzui","country":"cn","lat":40.971944,"lon":115.348333},{"id":575082,"name":"shaojiupu","country":"cn","lat":41.418056,"lon":115.066389},{"id":595649,"name":"taputzu","country":"cn","lat":40.583333,"lon":115.3},{"id":580073,"name":"shilaowu","country":"cn","lat":41.478056,"lon":115.061944},{"id":592719,"name":"tangchikou","country":"cn","lat":40.633889,"lon":115.481667},{"id":618793,"name":"xiaoertai","country":"cn","lat":41.179167,"lon":114.840833},{"id":551321,"name":"pangchiapao","country":"cn","lat":40.6475,"lon":115.446111},{"id":576175,"name":"shenchiatun","country":"cn","lat":40.764167,"lon":114.858056},{"id":472518,"name":"geliaogou","country":"cn","lat":41.128333,"lon":115.131389},{"id":467215,"name":"fenshuikou","country":"cn","lat":40.515,"lon":114.989444},{"id":585707,"name":"sidaoba","country":"cn","lat":41.270833,"lon":115.407778},{"id":435587,"name":"changyukou","country":"cn","lat":40.761389,"lon":115.146944},{"id":568735,"name":"shachiachuang","country":"cn","lat":40.821111,"lon":114.696389},{"id":538073,"name":"mazhangzi","country":"cn","lat":40.905833,"lon":115.3325},{"id":476541,"name":"gujiagou","country":"cn","lat":40.859167,"lon":114.670833},{"id":473313,"name":"gonghui","country":"cn","lat":41.330833,"lon":114.523056},{"id":500940,"name":"jiangjiatun","country":"cn","lat":40.606389,"lon":114.939444},{"id":422107,"name":"baichengzi","country":"cn","lat":41.3,"lon":114.616667},{"id":535901,"name":"mantouying","country":"cn","lat":41.258611,"lon":114.653056},{"id":633647,"name":"yanghulun","country":"cn","lat":41.433333,"lon":115.373611},{"id":520376,"name":"lidarenzhuang","country":"cn","lat":40.633333,"lon":115.305833},{"id":435833,"name":"chaochialiang","country":"cn","lat":40.779444,"lon":114.6575},{"id":423396,"name":"baiqi","country":"cn","lat":41.054722,"lon":115.329722},{"id":609434,"name":"wayaowan","country":"cn","lat":41.2225,"lon":114.702778},{"id":460439,"name":"dongwangshan","country":"cn","lat":40.743611,"lon":115.080833},{"id":591331,"name":"taipingchuang","country":"cn","lat":40.561389,"lon":114.615},{"id":634900,"name":"yangpengzhuang","country":"cn","lat":41.183333,"lon":114.666667},{"id":450756,"name":"damiaotan","country":"cn","lat":41.197222,"lon":114.678056},{"id":487283,"name":"houyingba","country":"cn","lat":41.135278,"lon":115.020556},{"id":615755,"name":"xiaguoyuan","country":"cn","lat":40.626389,"lon":114.696111},{"id":422465,"name":"baihuagou","country":"cn","lat":41.085556,"lon":115.210833},{"id":463392,"name":"ergongdi","country":"cn","lat":41.453333,"lon":115.215556},{"id":463685,"name":"erliban","country":"cn","lat":40.671667,"lon":114.916667},{"id":648814,"name":"zhanghaoying","country":"cn","lat":41.1125,"lon":114.643611},{"id":539864,"name":"miaoerhkou","country":"cn","lat":40.968056,"lon":114.556111},{"id":639166,"name":"yentungshan","country":"cn","lat":40.633333,"lon":115.1},{"id":479411,"name":"hanjiacun","country":"cn","lat":41.260833,"lon":114.859167},{"id":422622,"name":"baijiantan","country":"cn","lat":41.431111,"lon":115.439167},{"id":456703,"name":"diliutun","country":"cn","lat":40.6575,"lon":114.565278},{"id":612111,"name":"wuduntai","country":"cn","lat":40.849722,"lon":114.811667},{"id":650505,"name":"zhaochuan","country":"cn","lat":40.676944,"lon":115.344722},{"id":546678,"name":"naobaohuai","country":"cn","lat":41.322778,"lon":115.116667},{"id":471310,"name":"gaomiaopu","country":"cn","lat":40.785556,"lon":114.519444},{"id":613995,"name":"wushijia","country":"cn","lat":40.996111,"lon":114.859444},{"id":478184,"name":"guzuizi","country":"cn","lat":40.817778,"lon":115.203333},{"id":489893,"name":"hsinchuangtzu","country":"cn","lat":40.514722,"lon":115.165833},{"id":565843,"name":"sandaoying","country":"cn","lat":41.161111,"lon":115.450556},{"id":509553,"name":"kaochiaying","country":"cn","lat":40.8775,"lon":114.968056},{"id":486917,"name":"housidingfang","country":"cn","lat":41.444722,"lon":114.737778},{"id":631306,"name":"xujiabu","country":"cn","lat":40.5175,"lon":115.031944},{"id":434691,"name":"changpei","country":"cn","lat":41.1525,"lon":114.707778},{"id":460886,"name":"dongyingpan","country":"cn","lat":41.125833,"lon":114.760833},{"id":497780,"name":"hungchiying","country":"cn","lat":41.009722,"lon":115.198056},{"id":545201,"name":"nannigou","country":"cn","lat":40.997222,"lon":115.128333},{"id":473054,"name":"gezuizi","country":"cn","lat":41.07,"lon":115.052778},{"id":539605,"name":"menzhuangou","country":"cn","lat":41.460556,"lon":114.500833},{"id":457412,"name":"dishang","country":"cn","lat":40.880833,"lon":115.118889},{"id":594678,"name":"taobeiying","country":"cn","lat":40.916667,"lon":114.916667},{"id":569851,"name":"shangbaicha","country":"cn","lat":41.035278,"lon":115.010278},{"id":458577,"name":"donghao","country":"cn","lat":41.321111,"lon":114.561389},{"id":649095,"name":"zhangjiakounan","country":"cn","lat":40.71,"lon":114.784167},{"id":640430,"name":"yingpandi","country":"cn","lat":40.936389,"lon":115.1375},{"id":513352,"name":"kuoleichuang","country":"cn","lat":40.716667,"lon":114.546389},{"id":482749,"name":"hepingcun","country":"cn","lat":41.0025,"lon":115.356111},{"id":615933,"name":"xiahuoshi","country":"cn","lat":41.490556,"lon":115.486111},{"id":520973,"name":"lijiabu","country":"cn","lat":40.686389,"lon":115.396389},{"id":516766,"name":"laoyoubuluo","country":"cn","lat":41.14,"lon":114.592778}]});