callback({"markets":[{"id":160000,"name":"tarpeena","country":"au","lat":-37.627708,"lon":140.795853},{"id":155162,"name":"heathfield","country":"au","lat":-37.583333,"lon":141.15},{"id":157555,"name":"mount schank","country":"au","lat":-37.95,"lon":140.733333},{"id":161065,"name":"wepar","country":"au","lat":-37.616667,"lon":140.7},{"id":153104,"name":"compton","country":"au","lat":-37.766667,"lon":140.683333},{"id":154603,"name":"glencoe west","country":"au","lat":-37.666667,"lon":140.583333},{"id":152721,"name":"caroline","country":"au","lat":-37.9,"lon":140.933333},{"id":153793,"name":"drik drik","country":"au","lat":-38.0,"lon":141.3},{"id":151101,"name":"ardno","country":"au","lat":-37.766667,"lon":141.0},{"id":161496,"name":"worrolong","country":"au","lat":-37.816667,"lon":140.866667},{"id":156419,"name":"lindsay","country":"au","lat":-37.633333,"lon":140.966667},{"id":157071,"name":"mil lel","country":"au","lat":-37.783333,"lon":140.816667},{"id":156618,"name":"lyons","country":"au","lat":-38.016667,"lon":141.466667},{"id":152771,"name":"casterton","country":"au","lat":-37.584888,"lon":141.402969},{"id":157526,"name":"mount mcintyre","country":"au","lat":-37.55,"lon":140.55},{"id":157921,"name":"nelson","country":"au","lat":-38.05,"lon":141.016667},{"id":159337,"name":"sandford","country":"au","lat":-37.616667,"lon":141.433333},{"id":156204,"name":"lake mundi","country":"au","lat":-37.55,"lon":141.0},{"id":154419,"name":"gambier town","country":"au","lat":-37.831799,"lon":140.77919},{"id":152651,"name":"cape bridgewater","country":"au","lat":-38.35,"lon":141.433333},{"id":155793,"name":"kentbruck","country":"au","lat":-38.15,"lon":141.283333},{"id":155633,"name":"kalangadoo","country":"au","lat":-37.564838,"lon":140.699203},{"id":150972,"name":"allendale east","country":"au","lat":-38.016667,"lon":140.7},{"id":160816,"name":"wando vale","country":"au","lat":-37.516667,"lon":141.45},{"id":154598,"name":"glenburnie","country":"au","lat":-37.85,"lon":140.85},{"id":157549,"name":"mount richmond","country":"au","lat":-38.283333,"lon":141.4},{"id":158880,"name":"puralka","country":"au","lat":-37.816667,"lon":141.083333},{"id":154900,"name":"greenwald","country":"au","lat":-37.966667,"lon":141.366667},{"id":160808,"name":"wandilo","country":"au","lat":-37.716667,"lon":140.716667},{"id":157628,"name":"mumbannar","country":"au","lat":-37.883333,"lon":141.083333},{"id":161578,"name":"yahl paddock","country":"au","lat":-37.866667,"lon":140.8},{"id":159770,"name":"strathdownie","country":"au","lat":-37.733333,"lon":141.183333},{"id":157797,"name":"nangwarry","country":"au","lat":-37.54599,"lon":140.814514},{"id":155980,"name":"kongorong","country":"au","lat":-37.9,"lon":140.55},{"id":152762,"name":"cashmore","country":"au","lat":-38.316667,"lon":141.483333},{"id":160847,"name":"wanwin","country":"au","lat":-38.016667,"lon":141.15},{"id":159837,"name":"sutton town","country":"au","lat":-37.8,"lon":140.783333},{"id":154786,"name":"gorea west","country":"au","lat":-38.25,"lon":141.483333},{"id":153582,"name":"dartmoor","country":"au","lat":-37.922249,"lon":141.274902},{"id":157578,"name":"mouzie","country":"au","lat":-38.2,"lon":141.35},{"id":151238,"name":"bahgallah","country":"au","lat":-37.633333,"lon":141.383333},{"id":161294,"name":"winnap","country":"au","lat":-37.95,"lon":141.316667},{"id":158801,"name":"port macdonnell","country":"au","lat":-38.052101,"lon":140.701584}]});