callback({"markets":[{"id":351108,"name":"south brook","country":"ca","lat":49.016667,"lon":-57.616667},{"id":351454,"name":"trout river","country":"ca","lat":49.483333,"lon":-58.116667},{"id":351855,"name":"york harbour","country":"ca","lat":49.05,"lon":-58.383333},{"id":347398,"name":"corner brook","country":"ca","lat":48.95,"lon":-57.933333},{"id":349064,"name":"lomond","country":"ca","lat":49.45,"lon":-57.766667},{"id":350230,"name":"pynns brook","country":"ca","lat":49.083333,"lon":-57.55},{"id":351189,"name":"steady brook","country":"ca","lat":48.966667,"lon":-57.8},{"id":348142,"name":"glenburnie","country":"ca","lat":49.45,"lon":-57.9},{"id":347476,"name":"curling","country":"ca","lat":48.966667,"lon":-58.0},{"id":347430,"name":"cox cove","country":"ca","lat":49.116667,"lon":-58.066667},{"id":351197,"name":"stephenville crossing","country":"ca","lat":48.516667,"lon":-58.416667},{"id":348368,"name":"harrys brook","country":"ca","lat":48.65,"lon":-58.25},{"id":348911,"name":"lark harbour","country":"ca","lat":49.1,"lon":-58.366667},{"id":348511,"name":"humbermouth","country":"ca","lat":48.966667,"lon":-57.916667},{"id":348048,"name":"frenchman cove","country":"ca","lat":49.05,"lon":-58.183333}]});