callback({"markets":[{"id":2594435,"name":"zankor","country":"sd","lat":13.8666667,"lon":27.9666667},{"id":2590813,"name":"mukhaizana","country":"sd","lat":13.9666667,"lon":27.8166667},{"id":2587630,"name":"galusa","country":"sd","lat":13.6,"lon":28.0666667},{"id":2593509,"name":"umm luyunah","country":"sd","lat":13.7833333,"lon":27.7},{"id":2586580,"name":"el abyad","country":"sd","lat":13.5,"lon":27.5},{"id":2593302,"name":"umm diti","country":"sd","lat":13.5166667,"lon":28.4833333},{"id":2587523,"name":"foga","country":"sd","lat":13.7166667,"lon":28.0333333},{"id":2593156,"name":"um badir","country":"sd","lat":14.2333333,"lon":27.95},{"id":2591939,"name":"sagha","country":"sd","lat":13.7333333,"lon":27.6666667},{"id":2593227,"name":"umm bel","country":"sd","lat":13.5333333,"lon":28.0666667},{"id":2591967,"name":"sakramoj","country":"sd","lat":13.55,"lon":27.8166667},{"id":2588598,"name":"ibrahim wad `arabi","country":"sd","lat":13.8833333,"lon":27.6},{"id":2593038,"name":"tulu","country":"sd","lat":13.8166667,"lon":28.3666667},{"id":2593206,"name":"ummat arifa","country":"sd","lat":13.9,"lon":28.0},{"id":2588666,"name":"irmil","country":"sd","lat":13.6166667,"lon":27.6},{"id":2589278,"name":"khawr as sant","country":"sd","lat":14.1333333,"lon":28.2}]});