callback({"markets":[{"id":1335270,"name":"gushai","country":"in","lat":32.566667,"lon":76.95},{"id":1353721,"name":"rashil","country":"in","lat":32.616667,"lon":76.883333},{"id":1361442,"name":"yaytah","country":"in","lat":33.333333,"lon":77.233333},{"id":1342844,"name":"kurgiakh","country":"in","lat":33.066667,"lon":77.233333},{"id":1324943,"name":"banon","country":"in","lat":33.016667,"lon":76.616667},{"id":1340661,"name":"khanjar","country":"in","lat":32.883333,"lon":76.85},{"id":1329121,"name":"char","country":"in","lat":33.25,"lon":77.133333},{"id":1336136,"name":"hinis","country":"in","lat":32.683333,"lon":76.683333},{"id":1328781,"name":"chamrat","country":"in","lat":32.783333,"lon":76.716667},{"id":1346795,"name":"mone leh","country":"in","lat":33.266667,"lon":77.45},{"id":1356280,"name":"shansha","country":"in","lat":32.633333,"lon":76.9},{"id":1356450,"name":"shila","country":"in","lat":33.416667,"lon":76.883333},{"id":1330834,"name":"darcha","country":"in","lat":32.683333,"lon":77.2},{"id":1327168,"name":"bhotaor","country":"in","lat":32.95,"lon":76.616667},{"id":1334634,"name":"gondla","country":"in","lat":32.5,"lon":77.016667},{"id":1343056,"name":"kyonon","country":"in","lat":32.966667,"lon":77.433333},{"id":1335040,"name":"gumba","country":"in","lat":32.866667,"lon":76.766667},{"id":1337882,"name":"jispa","country":"in","lat":32.633333,"lon":77.166667},{"id":1332592,"name":"dorzong","country":"in","lat":33.283333,"lon":77.033333},{"id":1358579,"name":"tanze","country":"in","lat":33.133333,"lon":77.233333},{"id":1330708,"name":"danga","country":"in","lat":33.216667,"lon":76.666667},{"id":1359797,"name":"tuan","country":"in","lat":33.033333,"lon":76.616667},{"id":1328312,"name":"burdun gompa","country":"in","lat":33.4,"lon":76.916667},{"id":1342484,"name":"kulang","country":"in","lat":32.6,"lon":77.133333},{"id":1339930,"name":"katge lato","country":"in","lat":33.233333,"lon":77.166667},{"id":1351615,"name":"phuktal gompa","country":"in","lat":33.266667,"lon":77.183333},{"id":1354034,"name":"reru","country":"in","lat":33.333333,"lon":76.933333},{"id":1343052,"name":"kyelang","country":"in","lat":32.583333,"lon":77.033333},{"id":1349891,"name":"padam","country":"in","lat":33.466667,"lon":76.883333},{"id":1354889,"name":"salgaraon","country":"in","lat":32.75,"lon":76.533333},{"id":1358506,"name":"tandi","country":"in","lat":32.566667,"lon":76.966667},{"id":1348251,"name":"namu","country":"in","lat":32.75,"lon":76.616667},{"id":1359094,"name":"thesur","country":"in","lat":33.166667,"lon":77.166667},{"id":1356112,"name":"shadi","country":"in","lat":33.4,"lon":77.25},{"id":1339704,"name":"karpat","country":"in","lat":32.833333,"lon":76.75},{"id":1359119,"name":"thirot","country":"in","lat":32.666667,"lon":76.766667}]});