callback({"markets":[{"id":283993,"name":"suriguigua","country":"bo","lat":-16.4166667,"lon":-68.35},{"id":285936,"name":"zongochoro","country":"bo","lat":-15.7,"lon":-67.6833333},{"id":270096,"name":"acarapini","country":"bo","lat":-15.65,"lon":-68.45},{"id":285504,"name":"villa pabon","country":"bo","lat":-16.4833333,"lon":-68.1333333},{"id":279044,"name":"keakeapi","country":"bo","lat":-15.9166667,"lon":-68.3166667},{"id":285144,"name":"umana","country":"bo","lat":-15.7,"lon":-68.2166667},{"id":281349,"name":"pampana","country":"bo","lat":-15.6833333,"lon":-68.45},{"id":277358,"name":"farinas","country":"bo","lat":-15.9166667,"lon":-67.7833333},{"id":278501,"name":"isicani","country":"bo","lat":-16.0333333,"lon":-67.9333333},{"id":285898,"name":"yuto","country":"bo","lat":-15.6,"lon":-68.2166667},{"id":283234,"name":"san jose de chica","country":"bo","lat":-16.2,"lon":-67.75},{"id":284170,"name":"tajtani","country":"bo","lat":-15.55,"lon":-67.8333333},{"id":270355,"name":"alto","country":"bo","lat":-15.6,"lon":-68.4833333},{"id":270386,"name":"amaguaya","country":"bo","lat":-15.9333333,"lon":-68.2666667},{"id":272022,"name":"cerro kotanane","country":"bo","lat":-15.7,"lon":-67.8666667},{"id":282960,"name":"sacramento bajo","country":"bo","lat":-16.2333333,"lon":-67.7833333},{"id":279123,"name":"kilometro 20","country":"bo","lat":-16.2666667,"lon":-67.7833333},{"id":272164,"name":"challana","country":"bo","lat":-15.95,"lon":-68.25},{"id":272883,"name":"cierre","country":"bo","lat":-15.6,"lon":-67.8666667},{"id":275071,"name":"estancia chima","country":"bo","lat":-16.4333333,"lon":-67.8333333},{"id":285210,"name":"uruguay","country":"bo","lat":-15.7666667,"lon":-68.2333333},{"id":278209,"name":"humapalca","country":"bo","lat":-16.0833333,"lon":-68.2333333},{"id":272603,"name":"choakaques","country":"bo","lat":-16.1833333,"lon":-68.4166667},{"id":282533,"name":"queronave","country":"bo","lat":-16.2166667,"lon":-68.4833333},{"id":283968,"name":"sunaco","country":"bo","lat":-15.6166667,"lon":-68.2666667},{"id":271307,"name":"calapuncu","country":"bo","lat":-16.0666667,"lon":-68.2666667},{"id":277901,"name":"huaji","country":"bo","lat":-16.0333333,"lon":-67.95},{"id":276802,"name":"estancia sinipata","country":"bo","lat":-16.3166667,"lon":-68.25},{"id":278694,"name":"jampaturi chico","country":"bo","lat":-16.4166667,"lon":-68.0333333},{"id":285606,"name":"viruhuya","country":"bo","lat":-16.35,"lon":-68.4333333},{"id":279716,"name":"lijuata","country":"bo","lat":-15.8833333,"lon":-68.3333333},{"id":277281,"name":"estancia yaropampa","country":"bo","lat":-16.3833333,"lon":-67.5166667},{"id":273409,"name":"comunidad nogalani","country":"bo","lat":-16.3,"lon":-67.6333333},{"id":285226,"name":"usbaya","country":"bo","lat":-15.5666667,"lon":-67.9833333},{"id":281787,"name":"pino pata","country":"bo","lat":-16.05,"lon":-67.9333333},{"id":276849,"name":"estancia suiqui","country":"bo","lat":-16.4,"lon":-67.6333333},{"id":280258,"name":"mazochono","country":"bo","lat":-15.5833333,"lon":-67.7166667},{"id":285228,"name":"usina","country":"bo","lat":-16.4666667,"lon":-68.1666667},{"id":273938,"name":"cucura","country":"bo","lat":-15.6333333,"lon":-67.8833333},{"id":274487,"name":"escasivi","country":"bo","lat":-15.5166667,"lon":-67.95},{"id":273816,"name":"cotamani","country":"bo","lat":-15.6833333,"lon":-67.9833333},{"id":285892,"name":"yururaqui","country":"bo","lat":-16.0333333,"lon":-67.9666667},{"id":272731,"name":"chuguini","country":"bo","lat":-15.9333333,"lon":-67.6166667},{"id":272631,"name":"chojlla","country":"bo","lat":-16.4,"lon":-67.7666667},{"id":271221,"name":"caiconi","country":"bo","lat":-16.4666667,"lon":-68.1333333},{"id":281922,"name":"pongo","country":"bo","lat":-16.3333333,"lon":-67.9333333},{"id":277661,"name":"guayrapata","country":"bo","lat":-15.9166667,"lon":-67.8333333},{"id":284785,"name":"toreni","country":"bo","lat":-16.0333333,"lon":-68.2333333},{"id":285588,"name":"vinorani","country":"bo","lat":-15.9666667,"lon":-68.3166667},{"id":271564,"name":"canocaya","country":"bo","lat":-15.8,"lon":-68.1666667},{"id":277803,"name":"horca","country":"bo","lat":-15.9166667,"lon":-68.2},{"id":272473,"name":"chillapa","country":"bo","lat":-15.9,"lon":-68.1666667},{"id":272051,"name":"chacapa","country":"bo","lat":-15.9166667,"lon":-68.3},{"id":277743,"name":"harka","country":"bo","lat":-16.0833333,"lon":-67.9833333},{"id":273301,"name":"comunidad jachcha sirca","country":"bo","lat":-16.3166667,"lon":-68.3833333},{"id":275857,"name":"estancia khoto kallpata","country":"bo","lat":-16.15,"lon":-68.45},{"id":271598,"name":"capacasi","country":"bo","lat":-16.4666667,"lon":-68.3166667},{"id":275097,"name":"estancia chiviraque","country":"bo","lat":-16.05,"lon":-67.95},{"id":277089,"name":"estancia tuni","country":"bo","lat":-16.25,"lon":-68.2333333},{"id":270121,"name":"achila","country":"bo","lat":-15.8,"lon":-68.0666667},{"id":284779,"name":"tora","country":"bo","lat":-15.5833333,"lon":-68.15},{"id":285937,"name":"zongo","country":"bo","lat":-16.1166667,"lon":-68.0333333},{"id":273916,"name":"cuchequesta","country":"bo","lat":-16.2,"lon":-68.4333333},{"id":272498,"name":"chimoni","country":"bo","lat":-15.5,"lon":-67.9666667},{"id":272046,"name":"chacaltayas","country":"bo","lat":-15.7333333,"lon":-67.6166667},{"id":278695,"name":"jampaturi grande","country":"bo","lat":-16.45,"lon":-68.0666667},{"id":274526,"name":"esquillani","country":"bo","lat":-16.2666667,"lon":-68.4833333},{"id":272784,"name":"chunuave","country":"bo","lat":-16.3666667,"lon":-68.35},{"id":270979,"name":"bestia","country":"bo","lat":-15.6333333,"lon":-68.2833333},{"id":279289,"name":"la cueva","country":"bo","lat":-15.9666667,"lon":-67.6166667},{"id":285799,"name":"yaurichampi","country":"bo","lat":-16.3166667,"lon":-68.4833333},{"id":272386,"name":"chicar","country":"bo","lat":-16.4666667,"lon":-68.0666667},{"id":280776,"name":"naranjacala","country":"bo","lat":-15.75,"lon":-67.6166667},{"id":272273,"name":"chaquiya","country":"bo","lat":-15.7333333,"lon":-68.0166667},{"id":276221,"name":"estancia muro kkhotana chico","country":"bo","lat":-16.3333333,"lon":-68.2333333},{"id":285713,"name":"yalica","country":"bo","lat":-15.9333333,"lon":-67.8333333},{"id":280853,"name":"nigrillani","country":"bo","lat":-16.1,"lon":-67.7166667},{"id":285826,"name":"yolosa","country":"bo","lat":-16.2333333,"lon":-67.7333333},{"id":271203,"name":"cahua chico","country":"bo","lat":-16.0666667,"lon":-67.9833333},{"id":282650,"name":"quishurani","country":"bo","lat":-16.0333333,"lon":-68.25},{"id":285289,"name":"varse","country":"bo","lat":-15.95,"lon":-68.2},{"id":271419,"name":"camaraya","country":"bo","lat":-15.7833333,"lon":-68.0833333},{"id":280917,"name":"ocara","country":"bo","lat":-15.65,"lon":-68.4},{"id":280469,"name":"mojon de lima","country":"bo","lat":-16.4833333,"lon":-68.1833333},{"id":270754,"name":"aurora","country":"bo","lat":-16.3,"lon":-68.2166667},{"id":270718,"name":"asunta","country":"bo","lat":-15.7166667,"lon":-67.6833333},{"id":282497,"name":"quelluani","country":"bo","lat":-16.05,"lon":-68.4833333},{"id":272141,"name":"challa","country":"bo","lat":-16.0666667,"lon":-67.7},{"id":271287,"name":"calahuyo","country":"bo","lat":-16.3666667,"lon":-68.1166667},{"id":280390,"name":"minchin","country":"bo","lat":-16.1333333,"lon":-68.2166667},{"id":273989,"name":"culiri","country":"bo","lat":-15.9666667,"lon":-67.85},{"id":283465,"name":"santa gertrudis","country":"bo","lat":-16.1166667,"lon":-67.7333333},{"id":275216,"name":"estancia contador","country":"bo","lat":-16.1666667,"lon":-68.3333333},{"id":285079,"name":"uanavira","country":"bo","lat":-15.5333333,"lon":-68.3833333},{"id":271903,"name":"catacora","country":"bo","lat":-16.2833333,"lon":-68.4833333},{"id":277729,"name":"halluaya","country":"bo","lat":-16.1166667,"lon":-68.4166667},{"id":285511,"name":"villa pucarani","country":"bo","lat":-16.4,"lon":-68.4833333},{"id":279800,"name":"llapapata","country":"bo","lat":-15.9333333,"lon":-68.2833333},{"id":273247,"name":"comunidad cruzani","country":"bo","lat":-16.2,"lon":-68.4833333},{"id":272285,"name":"charapata","country":"bo","lat":-16.0666667,"lon":-67.7333333},{"id":282654,"name":"quitacalzon","country":"bo","lat":-15.5833333,"lon":-67.9333333},{"id":278402,"name":"inihuata","country":"bo","lat":-15.9,"lon":-68.3166667},{"id":281571,"name":"pauma","country":"bo","lat":-15.7,"lon":-68.0166667},{"id":276290,"name":"estancia pacha chani","country":"bo","lat":-16.2666667,"lon":-68.2666667},{"id":271066,"name":"broncini","country":"bo","lat":-15.8,"lon":-67.6666667},{"id":284002,"name":"surisur","country":"bo","lat":-15.55,"lon":-68.45},{"id":273913,"name":"cucchara","country":"bo","lat":-16.25,"lon":-68.0166667},{"id":280678,"name":"munaipata","country":"bo","lat":-16.2,"lon":-67.7333333},{"id":272053,"name":"chaca pampa","country":"bo","lat":-16.1833333,"lon":-68.1333333},{"id":285810,"name":"yerbani","country":"bo","lat":-16.3,"lon":-67.9},{"id":278064,"name":"huayapata","country":"bo","lat":-15.6333333,"lon":-68.3333333},{"id":272850,"name":"chuspipata","country":"bo","lat":-16.3,"lon":-67.8},{"id":280307,"name":"merma derecha","country":"bo","lat":-15.5,"lon":-67.9166667},{"id":275791,"name":"estancia khallapa","country":"bo","lat":-16.4833333,"lon":-68.0833333},{"id":284024,"name":"tabacal","country":"bo","lat":-16.3,"lon":-67.6},{"id":285427,"name":"villa aspiazo","country":"bo","lat":-16.4,"lon":-67.6666667},{"id":280859,"name":"nogalani","country":"bo","lat":-15.9833333,"lon":-67.7166667},{"id":272319,"name":"chaucha","country":"bo","lat":-16.3833333,"lon":-68.4666667},{"id":282263,"name":"puerto leon","country":"bo","lat":-15.9333333,"lon":-67.6},{"id":281220,"name":"palcapampa","country":"bo","lat":-15.75,"lon":-68.0166667},{"id":278904,"name":"julo","country":"bo","lat":-15.6,"lon":-68.2833333},{"id":274539,"name":"estalini","country":"bo","lat":-15.6166667,"lon":-67.8166667},{"id":281152,"name":"pailipaya","country":"bo","lat":-15.75,"lon":-68.15},{"id":283153,"name":"sandillani","country":"bo","lat":-16.2,"lon":-67.9},{"id":274086,"name":"cuticucho","country":"bo","lat":-16.1833333,"lon":-68.15},{"id":272700,"name":"chovacollo","country":"bo","lat":-16.2666667,"lon":-67.7},{"id":283255,"name":"san juan de la miel","country":"bo","lat":-16.2666667,"lon":-67.8},{"id":284235,"name":"tambo perez","country":"bo","lat":-16.35,"lon":-68.4166667},{"id":284503,"name":"tia poroma","country":"bo","lat":-15.6333333,"lon":-67.8666667},{"id":285153,"name":"umupaya","country":"bo","lat":-15.9333333,"lon":-67.85},{"id":280985,"name":"oquecucho","country":"bo","lat":-16.4666667,"lon":-67.9},{"id":281188,"name":"pajsiamaya","country":"bo","lat":-16.4166667,"lon":-68.4166667},{"id":276623,"name":"estancia rinconada","country":"bo","lat":-16.3166667,"lon":-68.0166667},{"id":275920,"name":"estancia labrahuani","country":"bo","lat":-16.1333333,"lon":-68.4166667},{"id":272840,"name":"chururaqui","country":"bo","lat":-16.1166667,"lon":-68.0833333},{"id":272560,"name":"chirca","country":"bo","lat":-16.3833333,"lon":-67.5833333},{"id":284319,"name":"taquesi","country":"bo","lat":-16.45,"lon":-67.8333333},{"id":281718,"name":"picha","country":"bo","lat":-16.35,"lon":-67.7833333},{"id":280355,"name":"milluni","country":"bo","lat":-16.3333333,"lon":-68.15},{"id":284986,"name":"tujuhahuira","country":"bo","lat":-15.65,"lon":-68.0666667},{"id":272967,"name":"coco huta","country":"bo","lat":-16.45,"lon":-68.3},{"id":273300,"name":"comunidad jachcha milluni","country":"bo","lat":-16.3333333,"lon":-68.1666667},{"id":273756,"name":"corqueamaya","country":"bo","lat":-16.3,"lon":-68.45},{"id":272508,"name":"chinalaya","country":"bo","lat":-15.7833333,"lon":-68.0333333},{"id":277769,"name":"hichucota","country":"bo","lat":-16.1833333,"lon":-68.3833333},{"id":274711,"name":"estancia botijlaca","country":"bo","lat":-16.1833333,"lon":-68.1166667},{"id":281112,"name":"pacholaca","country":"bo","lat":-16.0166667,"lon":-67.9},{"id":285160,"name":"unduavi","country":"bo","lat":-16.3166667,"lon":-67.9},{"id":274030,"name":"cupahuaya","country":"bo","lat":-15.6333333,"lon":-68.3},{"id":278668,"name":"jahillahuaya","country":"bo","lat":-16.1333333,"lon":-68.4333333},{"id":274562,"name":"estancia achura","country":"bo","lat":-16.2666667,"lon":-68.0166667},{"id":274027,"name":"cundurmanta","country":"bo","lat":-15.5833333,"lon":-68.1666667},{"id":279003,"name":"kaparasi","country":"bo","lat":-16.4666667,"lon":-68.3333333},{"id":280075,"name":"malpaso","country":"bo","lat":-15.8,"lon":-67.7166667},{"id":281137,"name":"padilla","country":"bo","lat":-16.1166667,"lon":-67.7},{"id":281332,"name":"pampacalla","country":"bo","lat":-16.3833333,"lon":-68.45},{"id":281438,"name":"para para","country":"bo","lat":-15.8333333,"lon":-68.1},{"id":284929,"name":"trinidad pampa","country":"bo","lat":-16.2666667,"lon":-67.6666667},{"id":281958,"name":"porotani","country":"bo","lat":-15.8666667,"lon":-67.8},{"id":279065,"name":"kellani","country":"bo","lat":-16.4833333,"lon":-68.4333333},{"id":278186,"name":"huishuinchuni","country":"bo","lat":-15.5666667,"lon":-68.0333333},{"id":282084,"name":"publo amaya","country":"bo","lat":-15.9333333,"lon":-68.25},{"id":271801,"name":"carrasco","country":"bo","lat":-15.6666667,"lon":-67.55},{"id":281017,"name":"orobaya","country":"bo","lat":-16.4166667,"lon":-67.5},{"id":285072,"name":"tutirihuara","country":"bo","lat":-15.7166667,"lon":-67.65},{"id":279854,"name":"loho","country":"bo","lat":-15.9833333,"lon":-67.8666667},{"id":270570,"name":"apana","country":"bo","lat":-15.9333333,"lon":-67.9166667},{"id":285452,"name":"villa de sagarnaga","country":"bo","lat":-16.1833333,"lon":-67.7333333},{"id":281200,"name":"palamanta","country":"bo","lat":-16.3666667,"lon":-68.4},{"id":284194,"name":"tama tala tola","country":"bo","lat":-15.9,"lon":-67.8},{"id":281385,"name":"paniagua","country":"bo","lat":-15.5666667,"lon":-68.0666667},{"id":273722,"name":"corguarara","country":"bo","lat":-15.5,"lon":-67.9833333},{"id":284885,"name":"trapiche monte","country":"bo","lat":-15.6166667,"lon":-67.7333333},{"id":278027,"name":"huaripampa","country":"bo","lat":-16.45,"lon":-68.1333333},{"id":272678,"name":"choro","country":"bo","lat":-16.0333333,"lon":-67.6333333},{"id":277950,"name":"huancano","country":"bo","lat":-16.3666667,"lon":-67.5333333},{"id":285165,"name":"unponte","country":"bo","lat":-15.5166667,"lon":-67.7666667},{"id":273995,"name":"cullocucho","country":"bo","lat":-15.9166667,"lon":-67.6333333},{"id":285282,"name":"vana","country":"bo","lat":-15.8833333,"lon":-67.9166667},{"id":279272,"name":"la concordia","country":"bo","lat":-16.2166667,"lon":-67.5666667},{"id":273940,"name":"cucuta","country":"bo","lat":-16.45,"lon":-68.3166667},{"id":282458,"name":"quaramcota","country":"bo","lat":-16.1,"lon":-68.2333333},{"id":272310,"name":"chasi","country":"bo","lat":-15.6166667,"lon":-68.25},{"id":273730,"name":"corincaya","country":"bo","lat":-15.9,"lon":-68.1833333},{"id":279509,"name":"lapichi","country":"bo","lat":-15.7166667,"lon":-68.25},{"id":279172,"name":"korapata","country":"bo","lat":-16.4333333,"lon":-68.3666667},{"id":285803,"name":"yayecoya","country":"bo","lat":-15.6,"lon":-68.25},{"id":279827,"name":"llipi","country":"bo","lat":-15.6,"lon":-68.1833333},{"id":273968,"name":"cueva de tora","country":"bo","lat":-15.5666667,"lon":-68.15},{"id":285195,"name":"urpuni","country":"bo","lat":-15.7166667,"lon":-68.0166667},{"id":285176,"name":"upu","country":"bo","lat":-15.7833333,"lon":-68.05},{"id":276222,"name":"estancia muro kkotana grande","country":"bo","lat":-16.3166667,"lon":-68.2333333},{"id":272764,"name":"chulumani","country":"bo","lat":-16.4,"lon":-67.5166667},{"id":282588,"name":"quiloquilo","country":"bo","lat":-15.95,"lon":-67.7833333},{"id":272068,"name":"chachacomani","country":"bo","lat":-16.0666667,"lon":-68.4666667},{"id":280366,"name":"mina fabulosa","country":"bo","lat":-16.1,"lon":-68.25},{"id":285758,"name":"yapi","country":"bo","lat":-15.8833333,"lon":-68.1666667},{"id":285294,"name":"vega","country":"bo","lat":-15.7666667,"lon":-67.6833333},{"id":284713,"name":"tola","country":"bo","lat":-15.8666667,"lon":-67.6333333},{"id":281074,"name":"pacalle","country":"bo","lat":-16.2,"lon":-67.7833333},{"id":281103,"name":"pachani","country":"bo","lat":-15.6333333,"lon":-68.3833333},{"id":273482,"name":"comunidad sakhahuaya","country":"bo","lat":-16.3833333,"lon":-67.7333333},{"id":278913,"name":"juni","country":"bo","lat":-15.6166667,"lon":-68.2833333},{"id":270916,"name":"bartolo","country":"bo","lat":-15.5666667,"lon":-68.1166667},{"id":272717,"name":"chuchequesta","country":"bo","lat":-16.1833333,"lon":-68.4333333},{"id":271197,"name":"cagua","country":"bo","lat":-15.8666667,"lon":-68.1},{"id":281550,"name":"pata patani","country":"bo","lat":-16.45,"lon":-68.1666667},{"id":272133,"name":"chajolpaya","country":"bo","lat":-15.8666667,"lon":-68.4},{"id":272423,"name":"chijchipa","country":"bo","lat":-16.1333333,"lon":-67.7333333},{"id":270249,"name":"ailaico","country":"bo","lat":-16.3333333,"lon":-68.1},{"id":284707,"name":"tolapi","country":"bo","lat":-15.55,"lon":-68.4166667},{"id":273580,"name":"comunidad tujuyo","country":"bo","lat":-16.4,"lon":-68.4166667},{"id":283367,"name":"san pedro","country":"bo","lat":-16.0,"lon":-67.6},{"id":277614,"name":"guarapa","country":"bo","lat":-15.9166667,"lon":-67.9166667},{"id":273341,"name":"comunidad kollke amaya","country":"bo","lat":-16.3,"lon":-68.4166667},{"id":279654,"name":"laurani","country":"bo","lat":-16.1333333,"lon":-68.4},{"id":283410,"name":"santa ana de caranavi","country":"bo","lat":-15.7833333,"lon":-67.5833333},{"id":270122,"name":"achina","country":"bo","lat":-15.7333333,"lon":-68.0666667},{"id":284502,"name":"tianani","country":"bo","lat":-15.5666667,"lon":-68.1},{"id":283709,"name":"sicasani","country":"bo","lat":-15.9,"lon":-68.0},{"id":272162,"name":"challampaya","country":"bo","lat":-15.9166667,"lon":-68.1833333},{"id":282430,"name":"puri","country":"bo","lat":-15.7333333,"lon":-68.0},{"id":283957,"name":"sumata","country":"bo","lat":-15.6666667,"lon":-68.4333333},{"id":272025,"name":"cerro nogalani","country":"bo","lat":-16.2166667,"lon":-67.8166667},{"id":284889,"name":"trapiche","country":"bo","lat":-15.6,"lon":-67.7166667},{"id":277699,"name":"hacienda chirioca","country":"bo","lat":-16.4166667,"lon":-68.3666667},{"id":273204,"name":"comunidad chipamaya","country":"bo","lat":-16.3833333,"lon":-68.4333333},{"id":270834,"name":"bajo","country":"bo","lat":-16.0833333,"lon":-68.05},{"id":272489,"name":"chimasi","country":"bo","lat":-15.5,"lon":-67.8833333},{"id":283413,"name":"santa ana del chivoy","country":"bo","lat":-15.5166667,"lon":-67.5},{"id":284166,"name":"tajma","country":"bo","lat":-16.2333333,"lon":-67.5333333},{"id":280682,"name":"munaypata","country":"bo","lat":-15.5,"lon":-67.9333333},{"id":270847,"name":"balsamuni","country":"bo","lat":-15.6166667,"lon":-67.8333333},{"id":270514,"name":"anocagua","country":"bo","lat":-15.5833333,"lon":-67.95},{"id":279426,"name":"la joya","country":"bo","lat":-15.6333333,"lon":-68.3166667},{"id":285066,"name":"tusuaya","country":"bo","lat":-15.7166667,"lon":-68.4833333},{"id":278151,"name":"huichi","country":"bo","lat":-15.7666667,"lon":-68.1666667},{"id":273584,"name":"comunidad uma palca","country":"bo","lat":-16.05,"lon":-68.2166667},{"id":281940,"name":"porema","country":"bo","lat":-15.6166667,"lon":-67.85},{"id":271202,"name":"cahua","country":"bo","lat":-16.0333333,"lon":-67.9833333},{"id":277539,"name":"gritado","country":"bo","lat":-15.55,"lon":-68.1},{"id":280921,"name":"ocobaya","country":"bo","lat":-16.4166667,"lon":-67.5166667},{"id":282948,"name":"saca","country":"bo","lat":-15.5833333,"lon":-67.7333333},{"id":271095,"name":"buenos aires","country":"bo","lat":-15.55,"lon":-68.0},{"id":272583,"name":"chitado","country":"bo","lat":-15.75,"lon":-68.1},{"id":285037,"name":"turcocala","country":"bo","lat":-15.7833333,"lon":-67.6},{"id":284619,"name":"tirma","country":"bo","lat":-15.8833333,"lon":-67.8166667},{"id":285825,"name":"yolosani","country":"bo","lat":-15.5833333,"lon":-67.8},{"id":277640,"name":"guariya","country":"bo","lat":-15.85,"lon":-68.1666667},{"id":270629,"name":"arequipa","country":"bo","lat":-15.6,"lon":-67.95},{"id":273292,"name":"comunidad ilumaya","country":"bo","lat":-16.4166667,"lon":-67.6666667},{"id":278388,"name":"ingenio","country":"bo","lat":-15.7833333,"lon":-67.7},{"id":279587,"name":"la silla","country":"bo","lat":-15.9666667,"lon":-67.6666667},{"id":283921,"name":"suapi","country":"bo","lat":-15.5,"lon":-67.5166667},{"id":281569,"name":"pauchinta","country":"bo","lat":-15.8166667,"lon":-67.7166667},{"id":285612,"name":"viscachani","country":"bo","lat":-15.8833333,"lon":-68.35},{"id":283889,"name":"sopucini","country":"bo","lat":-15.6166667,"lon":-67.95},{"id":278951,"name":"jutihuaya","country":"bo","lat":-16.1166667,"lon":-68.2333333},{"id":279124,"name":"kilometro 25","country":"bo","lat":-16.25,"lon":-67.7666667},{"id":277756,"name":"haylliguaya","country":"bo","lat":-16.0833333,"lon":-68.4333333},{"id":278707,"name":"jancocala","country":"bo","lat":-16.35,"lon":-68.4},{"id":271053,"name":"botijlaca","country":"bo","lat":-16.2166667,"lon":-68.1166667},{"id":271697,"name":"caranavi","country":"bo","lat":-15.8166667,"lon":-67.55},{"id":272614,"name":"choclo","country":"bo","lat":-15.85,"lon":-68.3333333},{"id":271870,"name":"casillani","country":"bo","lat":-15.5666667,"lon":-67.8833333},{"id":270286,"name":"alcoche","country":"bo","lat":-15.7,"lon":-67.6666667},{"id":270762,"name":"avicaya","country":"bo","lat":-16.4833333,"lon":-68.45},{"id":272171,"name":"challapata","country":"bo","lat":-15.8833333,"lon":-68.1166667},{"id":272929,"name":"coani","country":"bo","lat":-16.45,"lon":-68.4666667},{"id":279120,"name":"kilkilo","country":"bo","lat":-15.95,"lon":-67.75},{"id":273212,"name":"comunidad choro bajo","country":"bo","lat":-16.0666667,"lon":-67.6166667},{"id":283089,"name":"san andres","country":"bo","lat":-15.9833333,"lon":-68.3},{"id":283775,"name":"sinai","country":"bo","lat":-15.5,"lon":-67.8},{"id":284982,"name":"tujini","country":"bo","lat":-15.5,"lon":-67.9},{"id":283399,"name":"san silverio","country":"bo","lat":-15.8333333,"lon":-67.6},{"id":284017,"name":"susuni","country":"bo","lat":-16.0333333,"lon":-67.9},{"id":278286,"name":"ichuchaca","country":"bo","lat":-16.05,"lon":-68.25},{"id":282963,"name":"sacramento","country":"bo","lat":-16.2333333,"lon":-67.8},{"id":280756,"name":"nairapi","country":"bo","lat":-15.5833333,"lon":-68.2},{"id":275242,"name":"estancia coscapa","country":"bo","lat":-16.1,"lon":-68.1333333},{"id":273742,"name":"coroico viejo","country":"bo","lat":-16.25,"lon":-67.7333333},{"id":282425,"name":"pura pura","country":"bo","lat":-16.4833333,"lon":-68.1666667},{"id":275255,"name":"estancia cruzani","country":"bo","lat":-16.0166667,"lon":-67.8333333},{"id":278117,"name":"huayra pata","country":"bo","lat":-15.9,"lon":-67.8333333},{"id":272722,"name":"chucho","country":"bo","lat":-15.8833333,"lon":-68.15},{"id":271947,"name":"cayapi","country":"bo","lat":-16.4166667,"lon":-67.75},{"id":280335,"name":"milliguaya","country":"bo","lat":-16.35,"lon":-67.6166667},{"id":274728,"name":"estancia cacapi","country":"bo","lat":-16.4333333,"lon":-67.8},{"id":274157,"name":"dorado","country":"bo","lat":-16.2666667,"lon":-67.6333333},{"id":273671,"name":"cooca","country":"bo","lat":-15.7833333,"lon":-68.4333333},{"id":278489,"name":"isata","country":"bo","lat":-15.5333333,"lon":-68.0166667},{"id":279806,"name":"llaullini","country":"bo","lat":-16.2,"lon":-68.15},{"id":274549,"name":"estancia achachicala","country":"bo","lat":-16.3333333,"lon":-68.0833333},{"id":283924,"name":"subico","country":"bo","lat":-15.95,"lon":-67.85},{"id":279203,"name":"la angelica","country":"bo","lat":-15.5666667,"lon":-68.0833333},{"id":278284,"name":"ichuairca","country":"bo","lat":-16.4833333,"lon":-68.2666667},{"id":278453,"name":"ircatanani","country":"bo","lat":-16.1333333,"lon":-68.3333333},{"id":278354,"name":"incahuara de khullu kkuchu","country":"bo","lat":-15.8833333,"lon":-67.5833333},{"id":272096,"name":"chacon","country":"bo","lat":-16.2666667,"lon":-67.65},{"id":272795,"name":"chuquiaguillo","country":"bo","lat":-16.45,"lon":-68.1166667},{"id":273864,"name":"crucero","country":"bo","lat":-15.85,"lon":-67.6166667},{"id":273792,"name":"coscapa","country":"bo","lat":-15.75,"lon":-67.8333333},{"id":275160,"name":"estancia churiaca","country":"bo","lat":-16.35,"lon":-68.3333333}]});