callback({"markets":[{"id":2433622,"name":"krasny sever","country":"ru","lat":65.7,"lon":43.6},{"id":2497600,"name":"prokshino","country":"ru","lat":65.801934,"lon":43.599708},{"id":2471805,"name":"novaya sloboda","country":"ru","lat":65.863596,"lon":44.216813},{"id":2441797,"name":"lampozhnya","country":"ru","lat":65.689123,"lon":44.326801},{"id":2386692,"name":"chetsa malaya","country":"ru","lat":66.016667,"lon":44.05},{"id":2373401,"name":"bobrovka","country":"ru","lat":65.791046,"lon":43.83156},{"id":2519142,"name":"skit","country":"ru","lat":66.2,"lon":44.4},{"id":2380904,"name":"bubnov nos","country":"ru","lat":65.933611,"lon":44.111944},{"id":2525150,"name":"staraya prelaya","country":"ru","lat":66.35,"lon":44.433333},{"id":2479501,"name":"okulovski","country":"ru","lat":66.037162,"lon":44.039938},{"id":2572363,"name":"zlakurye","country":"ru","lat":65.722952,"lon":44.367506},{"id":2414907,"name":"karyepolye","country":"ru","lat":65.539364,"lon":43.6858},{"id":2458072,"name":"mezen","country":"ru","lat":65.840291,"lon":44.249269},{"id":2366691,"name":"balakhcha","country":"ru","lat":65.896919,"lon":43.519139},{"id":2470271,"name":"nizhnyaya mgla","country":"ru","lat":66.491375,"lon":44.395066},{"id":2390342,"name":"derevnya semzha","country":"ru","lat":66.148853,"lon":44.116621},{"id":2412024,"name":"kamenka","country":"ru","lat":65.887591,"lon":44.112612},{"id":2552606,"name":"verkhnyaya mgla","country":"ru","lat":66.497638,"lon":44.44768},{"id":2489760,"name":"piya","country":"ru","lat":66.039595,"lon":44.164419},{"id":2386691,"name":"chetsa","country":"ru","lat":65.998596,"lon":44.027146},{"id":2536508,"name":"timoshchelskaya","country":"ru","lat":65.633041,"lon":44.428435}]});