callback({"markets":[{"id":1791136,"name":"tambonihabo","country":"mg","lat":-23.85,"lon":44.0666667},{"id":1789437,"name":"mikaikarivo","country":"mg","lat":-23.7666667,"lon":44.3},{"id":1777418,"name":"ampakabo","country":"mg","lat":-23.7333333,"lon":44.3},{"id":1786523,"name":"itambono","country":"mg","lat":-23.8666667,"lon":44.0833333},{"id":1783640,"name":"beampemba","country":"mg","lat":-24.1666667,"lon":44.4166667},{"id":1788701,"name":"marohira","country":"mg","lat":-23.9333333,"lon":44.45},{"id":1784212,"name":"belamaky","country":"mg","lat":-23.5,"lon":44.0166667},{"id":1784185,"name":"bekotika","country":"mg","lat":-23.5833333,"lon":44.3},{"id":1783951,"name":"behazomby","country":"mg","lat":-24.1333333,"lon":43.7},{"id":1778680,"name":"anaralava","country":"mg","lat":-23.5833333,"lon":44.2666667},{"id":1783779,"name":"befaha","country":"mg","lat":-23.85,"lon":44.3666667},{"id":1792199,"name":"voaifotsy","country":"mg","lat":-23.5166667,"lon":44.0333333},{"id":1788383,"name":"manorihy","country":"mg","lat":-23.8666667,"lon":44.4166667},{"id":1791172,"name":"tanambaobemoka","country":"mg","lat":-23.5666667,"lon":44.2833333},{"id":1786989,"name":"lavainaly","country":"mg","lat":-23.5333333,"lon":43.9},{"id":1786984,"name":"lavadanora","country":"mg","lat":-23.5666667,"lon":43.7833333},{"id":1785318,"name":"bevovoka","country":"mg","lat":-24.0,"lon":43.7333333},{"id":1784768,"name":"berronga","country":"mg","lat":-24.35,"lon":44.4333333},{"id":1784691,"name":"bereoka","country":"mg","lat":-23.5666667,"lon":43.8166667},{"id":1784216,"name":"belambiry","country":"mg","lat":-24.2,"lon":44.2},{"id":1791173,"name":"tanambao-betalatala","country":"mg","lat":-23.7666667,"lon":44.4666667},{"id":1775555,"name":"ambilalialika","country":"mg","lat":-23.8666667,"lon":43.7333333},{"id":1781390,"name":"ankilirano","country":"mg","lat":-23.9333333,"lon":44.4666667},{"id":1781304,"name":"ankilimalangy","country":"mg","lat":-24.0833333,"lon":44.4166667},{"id":1781812,"name":"anontsy","country":"mg","lat":-23.7666667,"lon":44.3333333},{"id":1782475,"name":"antaravay","country":"mg","lat":-23.5333333,"lon":44.3166667},{"id":1782220,"name":"antanantsoa","country":"mg","lat":-23.9333333,"lon":44.3333333},{"id":1774298,"name":"ambahevahe","country":"mg","lat":-23.8166667,"lon":43.6666667},{"id":1789426,"name":"mihitraika","country":"mg","lat":-23.7833333,"lon":44.4666667},{"id":1789094,"name":"masiaboay","country":"mg","lat":-23.9,"lon":44.4666667},{"id":1781050,"name":"ankazontaha","country":"mg","lat":-23.65,"lon":44.3333333},{"id":1786167,"name":"ianantsony","country":"mg","lat":-23.55,"lon":43.7666667},{"id":1780358,"name":"anjahamanananaka","country":"mg","lat":-23.9833333,"lon":44.3833333},{"id":1791125,"name":"tambohoabo","country":"mg","lat":-23.55,"lon":43.75},{"id":1782630,"name":"antohabato","country":"mg","lat":-23.55,"lon":44.45},{"id":1786785,"name":"kilimidega","country":"mg","lat":-24.2333333,"lon":44.4833333},{"id":1788839,"name":"maromena","country":"mg","lat":-23.8,"lon":43.65},{"id":1779657,"name":"andranomay","country":"mg","lat":-23.55,"lon":44.4},{"id":1774255,"name":"alotsakanga","country":"mg","lat":-23.55,"lon":44.2},{"id":1779807,"name":"andranotohoka","country":"mg","lat":-23.7666667,"lon":43.6833333},{"id":1789845,"name":"poizy","country":"mg","lat":-23.5166667,"lon":44.3},{"id":1787022,"name":"lavenambato","country":"mg","lat":-23.5833333,"lon":43.8},{"id":1780468,"name":"anjeba","country":"mg","lat":-23.7,"lon":44.3833333},{"id":1789912,"name":"ranonda","country":"mg","lat":-23.7333333,"lon":44.3333333},{"id":1784192,"name":"belafika ambony","country":"mg","lat":-24.2833333,"lon":44.1666667},{"id":1791205,"name":"tanamoao-anjamena","country":"mg","lat":-23.95,"lon":44.4166667},{"id":1781373,"name":"ankilimivony","country":"mg","lat":-23.8,"lon":43.6833333},{"id":1785605,"name":"esifaka","country":"mg","lat":-24.2833333,"lon":44.35},{"id":1791380,"name":"tokondolo","country":"mg","lat":-23.6666667,"lon":44.0333333},{"id":1792324,"name":"vohimikapika","country":"mg","lat":-23.55,"lon":44.35},{"id":1779456,"name":"andranoabo atsimo","country":"mg","lat":-24.0833333,"lon":44.4666667},{"id":1780010,"name":"andresabiky","country":"mg","lat":-23.9,"lon":44.3833333},{"id":1788575,"name":"maroarivo","country":"mg","lat":-23.8,"lon":44.1},{"id":1785748,"name":"farafatse","country":"mg","lat":-24.2833333,"lon":44.4333333},{"id":1790485,"name":"sakoatavo","country":"mg","lat":-24.4833333,"lon":44.45},{"id":1786149,"name":"ianakatsamby","country":"mg","lat":-23.7,"lon":44.2333333},{"id":1781359,"name":"ankilimitaha","country":"mg","lat":-23.95,"lon":43.6833333},{"id":1777103,"name":"ambolovolo","country":"mg","lat":-24.1166667,"lon":43.7166667},{"id":1785281,"name":"bevoha nord","country":"mg","lat":-23.75,"lon":44.4833333},{"id":1783478,"name":"arnboroka","country":"mg","lat":-23.5,"lon":44.4},{"id":1783701,"name":"beantaka","country":"mg","lat":-23.8,"lon":44.3},{"id":1790840,"name":"soalary","country":"mg","lat":-23.5833333,"lon":43.7166667},{"id":1788389,"name":"manoroka","country":"mg","lat":-23.5166667,"lon":43.8333333},{"id":1792560,"name":"zarandefo","country":"mg","lat":-23.8833333,"lon":44.0833333},{"id":1786966,"name":"lanivato","country":"mg","lat":-24.35,"lon":43.6833333},{"id":1786782,"name":"kilimasy","country":"mg","lat":-24.25,"lon":44.3166667},{"id":1792577,"name":"zonarivo","country":"mg","lat":-24.3333333,"lon":43.7},{"id":1774760,"name":"ambalaviro","country":"mg","lat":-23.9,"lon":43.6666667},{"id":1784249,"name":"belaro","country":"mg","lat":-24.2166667,"lon":44.2833333},{"id":1783633,"name":"beambiotsy","country":"mg","lat":-23.95,"lon":44.4833333},{"id":1781007,"name":"ankazomateila","country":"mg","lat":-23.8833333,"lon":44.1666667},{"id":1781360,"name":"ankilimitahy","country":"mg","lat":-23.7333333,"lon":44.4333333},{"id":1786125,"name":"iambory","country":"mg","lat":-23.95,"lon":44.1333333},{"id":1779644,"name":"andranomat","country":"mg","lat":-23.55,"lon":44.3166667},{"id":1781998,"name":"antalia","country":"mg","lat":-24.4166667,"lon":44.4666667},{"id":1780324,"name":"anivondrano","country":"mg","lat":-23.6,"lon":44.3333333},{"id":1781361,"name":"ankilimitata","country":"mg","lat":-23.7333333,"lon":44.4166667},{"id":1781496,"name":"ankiririsa","country":"mg","lat":-23.9,"lon":43.6833333},{"id":1787121,"name":"lovokampy","country":"mg","lat":-23.5833333,"lon":43.75},{"id":1780256,"name":"anena","country":"mg","lat":-24.0833333,"lon":44.3333333},{"id":1780412,"name":"anjamena","country":"mg","lat":-23.9333333,"lon":44.4166667},{"id":1784810,"name":"besamata","country":"mg","lat":-23.9833333,"lon":43.6833333},{"id":1792104,"name":"vatolalakahaby","country":"mg","lat":-23.8333333,"lon":43.6666667},{"id":1792423,"name":"vohitsara","country":"mg","lat":-23.8833333,"lon":44.2666667},{"id":1781000,"name":"ankazomanoa","country":"mg","lat":-23.65,"lon":44.1333333},{"id":1779998,"name":"andremiory","country":"mg","lat":-23.9666667,"lon":44.15},{"id":1783289,"name":"antsirafaly","country":"mg","lat":-23.6166667,"lon":43.7166667},{"id":1783221,"name":"antsifitsy","country":"mg","lat":-23.9833333,"lon":44.4833333},{"id":1779425,"name":"andranamy","country":"mg","lat":-23.7333333,"lon":44.0666667},{"id":1787313,"name":"mahaleotra","country":"mg","lat":-23.5166667,"lon":44.0833333},{"id":1782945,"name":"antsakoamahity","country":"mg","lat":-23.6833333,"lon":44.3},{"id":1775180,"name":"ambatolampy","country":"mg","lat":-23.5,"lon":43.95},{"id":1780707,"name":"ankalindrano","country":"mg","lat":-23.9333333,"lon":43.7},{"id":1791117,"name":"tamaintsoa","country":"mg","lat":-23.5333333,"lon":44.3},{"id":1779319,"name":"andrahavia","country":"mg","lat":-23.65,"lon":44.1666667},{"id":1786584,"name":"ivohibe","country":"mg","lat":-23.5333333,"lon":44.4},{"id":1777292,"name":"amborovoro","country":"mg","lat":-23.6166667,"lon":44.45},{"id":1792443,"name":"vohombe","country":"mg","lat":-24.4166667,"lon":43.8166667},{"id":1791837,"name":"tsimaitsatsaka","country":"mg","lat":-23.6833333,"lon":44.4333333},{"id":1780726,"name":"ankandy","country":"mg","lat":-23.7333333,"lon":44.1166667},{"id":1789462,"name":"miogo","country":"mg","lat":-23.6166667,"lon":44.0333333},{"id":1784272,"name":"belaza","country":"mg","lat":-23.5166667,"lon":44.2666667},{"id":1791654,"name":"tsiafantoka","country":"mg","lat":-23.65,"lon":44.4333333},{"id":1783841,"name":"befasika","country":"mg","lat":-23.55,"lon":44.4666667},{"id":1777880,"name":"ampasimandroaka","country":"mg","lat":-23.7333333,"lon":44.3666667},{"id":1786701,"name":"kavola-ianena","country":"mg","lat":-23.5666667,"lon":44.1833333},{"id":1790659,"name":"saritsipy","country":"mg","lat":-23.8833333,"lon":43.95},{"id":1783606,"name":"beahitse","country":"mg","lat":-24.1666667,"lon":44.4333333},{"id":1784652,"name":"berapaky","country":"mg","lat":-24.0833333,"lon":44.1},{"id":1783908,"name":"behabobo","country":"mg","lat":-23.5166667,"lon":44.4333333},{"id":1781969,"name":"antafy","country":"mg","lat":-23.5166667,"lon":44.1333333},{"id":1778418,"name":"analalentike","country":"mg","lat":-23.7666667,"lon":44.1166667},{"id":1780367,"name":"anjahambalo","country":"mg","lat":-23.8,"lon":44.3666667},{"id":1785523,"name":"efoetse","country":"mg","lat":-24.0666667,"lon":43.7},{"id":1788634,"name":"marofijery","country":"mg","lat":-24.0333333,"lon":43.7},{"id":1778695,"name":"anarbe","country":"mg","lat":-23.7166667,"lon":44.35},{"id":1786240,"name":"ifanato","country":"mg","lat":-23.5333333,"lon":44.15},{"id":1780755,"name":"ankarahaka","country":"mg","lat":-23.5666667,"lon":44.2333333},{"id":1780346,"name":"anja-belitsaka","country":"mg","lat":-24.4,"lon":43.75},{"id":1785814,"name":"fenoanala","country":"mg","lat":-23.5333333,"lon":44.3333333},{"id":1779537,"name":"andranokototo","country":"mg","lat":-23.8333333,"lon":44.4333333},{"id":1788005,"name":"mandamby","country":"mg","lat":-24.05,"lon":44.1},{"id":1781493,"name":"ankirilaza","country":"mg","lat":-23.7666667,"lon":44.3666667},{"id":1785431,"name":"boro","country":"mg","lat":-23.5833333,"lon":44.25},{"id":1785039,"name":"betioky","country":"mg","lat":-23.7166667,"lon":44.3833333},{"id":1779792,"name":"andranotantely","country":"mg","lat":-23.8666667,"lon":44.45},{"id":1791237,"name":"tanandranto","country":"mg","lat":-24.3166667,"lon":43.7166667},{"id":1779457,"name":"andranoabo avaratra","country":"mg","lat":-24.0666667,"lon":44.45},{"id":1782975,"name":"antsakoandehy","country":"mg","lat":-23.7666667,"lon":44.4333333},{"id":1779994,"name":"andremba","country":"mg","lat":-23.9666667,"lon":44.2},{"id":1785817,"name":"fenoanivo atsimo","country":"mg","lat":-23.5666667,"lon":44.45},{"id":1786739,"name":"kerinika","country":"mg","lat":-23.55,"lon":43.8333333},{"id":1788388,"name":"manorofify","country":"mg","lat":-23.5166667,"lon":43.9666667},{"id":1777051,"name":"ambolofoty","country":"mg","lat":-23.5333333,"lon":43.8666667},{"id":1783460,"name":"antuly","country":"mg","lat":-23.5333333,"lon":44.1666667},{"id":1778824,"name":"andamilamy","country":"mg","lat":-23.9666667,"lon":44.4166667},{"id":1788851,"name":"maromitilike","country":"mg","lat":-24.1166667,"lon":43.7},{"id":1782904,"name":"antsakabalala","country":"mg","lat":-23.5666667,"lon":44.3833333},{"id":1778371,"name":"anakao","country":"mg","lat":-23.6666667,"lon":43.65},{"id":1779167,"name":"andohasatra","country":"mg","lat":-23.6666667,"lon":44.35},{"id":1792322,"name":"vohimena","country":"mg","lat":-23.6166667,"lon":44.0833333},{"id":1791434,"name":"tongombory","country":"mg","lat":-23.5166667,"lon":44.3333333},{"id":1791953,"name":"tsiozo","country":"mg","lat":-23.7333333,"lon":44.35},{"id":1781749,"name":"ankotoboka","country":"mg","lat":-23.8333333,"lon":44.35},{"id":1792105,"name":"vatolalaka","country":"mg","lat":-23.8333333,"lon":43.65},{"id":1789545,"name":"montelimy","country":"mg","lat":-24.0166667,"lon":43.7},{"id":1782767,"name":"antrebika","country":"mg","lat":-23.8666667,"lon":44.3},{"id":1780253,"name":"androy","country":"mg","lat":-23.6833333,"lon":44.05},{"id":1791365,"name":"toboky","country":"mg","lat":-24.4166667,"lon":44.3},{"id":1778520,"name":"analamitaha","country":"mg","lat":-23.8333333,"lon":44.1},{"id":1775020,"name":"ambary","country":"mg","lat":-23.8333333,"lon":44.4166667},{"id":1775420,"name":"ambatoveve","country":"mg","lat":-23.8833333,"lon":44.05},{"id":1790337,"name":"sainta","country":"mg","lat":-24.0666667,"lon":44.4},{"id":1777873,"name":"ampasimainty","country":"mg","lat":-23.5166667,"lon":44.4166667}]});