callback({"markets":[{"id":2376109,"name":"bolshevik","country":"ru","lat":56.3,"lon":39.366667},{"id":2530212,"name":"sumina","country":"ru","lat":55.656791,"lon":38.825565},{"id":2521092,"name":"sofryakovo","country":"ru","lat":55.635061,"lon":39.359747},{"id":2507058,"name":"salkova","country":"ru","lat":55.729885,"lon":39.00187},{"id":2367812,"name":"barskovo","country":"ru","lat":56.007511,"lon":39.009894},{"id":2465637,"name":"nazaryeva","country":"ru","lat":55.750596,"lon":38.778089},{"id":2429931,"name":"koskovka","country":"ru","lat":56.168,"lon":39.362999},{"id":2423702,"name":"klitina","country":"ru","lat":55.929661,"lon":38.570751},{"id":2406248,"name":"ignatyeva","country":"ru","lat":55.768567,"lon":38.656269},{"id":2365153,"name":"avdotino","country":"ru","lat":56.26899,"lon":39.302469},{"id":2373926,"name":"bogdarnya","country":"ru","lat":55.870508,"lon":39.35983},{"id":2536407,"name":"timkovo","country":"ru","lat":55.931808,"lon":38.622301},{"id":2505229,"name":"ryabinino","country":"ru","lat":56.444423,"lon":39.134622},{"id":2549958,"name":"vereshchagino","country":"ru","lat":55.608894,"lon":39.343103},{"id":2396996,"name":"filimonovo","country":"ru","lat":55.967882,"lon":39.257219},{"id":2522438,"name":"sorokino","country":"ru","lat":56.361827,"lon":38.784167},{"id":2569265,"name":"zaykovo","country":"ru","lat":56.321266,"lon":39.382284},{"id":2454543,"name":"marenkino","country":"ru","lat":56.2,"lon":38.533333},{"id":2415117,"name":"kashino","country":"ru","lat":55.99697,"lon":38.855988},{"id":2549164,"name":"vaulova","country":"ru","lat":56.1321,"lon":39.2839},{"id":2484051,"name":"panarinskiy","country":"ru","lat":55.616667,"lon":39.066667},{"id":2483033,"name":"ozeretskiy","country":"ru","lat":55.816667,"lon":39.2},{"id":2472957,"name":"novofetinino","country":"ru","lat":56.228176,"lon":39.281488},{"id":2454715,"name":"marinkino","country":"ru","lat":56.166667,"lon":39.116667},{"id":2425709,"name":"kolobrodovo","country":"ru","lat":56.0349,"lon":39.3497},{"id":2479941,"name":"olkhovo","country":"ru","lat":56.0,"lon":39.083333},{"id":2461292,"name":"molygino","country":"ru","lat":55.711961,"lon":38.603916},{"id":2371316,"name":"berezovaya roshcha","country":"ru","lat":56.240361,"lon":39.170427},{"id":2412390,"name":"kamentsy","country":"ru","lat":55.593136,"lon":39.328625},{"id":2527216,"name":"staryye petushki","country":"ru","lat":55.942645,"lon":39.488471},{"id":2400000,"name":"glubokovo","country":"ru","lat":55.885652,"lon":39.163063},{"id":2434311,"name":"krasnyy ruchey","country":"ru","lat":56.3753,"lon":39.3444},{"id":2370688,"name":"belyy mokh","country":"ru","lat":55.896959,"lon":38.82075},{"id":2392794,"name":"drezna","country":"ru","lat":55.742082,"lon":38.847526},{"id":2396991,"name":"filimonovo","country":"ru","lat":55.775884,"lon":38.627537},{"id":2519909,"name":"sloboda","country":"ru","lat":55.584473,"lon":39.425376},{"id":2453107,"name":"malyye gorki","country":"ru","lat":56.0288,"lon":39.0998},{"id":2381899,"name":"bunkovo","country":"ru","lat":56.34855,"lon":39.035928},{"id":2564556,"name":"yevsevyevo","country":"ru","lat":55.75496,"lon":38.676549},{"id":2527608,"name":"staryy zelenyy ostrov","country":"ru","lat":55.893245,"lon":38.798994},{"id":2503984,"name":"rozhdestvo","country":"ru","lat":56.085355,"lon":39.496321},{"id":2393248,"name":"dubki","country":"ru","lat":56.1,"lon":38.7},{"id":2377082,"name":"bolshoye brattsevo","country":"ru","lat":56.4263,"lon":39.3832},{"id":2465933,"name":"neglovo","country":"ru","lat":56.266667,"lon":38.633333},{"id":2451398,"name":"malkovo","country":"ru","lat":55.523932,"lon":39.154904},{"id":2384016,"name":"chasha","country":"ru","lat":55.854441,"lon":39.349394},{"id":2568091,"name":"zaponorye","country":"ru","lat":55.63879,"lon":38.864883},{"id":2490303,"name":"ploski","country":"ru","lat":56.4482,"lon":39.4425},{"id":2474008,"name":"novonikolayevka","country":"ru","lat":55.722326,"lon":39.315402},{"id":2510749,"name":"senga-ozero","country":"ru","lat":55.816667,"lon":39.383333},{"id":2420865,"name":"khutor","country":"ru","lat":55.666667,"lon":39.2},{"id":2406606,"name":"ileykino","country":"ru","lat":56.073593,"lon":38.857888},{"id":2482667,"name":"ovchinino","country":"ru","lat":56.03254,"lon":39.053306},{"id":2369814,"name":"belkovskaya gorka","country":"ru","lat":56.25,"lon":38.783333},{"id":2455094,"name":"marochkovo","country":"ru","lat":55.911329,"lon":39.229777},{"id":2474949,"name":"novosergiyevo","country":"ru","lat":55.995833,"lon":38.5625},{"id":2524746,"name":"stanovtsevo","country":"ru","lat":56.048059,"lon":39.455388},{"id":2362881,"name":"antsiferovo","country":"ru","lat":55.556107,"lon":38.814485},{"id":2389882,"name":"demidova","country":"ru","lat":55.780954,"lon":38.788304},{"id":2455015,"name":"markovo","country":"ru","lat":55.864453,"lon":39.290983},{"id":2399740,"name":"glebova","country":"ru","lat":55.661976,"lon":38.927189},{"id":2570793,"name":"zheludyevo","country":"ru","lat":55.974963,"lon":39.118081},{"id":2477480,"name":"novyy ozernyy","country":"ru","lat":55.962038,"lon":38.714395},{"id":2527207,"name":"staryye omutishchi","country":"ru","lat":55.905962,"lon":39.322619},{"id":2410503,"name":"kablukovo","country":"ru","lat":56.363674,"lon":39.095824},{"id":2402956,"name":"gostets","country":"ru","lat":55.965065,"lon":39.074397},{"id":2370855,"name":"berechino","country":"ru","lat":56.2626,"lon":39.4024},{"id":2437654,"name":"kulikovka","country":"ru","lat":56.465873,"lon":39.154673},{"id":2399412,"name":"gideyevo","country":"ru","lat":56.283333,"lon":38.55},{"id":2429653,"name":"kosheleva","country":"ru","lat":56.0574,"lon":39.1135},{"id":2429083,"name":"korovina","country":"ru","lat":55.667642,"lon":38.85698},{"id":2526663,"name":"staroye semenkovo","country":"ru","lat":55.945978,"lon":39.31622},{"id":2565436,"name":"yurkina","country":"ru","lat":55.702387,"lon":38.848547},{"id":2519471,"name":"skryabino","country":"ru","lat":56.1166,"lon":39.3144},{"id":2526281,"name":"staroye annino","country":"ru","lat":55.948453,"lon":39.396654},{"id":2377567,"name":"bolshoye pastbishche","country":"ru","lat":56.466667,"lon":38.666667},{"id":2423831,"name":"klyazminskiy","country":"ru","lat":55.933333,"lon":39.45},{"id":2374831,"name":"bolshaya dubna","country":"ru","lat":55.878788,"lon":38.903142},{"id":2390078,"name":"demyanovo","country":"ru","lat":56.438175,"lon":39.128948},{"id":2369553,"name":"belaya rechka","country":"ru","lat":56.284912,"lon":39.406648},{"id":2492629,"name":"pokrov","country":"ru","lat":55.917973,"lon":39.172416},{"id":2366450,"name":"bakinets","country":"ru","lat":56.201842,"lon":39.2134},{"id":2440852,"name":"kuzyayevo","country":"ru","lat":55.615585,"lon":38.537391},{"id":2445513,"name":"litvinova","country":"ru","lat":56.321666,"lon":39.407418},{"id":2536358,"name":"timino","country":"ru","lat":56.120058,"lon":39.074883},{"id":2406283,"name":"ignatyevskoye","country":"ru","lat":55.61126,"lon":38.531161},{"id":2480670,"name":"orekhovo-zuevo","country":"ru","lat":55.806722,"lon":38.961782},{"id":2558282,"name":"vyalovo","country":"ru","lat":56.011967,"lon":39.174034},{"id":2436959,"name":"kudykino","country":"ru","lat":55.733002,"lon":38.978003},{"id":2513953,"name":"shchetinino","country":"ru","lat":55.705126,"lon":39.249579},{"id":2377278,"name":"bolshoye kishnevo","country":"ru","lat":55.71399,"lon":38.87017},{"id":2554593,"name":"visokovo","country":"ru","lat":55.735084,"lon":39.021348},{"id":2360660,"name":"aleshki","country":"ru","lat":56.30303,"lon":39.183631},{"id":2403797,"name":"gridina","country":"ru","lat":55.755912,"lon":38.81847},{"id":2431449,"name":"kozlakovo","country":"ru","lat":56.4274,"lon":39.0432},{"id":2508802,"name":"savinkovo","country":"ru","lat":55.692901,"lon":39.316495},{"id":2383426,"name":"byvalnya","country":"ru","lat":55.72906,"lon":38.763766},{"id":2425460,"name":"kolenova","country":"ru","lat":56.116667,"lon":39.166667},{"id":2465657,"name":"nazhitsy","country":"ru","lat":55.791445,"lon":38.853397},{"id":2394585,"name":"dvydovo","country":"ru","lat":55.608594,"lon":38.861087},{"id":2535191,"name":"teperki","country":"ru","lat":55.908134,"lon":38.933186},{"id":2555791,"name":"volodina","country":"ru","lat":56.15,"lon":39.35},{"id":2388216,"name":"chupriyanovo","country":"ru","lat":55.984495,"lon":39.383243},{"id":2502627,"name":"rodionova","country":"ru","lat":55.988443,"lon":38.94893},{"id":2400652,"name":"golobino","country":"ru","lat":56.021299,"lon":39.185877},{"id":2520827,"name":"sobino","country":"ru","lat":56.255932,"lon":39.361167},{"id":2529989,"name":"sukmanikha","country":"ru","lat":56.2502,"lon":39.48},{"id":2420260,"name":"khrapki","country":"ru","lat":56.13265,"lon":38.775446},{"id":2543903,"name":"ulyanikha","country":"ru","lat":56.280736,"lon":39.426401},{"id":2488910,"name":"petushki","country":"ru","lat":55.926393,"lon":39.46104},{"id":2541605,"name":"turygino","country":"ru","lat":55.578348,"lon":38.515332},{"id":2401912,"name":"gorka","country":"ru","lat":56.243382,"lon":38.78583},{"id":2554512,"name":"vishnevyy","country":"ru","lat":56.203141,"lon":39.46529},{"id":2454351,"name":"manuylova","country":"ru","lat":55.728709,"lon":39.384422},{"id":2561939,"name":"yazvishchi","country":"ru","lat":55.676554,"lon":39.009219},{"id":2553534,"name":"veselovo","country":"ru","lat":56.0962,"lon":39.4613},{"id":2360775,"name":"alferova","country":"ru","lat":55.681069,"lon":38.70327},{"id":2417365,"name":"khalturino","country":"ru","lat":55.676321,"lon":39.408916},{"id":2434381,"name":"krasnyy ugol","country":"ru","lat":56.033333,"lon":38.7},{"id":2421546,"name":"kilekshino","country":"ru","lat":55.935867,"lon":39.016431},{"id":2442970,"name":"legkovo","country":"ru","lat":56.396041,"lon":38.890143},{"id":2572598,"name":"znamenskoye","country":"ru","lat":56.088849,"lon":39.075982},{"id":2397698,"name":"frolishchi","country":"ru","lat":56.2997,"lon":39.215047},{"id":2423600,"name":"klin","country":"ru","lat":56.4489,"lon":39.4779},{"id":2362106,"name":"andronovo","country":"ru","lat":55.816667,"lon":38.65},{"id":2401447,"name":"gorbachikha","country":"ru","lat":55.736926,"lon":38.861769},{"id":2435969,"name":"krutovo","country":"ru","lat":55.893454,"lon":39.425786},{"id":2441533,"name":"ladozhino","country":"ru","lat":56.4042,"lon":39.164},{"id":2434085,"name":"krasnyy luch","country":"ru","lat":55.965466,"lon":38.97373},{"id":2556603,"name":"vorontsovo","country":"ru","lat":56.249862,"lon":39.289083},{"id":2528137,"name":"stepurino","country":"ru","lat":55.781266,"lon":38.598198},{"id":2410426,"name":"kabanova","country":"ru","lat":55.748155,"lon":38.935109},{"id":2568887,"name":"zavalino","country":"ru","lat":56.205713,"lon":39.461116},{"id":2444302,"name":"levashovo","country":"ru","lat":56.315,"lon":39.257},{"id":2374103,"name":"bogorodskoye","country":"ru","lat":56.417949,"lon":39.193873},{"id":2394781,"name":"dyldino","country":"ru","lat":55.619228,"lon":39.345124},{"id":2398866,"name":"gavrilovo","country":"ru","lat":55.946667,"lon":38.589167},{"id":2431053,"name":"kovyrevo","country":"ru","lat":56.433333,"lon":39.166667},{"id":2459186,"name":"miltino","country":"ru","lat":56.217244,"lon":39.263365},{"id":2430179,"name":"kostina","country":"ru","lat":55.582584,"lon":38.826494},{"id":2483492,"name":"paddubki","country":"ru","lat":56.268176,"lon":39.386879},{"id":2470999,"name":"nosyrevo","country":"ru","lat":55.835076,"lon":38.703981},{"id":2444782,"name":"likino-dulevo","country":"ru","lat":55.708304,"lon":38.954204},{"id":2473373,"name":"novokharitonovo","country":"ru","lat":55.595512,"lon":38.515163},{"id":2451233,"name":"malinova","country":"ru","lat":55.748333,"lon":38.872561},{"id":2360578,"name":"aleksyunina","country":"ru","lat":55.783333,"lon":38.833333},{"id":2448536,"name":"lyshchikova","country":"ru","lat":55.701469,"lon":39.414226},{"id":2472258,"name":"novinki","country":"ru","lat":56.1131,"lon":39.1085},{"id":2458438,"name":"mikhaleva","country":"ru","lat":55.862022,"lon":38.695821},{"id":2457978,"name":"metallist","country":"ru","lat":56.3613,"lon":39.2389},{"id":2361840,"name":"andreyeva","country":"ru","lat":55.6523,"lon":38.815869},{"id":2486878,"name":"pernovo","country":"ru","lat":55.979393,"lon":39.169142},{"id":2555250,"name":"voinova gora","country":"ru","lat":55.845757,"lon":39.060262},{"id":2422402,"name":"kirzhach","country":"ru","lat":55.911315,"lon":39.079457},{"id":2563747,"name":"yeremino","country":"ru","lat":56.116667,"lon":38.5},{"id":2444194,"name":"letova","country":"ru","lat":56.119,"lon":39.4227},{"id":2485060,"name":"pashnevo","country":"ru","lat":55.702948,"lon":39.364959},{"id":2513437,"name":"shaturtorf","country":"ru","lat":55.567108,"lon":39.421288},{"id":2513904,"name":"shcherbinina","country":"ru","lat":55.789431,"lon":38.877386},{"id":2443489,"name":"leonovo","country":"ru","lat":55.926368,"lon":39.389389},{"id":2359712,"name":"akulovo","country":"ru","lat":56.079327,"lon":38.988052},{"id":2358520,"name":"afanasyeva","country":"ru","lat":56.183333,"lon":38.5},{"id":2358080,"name":"abramovka","country":"ru","lat":56.329365,"lon":39.377767},{"id":2409650,"name":"ivashevo","country":"ru","lat":56.241262,"lon":38.898741},{"id":2428078,"name":"kopylki","country":"ru","lat":56.292716,"lon":39.472945},{"id":2502028,"name":"repikhovo","country":"ru","lat":55.886046,"lon":39.128912},{"id":2397809,"name":"fryazina","country":"ru","lat":55.630924,"lon":38.508498},{"id":2526576,"name":"staroye perepechino","country":"ru","lat":55.890189,"lon":39.216565},{"id":2397260,"name":"fineyevo","country":"ru","lat":56.039743,"lon":38.889837},{"id":2438968,"name":"kuritnikovo","country":"ru","lat":56.05,"lon":38.733333},{"id":2488225,"name":"petrishchevo","country":"ru","lat":56.348227,"lon":39.200924},{"id":2360735,"name":"alexandrov","country":"ru","lat":56.39516,"lon":38.712161},{"id":2363582,"name":"arinina","country":"ru","lat":55.574832,"lon":38.599395},{"id":2457818,"name":"merya","country":"ru","lat":55.739266,"lon":38.558786},{"id":2492161,"name":"pogorelka","country":"ru","lat":56.29013,"lon":38.849056},{"id":2519249,"name":"skomorokhovo","country":"ru","lat":56.314998,"lon":39.09352},{"id":2494169,"name":"popinovo","country":"ru","lat":55.980073,"lon":39.370421},{"id":2375912,"name":"bolshe-karinskoye","country":"ru","lat":56.366667,"lon":38.65},{"id":2562055,"name":"yefimova","country":"ru","lat":55.712604,"lon":38.760185},{"id":2500149,"name":"radovanye","country":"ru","lat":55.655299,"lon":38.907526},{"id":2442417,"name":"lavrenikha","country":"ru","lat":56.208084,"lon":39.486075},{"id":2557107,"name":"vospushki","country":"ru","lat":56.073283,"lon":39.446122},{"id":2568037,"name":"zapolitsa","country":"ru","lat":55.558322,"lon":39.207032},{"id":2388952,"name":"dalnyaya","country":"ru","lat":55.956944,"lon":38.655278},{"id":2564019,"name":"yermolino","country":"ru","lat":56.035778,"lon":39.488121},{"id":2556996,"name":"voskresenskaya","country":"ru","lat":56.1745,"lon":39.2248},{"id":2488071,"name":"pesyane","country":"ru","lat":56.021663,"lon":38.803016},{"id":2420020,"name":"khoteichi","country":"ru","lat":55.504279,"lon":38.780384},{"id":2483347,"name":"ozherelki","country":"ru","lat":55.85584,"lon":38.876636},{"id":2366403,"name":"bakhteyevo","country":"ru","lat":55.584776,"lon":38.516036},{"id":2438375,"name":"kuovskaya","country":"ru","lat":55.581828,"lon":38.91994},{"id":2562045,"name":"yefanovo","country":"ru","lat":56.163302,"lon":38.931943},{"id":2513698,"name":"shchekutovo","country":"ru","lat":55.755498,"lon":38.748684},{"id":2553775,"name":"vetchi","country":"ru","lat":55.958012,"lon":39.005562},{"id":2386707,"name":"chetvert","country":"ru","lat":56.477449,"lon":39.170772},{"id":2526246,"name":"staroya","country":"ru","lat":56.262927,"lon":39.139546},{"id":2450246,"name":"malaya dubna","country":"ru","lat":55.877835,"lon":38.954227},{"id":2428785,"name":"korobovshchinskiy","country":"ru","lat":56.268112,"lon":39.269061},{"id":2437596,"name":"kuligi","country":"ru","lat":55.916747,"lon":38.713483},{"id":2403756,"name":"gribovo","country":"ru","lat":55.79269,"lon":38.604757},{"id":2510312,"name":"semenovo","country":"ru","lat":55.698536,"lon":38.636586},{"id":2521004,"name":"sofino","country":"ru","lat":56.383333,"lon":39.316667},{"id":2467462,"name":"nikolayevka","country":"ru","lat":56.282949,"lon":39.456261},{"id":2536568,"name":"timovo","country":"ru","lat":55.57492,"lon":39.110645},{"id":2444250,"name":"levakhi","country":"ru","lat":56.098775,"lon":39.072684},{"id":2448189,"name":"lyakhova","country":"ru","lat":55.619368,"lon":38.838882},{"id":2360353,"name":"alekseyeva","country":"ru","lat":55.922608,"lon":38.668727},{"id":2445343,"name":"lisitsyno","country":"ru","lat":56.2,"lon":38.85},{"id":2572833,"name":"zolotukha","country":"ru","lat":56.426362,"lon":39.348739},{"id":2448704,"name":"lyubimezh","country":"ru","lat":56.083333,"lon":38.8},{"id":2358071,"name":"abramovka","country":"ru","lat":55.512942,"lon":39.004865},{"id":2403359,"name":"grebchikha","country":"ru","lat":55.695,"lon":39.325797},{"id":2394466,"name":"dvorishchi","country":"ru","lat":56.083333,"lon":38.6},{"id":2477769,"name":"novyy zelenyy ostrov","country":"ru","lat":55.899203,"lon":38.808445},{"id":2363556,"name":"argunovskiy","country":"ru","lat":55.911545,"lon":38.721248},{"id":2392361,"name":"dorofeyeva","country":"ru","lat":55.712187,"lon":39.40406},{"id":2493212,"name":"polosino","country":"ru","lat":56.216667,"lon":38.716667},{"id":2426154,"name":"koltschugino","country":"ru","lat":56.299293,"lon":39.383036},{"id":2413242,"name":"karabanovo","country":"ru","lat":55.910005,"lon":38.57331},{"id":2474789,"name":"novoselova","country":"ru","lat":56.060589,"lon":39.05868},{"id":2421820,"name":"kipreyevo","country":"ru","lat":56.239844,"lon":38.982455},{"id":2519768,"name":"sledovo","country":"ru","lat":55.954722,"lon":38.584722},{"id":2379455,"name":"borovkova","country":"ru","lat":55.989444,"lon":38.544167},{"id":2389204,"name":"danutino","country":"ru","lat":56.2343,"lon":39.0039},{"id":2402580,"name":"goronki","country":"ru","lat":55.939502,"lon":39.144019},{"id":2512175,"name":"shablykino","country":"ru","lat":56.366667,"lon":38.55},{"id":2403744,"name":"gribova","country":"ru","lat":55.946515,"lon":39.426911},{"id":2376292,"name":"bolshiye gorki","country":"ru","lat":56.020087,"lon":39.108641},{"id":2538920,"name":"troitsa-chizhi","country":"ru","lat":55.683333,"lon":38.583333},{"id":2389059,"name":"danilova","country":"ru","lat":55.670451,"lon":38.768648},{"id":2397830,"name":"funikova gora","country":"ru","lat":56.158834,"lon":39.163488},{"id":2406227,"name":"ignatovo","country":"ru","lat":56.1641,"lon":39.2039},{"id":2529306,"name":"suchilovo","country":"ru","lat":55.805466,"lon":38.66445},{"id":2526873,"name":"starskaya","country":"ru","lat":55.733333,"lon":38.916667},{"id":2570873,"name":"zherdeyevo","country":"ru","lat":56.306986,"lon":38.959965},{"id":2387342,"name":"chislavl","country":"ru","lat":56.4844,"lon":39.127},{"id":2462104,"name":"moshkov","country":"ru","lat":56.4,"lon":38.65},{"id":2446316,"name":"lopakovo","country":"ru","lat":55.576653,"lon":38.64683},{"id":2508729,"name":"savelyevo","country":"ru","lat":56.291812,"lon":39.107566},{"id":2407505,"name":"imeni pervogo maya","country":"ru","lat":55.7592,"lon":39.205474},{"id":2505544,"name":"ryazantsy","country":"ru","lat":56.15,"lon":38.5},{"id":2448410,"name":"lychevo","country":"ru","lat":56.381849,"lon":39.425738},{"id":2432137,"name":"krasnaya gora","country":"ru","lat":56.452487,"lon":39.345187},{"id":2447614,"name":"lukyantsevo","country":"ru","lat":56.15,"lon":38.9},{"id":2386015,"name":"chernovo","country":"ru","lat":56.05,"lon":38.55},{"id":2389943,"name":"demikhovo","country":"ru","lat":55.796854,"lon":38.884039},{"id":2409596,"name":"ivantsevo","country":"ru","lat":55.532422,"lon":39.262668},{"id":2398257,"name":"galkin most","country":"ru","lat":56.435872,"lon":39.293465},{"id":2497540,"name":"prokofyevo","country":"ru","lat":56.4062,"lon":39.0469},{"id":2435850,"name":"krutets","country":"ru","lat":56.166667,"lon":38.55},{"id":2454039,"name":"mamontovo","country":"ru","lat":55.949167,"lon":38.553611},{"id":2423176,"name":"klemyachevo","country":"ru","lat":56.417823,"lon":39.11545},{"id":2484222,"name":"pankovo","country":"ru","lat":56.097,"lon":39.0957},{"id":2432214,"name":"krasnaya","country":"ru","lat":55.616613,"lon":39.4093},{"id":2563256,"name":"yeltsy","country":"ru","lat":56.176602,"lon":38.776309},{"id":2482136,"name":"ostrovo","country":"ru","lat":55.682252,"lon":38.869189},{"id":2569103,"name":"zavolinye","country":"ru","lat":55.582292,"lon":38.96195},{"id":2486795,"name":"perkhurova","country":"ru","lat":55.628127,"lon":38.789395},{"id":2484370,"name":"panteleyevo","country":"ru","lat":56.2089,"lon":39.4081},{"id":2393518,"name":"dubrova","country":"ru","lat":55.66575,"lon":38.980095},{"id":2445610,"name":"lizunovo","country":"ru","lat":56.3,"lon":38.5},{"id":2495804,"name":"potochino","country":"ru","lat":55.898742,"lon":38.98493},{"id":2391925,"name":"dolmatovo","country":"ru","lat":56.433333,"lon":38.583333},{"id":2534865,"name":"teleshovo","country":"ru","lat":56.097912,"lon":39.183334},{"id":2565610,"name":"yurtseva","country":"ru","lat":56.283333,"lon":38.683333},{"id":2429010,"name":"korotkova","country":"ru","lat":55.684051,"lon":38.948105},{"id":2511552,"name":"sermino","country":"ru","lat":55.815039,"lon":38.866403},{"id":2491084,"name":"podgornaya","country":"ru","lat":55.8,"lon":38.966667},{"id":2427769,"name":"konyshevo","country":"ru","lat":56.1568,"lon":39.2842},{"id":2557056,"name":"voskresenskoye","country":"ru","lat":55.971192,"lon":39.105868},{"id":2536555,"name":"timoshkino","country":"ru","lat":56.319418,"lon":39.145351},{"id":2396318,"name":"fedorova","country":"ru","lat":55.813405,"lon":38.831789},{"id":2494745,"name":"poselok belivskiy","country":"ru","lat":55.6,"lon":39.033333},{"id":2467711,"name":"nikolo-zagarye","country":"ru","lat":55.647618,"lon":38.756842},{"id":2471009,"name":"notgorodskoye","country":"ru","lat":55.530698,"lon":39.091127},{"id":2409414,"name":"ivanovo","country":"ru","lat":55.948515,"lon":39.211294},{"id":2439722,"name":"kusnezy","country":"ru","lat":55.849097,"lon":38.667711},{"id":2370397,"name":"beltsy","country":"ru","lat":56.219888,"lon":39.081649},{"id":2457856,"name":"meshchera","country":"ru","lat":55.609125,"lon":38.602602},{"id":2520441,"name":"smolevo","country":"ru","lat":55.581292,"lon":38.668184},{"id":2478589,"name":"obukhovo","country":"ru","lat":56.3707,"lon":39.3516},{"id":2555425,"name":"volginskiy","country":"ru","lat":55.966667,"lon":39.233333},{"id":2403700,"name":"gribanovo","country":"ru","lat":55.738182,"lon":38.534586},{"id":2358609,"name":"afonasovo","country":"ru","lat":55.783333,"lon":38.6},{"id":2482069,"name":"ostrovishchi","country":"ru","lat":55.931298,"lon":39.045826},{"id":2431553,"name":"kozlovo","country":"ru","lat":55.713315,"lon":38.791352},{"id":2366576,"name":"baksheyevo","country":"ru","lat":56.450167,"lon":38.70632},{"id":2376269,"name":"bolshiye dvory","country":"ru","lat":55.820052,"lon":38.645147},{"id":2459878,"name":"mistsevo","country":"ru","lat":55.599751,"lon":39.133248},{"id":2387912,"name":"chukayevo","country":"ru","lat":55.643552,"lon":39.372351},{"id":2496393,"name":"prechistino","country":"ru","lat":56.489674,"lon":39.015201},{"id":2526221,"name":"starovo","country":"ru","lat":55.95,"lon":39.25},{"id":2513658,"name":"shchekavtseva","country":"ru","lat":55.986944,"lon":38.524444},{"id":2540109,"name":"tsepnino","country":"ru","lat":55.992099,"lon":39.030222},{"id":2459904,"name":"mitenino","country":"ru","lat":56.1146,"lon":39.1093},{"id":2533660,"name":"tarkhanovskiy uchastok","country":"ru","lat":55.598084,"lon":39.480199},{"id":2468088,"name":"nikulkino","country":"ru","lat":56.116667,"lon":38.633333},{"id":2495042,"name":"poselok mistsevskiy","country":"ru","lat":55.641139,"lon":39.083854},{"id":2428784,"name":"korobovshchina","country":"ru","lat":56.237195,"lon":39.148932},{"id":2555800,"name":"volodino","country":"ru","lat":55.583333,"lon":38.5},{"id":2394484,"name":"dvornikovo","country":"ru","lat":55.505566,"lon":38.625292},{"id":2444453,"name":"levoshevo","country":"ru","lat":55.580443,"lon":39.492519},{"id":2496090,"name":"pozdnyaki","country":"ru","lat":55.547782,"lon":39.37102},{"id":2402740,"name":"gorushki","country":"ru","lat":55.954033,"lon":39.396766},{"id":2472962,"name":"novofrolovo","country":"ru","lat":56.234317,"lon":39.200044},{"id":2568180,"name":"zaputnay","country":"ru","lat":55.581508,"lon":39.293885},{"id":2527780,"name":"stenki","country":"ru","lat":56.270516,"lon":39.454301},{"id":2573453,"name":"zvorkovo","country":"ru","lat":55.600102,"lon":39.246239},{"id":2466599,"name":"nesterova","country":"ru","lat":55.820969,"lon":38.843093},{"id":2408255,"name":"iroshnikovo","country":"ru","lat":56.0879,"lon":39.1745},{"id":2459846,"name":"mishutino","country":"ru","lat":55.766667,"lon":38.7},{"id":2359554,"name":"aksentyevo","country":"ru","lat":56.466667,"lon":38.766667},{"id":2417326,"name":"khalino","country":"ru","lat":56.173181,"lon":39.078939},{"id":2396872,"name":"fetinovo","country":"ru","lat":56.152634,"lon":39.198581},{"id":2396183,"name":"fateyevo","country":"ru","lat":55.748823,"lon":38.644806},{"id":2417963,"name":"kharlamovo","country":"ru","lat":56.069212,"lon":39.021925},{"id":2572543,"name":"znamenki","country":"ru","lat":55.518228,"lon":39.20746},{"id":2476270,"name":"novoye semenkovo","country":"ru","lat":55.953394,"lon":39.261524},{"id":2495268,"name":"poselok sosnikha","country":"ru","lat":55.766667,"lon":39.066667},{"id":2362421,"name":"aniskino","country":"ru","lat":55.948492,"lon":39.155279},{"id":2570563,"name":"zheldybino","country":"ru","lat":56.224261,"lon":39.038095},{"id":2503279,"name":"romanovskoye","country":"ru","lat":56.288902,"lon":38.858738},{"id":2507815,"name":"sanino","country":"ru","lat":55.997222,"lon":38.933989},{"id":2572310,"name":"zinovyeva","country":"ru","lat":56.154937,"lon":39.419113},{"id":2504691,"name":"rusanovo","country":"ru","lat":56.0691,"lon":39.1566},{"id":2494442,"name":"porechye","country":"ru","lat":56.43345,"lon":39.083097},{"id":2377974,"name":"bolshoye zabelino","country":"ru","lat":56.365624,"lon":39.433651},{"id":2501023,"name":"ratkovo","country":"ru","lat":56.016667,"lon":38.633333},{"id":2397086,"name":"filipovskoye","country":"ru","lat":56.1,"lon":38.616667},{"id":2494739,"name":"poselok avsyunino","country":"ru","lat":55.558177,"lon":39.066637},{"id":2494997,"name":"poselok likino","country":"ru","lat":55.716667,"lon":38.966667},{"id":2495232,"name":"poselok sazheni","country":"ru","lat":55.764984,"lon":39.037702},{"id":2495335,"name":"poselok vereya kazennaya","country":"ru","lat":55.766667,"lon":39.1},{"id":2369454,"name":"belavina","country":"ru","lat":55.666857,"lon":39.392688},{"id":2358494,"name":"afanasova","country":"ru","lat":56.2715,"lon":39.0831},{"id":2379642,"name":"borshchevnya","country":"ru","lat":55.916667,"lon":39.45},{"id":2542479,"name":"tyutkovo","country":"ru","lat":56.4459,"lon":39.224},{"id":2485529,"name":"pavlovski posad","country":"ru","lat":55.780713,"lon":38.654475},{"id":2422334,"name":"kirshatsch","country":"ru","lat":56.152731,"lon":38.855092},{"id":2571168,"name":"zhilina","country":"ru","lat":55.909985,"lon":38.507179},{"id":2477465,"name":"novyy","country":"ru","lat":56.257593,"lon":39.4057},{"id":2401190,"name":"golyazh","country":"ru","lat":56.340199,"lon":39.392584},{"id":2508962,"name":"savostyanovo","country":"ru","lat":55.739797,"lon":38.824109},{"id":2367793,"name":"barskaya dubrova","country":"ru","lat":55.783999,"lon":38.817542},{"id":2369747,"name":"belivo","country":"ru","lat":55.627324,"lon":39.010587},{"id":2396453,"name":"fedorovskoye","country":"ru","lat":56.113838,"lon":38.85701},{"id":2475768,"name":"novoye annino","country":"ru","lat":55.935213,"lon":39.389864},{"id":2476316,"name":"novoye stenino","country":"ru","lat":56.0938,"lon":39.3571},{"id":2461120,"name":"molodino","country":"ru","lat":55.880808,"lon":39.10278},{"id":2389510,"name":"davydovskoye","country":"ru","lat":56.366213,"lon":39.37189},{"id":2561654,"name":"yasnaya polyana","country":"ru","lat":56.308223,"lon":39.096499},{"id":2533659,"name":"tarkhanovskaya","country":"ru","lat":55.609714,"lon":39.453013},{"id":2392873,"name":"drovoseki","country":"ru","lat":55.784682,"lon":39.017313},{"id":2502228,"name":"resnitsyno","country":"ru","lat":56.320782,"lon":38.932137},{"id":2571322,"name":"zhirova","country":"ru","lat":55.59978,"lon":38.542269},{"id":2369376,"name":"bekhterevo","country":"ru","lat":56.132162,"lon":38.887917},{"id":2368124,"name":"bashkino","country":"ru","lat":56.357177,"lon":39.024995},{"id":2478879,"name":"ogibka","country":"ru","lat":56.306912,"lon":39.476725},{"id":2528731,"name":"stremyannikovo","country":"ru","lat":55.743868,"lon":38.760637},{"id":2370330,"name":"belozerovo","country":"ru","lat":56.333333,"lon":38.816667},{"id":2458968,"name":"miklyaikha","country":"ru","lat":56.19395,"lon":39.393248},{"id":2555007,"name":"vlasyevo","country":"ru","lat":56.198346,"lon":39.022119},{"id":2519959,"name":"slobodishche","country":"ru","lat":55.507102,"lon":38.855366},{"id":2569610,"name":"zelenoborskiy","country":"ru","lat":56.286069,"lon":39.340458},{"id":2556502,"name":"voronova","country":"ru","lat":55.599605,"lon":38.57892},{"id":2562127,"name":"yefremova","country":"ru","lat":56.220472,"lon":38.982089},{"id":2449619,"name":"makhra","country":"ru","lat":56.266667,"lon":38.683333},{"id":2451998,"name":"maloye kishnevo","country":"ru","lat":55.706582,"lon":38.876389},{"id":2365195,"name":"averkiyevo","country":"ru","lat":55.653952,"lon":38.637372},{"id":2375998,"name":"bolshepetrovskoye","country":"ru","lat":56.460422,"lon":39.318315},{"id":2403688,"name":"gribanino","country":"ru","lat":55.842115,"lon":38.619896},{"id":2392051,"name":"domashnevo","country":"ru","lat":55.86922,"lon":39.172492},{"id":2515598,"name":"shimokhtino","country":"ru","lat":56.3893,"lon":39.1247},{"id":2413246,"name":"karabanovo","country":"ru","lat":56.316667,"lon":38.7},{"id":2570120,"name":"zezevitovo","country":"ru","lat":56.45,"lon":38.5},{"id":2571319,"name":"zhiroslavskoye","country":"ru","lat":56.4,"lon":39.466667},{"id":2556543,"name":"voronovo","country":"ru","lat":56.0149,"lon":39.0242},{"id":2423477,"name":"klimkovo","country":"ru","lat":56.310625,"lon":39.049715},{"id":2369817,"name":"belkowo","country":"ru","lat":56.256558,"lon":38.794634},{"id":2526712,"name":"staroye stenino","country":"ru","lat":56.0756,"lon":39.4177},{"id":2533458,"name":"tarasova","country":"ru","lat":55.856064,"lon":38.649883},{"id":2451840,"name":"maloye brattsevo","country":"ru","lat":56.431287,"lon":39.380012},{"id":2563047,"name":"yelkino","country":"ru","lat":56.391322,"lon":38.821173},{"id":2531318,"name":"svetlyy","country":"ru","lat":56.412851,"lon":38.777371},{"id":2445094,"name":"lipovaya griva","country":"ru","lat":55.892336,"lon":38.724654},{"id":2367791,"name":"barskaya","country":"ru","lat":55.623738,"lon":38.866218},{"id":2568135,"name":"zaprudino","country":"ru","lat":55.642086,"lon":38.925525},{"id":2519764,"name":"slednevo","country":"ru","lat":56.416667,"lon":38.6},{"id":2390781,"name":"dichkovo","country":"ru","lat":56.416667,"lon":38.7},{"id":2400283,"name":"gnezdino","country":"ru","lat":55.933532,"lon":39.029751},{"id":2493554,"name":"polutino","country":"ru","lat":56.102731,"lon":38.936844},{"id":2364683,"name":"astashkovo","country":"ru","lat":55.539452,"lon":38.657466},{"id":2444397,"name":"levkino","country":"ru","lat":55.643986,"lon":38.737528},{"id":2490381,"name":"plotava","country":"ru","lat":55.852805,"lon":38.859847},{"id":2463763,"name":"myachkovo","country":"ru","lat":56.07928,"lon":39.268214},{"id":2570872,"name":"zherdevo","country":"ru","lat":56.243229,"lon":39.107391},{"id":2358161,"name":"abrosova","country":"ru","lat":56.062489,"lon":39.249911},{"id":2397103,"name":"filippova","country":"ru","lat":55.724735,"lon":39.411624},{"id":2485181,"name":"patkino","country":"ru","lat":56.449524,"lon":39.094425},{"id":2539664,"name":"trusovo","country":"ru","lat":55.890861,"lon":38.956591},{"id":2515381,"name":"shikhovo","country":"ru","lat":56.425349,"lon":39.132876},{"id":2520116,"name":"slugino","country":"ru","lat":56.161257,"lon":39.483182},{"id":2420243,"name":"khramostovo","country":"ru","lat":56.232249,"lon":39.168134},{"id":2367975,"name":"barykino","country":"ru","lat":56.296949,"lon":39.458763},{"id":2464240,"name":"myzzhelevo","country":"ru","lat":56.124566,"lon":39.096877},{"id":2531428,"name":"svintsovo","country":"ru","lat":56.106725,"lon":39.454341},{"id":2517604,"name":"shustina","country":"ru","lat":56.238917,"lon":39.377585},{"id":2563400,"name":"yemelyanov","country":"ru","lat":55.75351,"lon":38.920984},{"id":2535528,"name":"terenkova","country":"ru","lat":55.599796,"lon":38.964294},{"id":2481442,"name":"osino","country":"ru","lat":56.388575,"lon":39.166152},{"id":2441719,"name":"lakibrovo","country":"ru","lat":56.044134,"lon":39.086023},{"id":2403573,"name":"gremyachevo","country":"ru","lat":56.383333,"lon":38.833333},{"id":2504478,"name":"rudnya","country":"ru","lat":55.54588,"lon":39.135192},{"id":2508627,"name":"saurovo","country":"ru","lat":55.775458,"lon":38.755519},{"id":2569703,"name":"zelentsino","country":"ru","lat":56.28383,"lon":38.744038},{"id":2566876,"name":"zagryazhskaya","country":"ru","lat":55.6421,"lon":39.026785},{"id":2408221,"name":"irkovo","country":"ru","lat":56.379578,"lon":38.970548},{"id":2409069,"name":"ivachi","country":"ru","lat":56.033333,"lon":39.433333},{"id":2511602,"name":"serp i molot","country":"ru","lat":56.3702,"lon":39.4724},{"id":2408057,"name":"ionovo","country":"ru","lat":55.729813,"lon":38.923661},{"id":2435717,"name":"krupinino","country":"ru","lat":55.629862,"lon":38.730437},{"id":2534940,"name":"teluyakova","country":"ru","lat":56.103825,"lon":39.021717},{"id":2380327,"name":"brazunovo","country":"ru","lat":55.670375,"lon":38.648834},{"id":2467131,"name":"nikiforovo","country":"ru","lat":56.051658,"lon":38.946683},{"id":2476575,"name":"novo-zubtsovo","country":"ru","lat":56.016667,"lon":38.566667},{"id":2425876,"name":"kolomino","country":"ru","lat":55.63694,"lon":38.50817},{"id":2434925,"name":"kreulino","country":"ru","lat":55.750991,"lon":38.53054},{"id":2519578,"name":"slabodka","country":"ru","lat":56.267171,"lon":38.925403},{"id":2421365,"name":"kiberevo","country":"ru","lat":55.964254,"lon":39.453664},{"id":2459917,"name":"mitina","country":"ru","lat":55.662552,"lon":38.797438},{"id":2496110,"name":"pozdnyakovo","country":"ru","lat":56.164968,"lon":39.491127},{"id":2429058,"name":"korovayeva","country":"ru","lat":55.860841,"lon":38.579132},{"id":2514153,"name":"shebanovo","country":"ru","lat":55.634672,"lon":38.714976},{"id":2397374,"name":"fofanka","country":"ru","lat":56.433333,"lon":38.883333},{"id":2522287,"name":"sopovo","country":"ru","lat":55.988527,"lon":38.723741},{"id":2462137,"name":"moshnino","country":"ru","lat":56.462286,"lon":38.837358},{"id":2429460,"name":"korytovo","country":"ru","lat":56.176748,"lon":38.917399},{"id":2520865,"name":"sobolevo","country":"ru","lat":55.519423,"lon":38.705032},{"id":2377403,"name":"bolshoye luchinskoye","country":"ru","lat":56.482842,"lon":39.302355},{"id":2510128,"name":"selyutinka","country":"ru","lat":56.433333,"lon":38.816667},{"id":2395446,"name":"elektrogorsk","country":"ru","lat":55.884309,"lon":38.786403},{"id":2445547,"name":"litvinovskiye khutora","country":"ru","lat":56.308475,"lon":39.419054},{"id":2539382,"name":"trubitsyno","country":"ru","lat":55.771817,"lon":38.602602},{"id":2571348,"name":"zhitenino","country":"ru","lat":55.883333,"lon":38.883333},{"id":2456514,"name":"mayskiy","country":"ru","lat":56.4,"lon":38.716667},{"id":2567978,"name":"zapazhye","country":"ru","lat":56.215262,"lon":39.444203},{"id":2482636,"name":"otyayevka","country":"ru","lat":56.326,"lon":39.3579},{"id":2418881,"name":"khmeleva","country":"ru","lat":56.143534,"lon":39.138302},{"id":2550052,"name":"vereya","country":"ru","lat":55.773729,"lon":39.097662},{"id":2571818,"name":"zhuravlikha","country":"ru","lat":56.284025,"lon":39.451789},{"id":2476343,"name":"novoye titovo","country":"ru","lat":55.575309,"lon":39.117556},{"id":2484085,"name":"panfilova","country":"ru","lat":56.000463,"lon":39.088118},{"id":2390288,"name":"derevenishchi","country":"ru","lat":55.543908,"lon":39.281567},{"id":2377088,"name":"bolshoye bunkovo","country":"ru","lat":55.849874,"lon":38.598246},{"id":2431616,"name":"kozlyatino","country":"ru","lat":56.194576,"lon":39.173693},{"id":2421505,"name":"kikino","country":"ru","lat":56.112023,"lon":39.189644},{"id":2501359,"name":"razdolye","country":"ru","lat":56.274096,"lon":39.466508},{"id":2415096,"name":"kashina","country":"ru","lat":56.141655,"lon":39.228088},{"id":2557228,"name":"vostrikovo","country":"ru","lat":55.816667,"lon":38.633333},{"id":2564395,"name":"yeskino","country":"ru","lat":55.952474,"lon":39.227041},{"id":2542205,"name":"tyukhtovo","country":"ru","lat":56.1997,"lon":39.43765},{"id":2508779,"name":"savina","country":"ru","lat":56.237109,"lon":38.88371},{"id":2422562,"name":"kishkino","country":"ru","lat":56.440376,"lon":39.020525},{"id":2461175,"name":"molokova","country":"ru","lat":55.526793,"lon":38.639801},{"id":2490394,"name":"plotavtsevo","country":"ru","lat":55.987788,"lon":38.966712},{"id":2360646,"name":"aleshino","country":"ru","lat":56.183333,"lon":38.716667},{"id":2397766,"name":"frolovskoye","country":"ru","lat":56.499462,"lon":39.498276},{"id":2436329,"name":"kryuki","country":"ru","lat":56.091064,"lon":39.31356},{"id":2528947,"name":"strunino","country":"ru","lat":56.383333,"lon":38.566667},{"id":2400421,"name":"godunovo","country":"ru","lat":56.4865,"lon":39.035199},{"id":2562100,"name":"yefimtsevo","country":"ru","lat":56.052744,"lon":39.239044},{"id":2402318,"name":"gorodets","country":"ru","lat":56.2348,"lon":39.4291},{"id":2365932,"name":"baburina","country":"ru","lat":56.211505,"lon":39.009202},{"id":2493919,"name":"ponarino","country":"ru","lat":55.587879,"lon":39.107688},{"id":2383256,"name":"bynino","country":"ru","lat":55.954811,"lon":38.8338}]});