callback({"markets":[{"id":912521,"name":"vatti","country":"fi","lat":60.468333,"lon":22.26},{"id":904702,"name":"kuloinen","country":"fi","lat":60.483056,"lon":22.2},{"id":908009,"name":"parainen","country":"fi","lat":60.3,"lon":22.3},{"id":900885,"name":"haarla","country":"fi","lat":60.388333,"lon":22.227778},{"id":909236,"name":"raunistula","country":"fi","lat":60.463611,"lon":22.279444},{"id":903350,"name":"kasnas","country":"fi","lat":59.916667,"lon":22.416667},{"id":903227,"name":"karkulla","country":"fi","lat":60.346944,"lon":22.400278},{"id":901143,"name":"harittu","country":"fi","lat":60.411667,"lon":22.308889},{"id":905864,"name":"lonas","country":"fi","lat":60.319722,"lon":22.346389},{"id":906307,"name":"markomby","country":"fi","lat":60.133333,"lon":21.6},{"id":901584,"name":"hiiskanpelto","country":"fi","lat":60.429167,"lon":22.396944},{"id":907256,"name":"norrbyasen","country":"fi","lat":60.315278,"lon":22.315833},{"id":905050,"name":"kyrkomalm","country":"fi","lat":60.299167,"lon":22.314167},{"id":901868,"name":"huhkola","country":"fi","lat":60.426111,"lon":22.341389},{"id":900445,"name":"eerikvalla","country":"fi","lat":60.353333,"lon":22.113889},{"id":906606,"name":"moikoinen","country":"fi","lat":60.415278,"lon":22.241389},{"id":907152,"name":"nikkila","country":"fi","lat":60.383333,"lon":22.166667},{"id":903498,"name":"kaxskala","country":"fi","lat":59.966667,"lon":22.433333},{"id":901461,"name":"henenen","country":"fi","lat":60.366667,"lon":22.0},{"id":908625,"name":"poikluoma","country":"fi","lat":60.416667,"lon":22.333333},{"id":901105,"name":"hannala","country":"fi","lat":60.366667,"lon":22.2},{"id":901145,"name":"hariya pula","country":"fi","lat":60.366667,"lon":22.3},{"id":900665,"name":"friskala","country":"fi","lat":60.396944,"lon":22.238889},{"id":903307,"name":"karvetti","country":"fi","lat":60.477222,"lon":22.052222},{"id":904852,"name":"kurkas","country":"fi","lat":60.297222,"lon":22.250833},{"id":908459,"name":"piispanristi","country":"fi","lat":60.409722,"lon":22.335278},{"id":907752,"name":"paaskyvuori","country":"fi","lat":60.443333,"lon":22.343889},{"id":900531,"name":"ersby","country":"fi","lat":60.283333,"lon":22.25},{"id":904979,"name":"kvivlax","country":"fi","lat":60.133333,"lon":21.783333},{"id":911151,"name":"syudenpero","country":"fi","lat":60.3,"lon":22.15},{"id":902140,"name":"illoinen","country":"fi","lat":60.409444,"lon":22.195833},{"id":909139,"name":"rantamaki","country":"fi","lat":60.473333,"lon":22.302222},{"id":900687,"name":"galtby","country":"fi","lat":60.183333,"lon":21.6},{"id":908349,"name":"petterinpelto","country":"fi","lat":60.490278,"lon":22.18},{"id":907986,"name":"pangila","country":"fi","lat":60.35,"lon":22.2},{"id":912597,"name":"veitenmaki","country":"fi","lat":60.401111,"lon":22.386111},{"id":902367,"name":"jalist","country":"fi","lat":60.183333,"lon":21.766667},{"id":910646,"name":"sodra karlaks","country":"fi","lat":60.35,"lon":22.4},{"id":904710,"name":"kultanummi","country":"fi","lat":60.456667,"lon":22.353889},{"id":906456,"name":"menikkala","country":"fi","lat":60.3,"lon":21.9},{"id":910651,"name":"soglo","country":"fi","lat":60.1,"lon":22.45},{"id":908765,"name":"prastgarden","country":"fi","lat":60.295833,"lon":22.337222},{"id":903276,"name":"karsamaki","country":"fi","lat":60.487222,"lon":22.289167},{"id":903094,"name":"kappellstrand","country":"fi","lat":60.333056,"lon":22.383056},{"id":911332,"name":"tapavouri","country":"fi","lat":60.466667,"lon":22.066667},{"id":911199,"name":"tahvio","country":"fi","lat":60.481667,"lon":22.130833},{"id":908662,"name":"polusmaki","country":"fi","lat":60.4625,"lon":22.188889},{"id":905573,"name":"lempala","country":"fi","lat":60.35,"lon":22.25},{"id":910035,"name":"sandlax","country":"fi","lat":60.125,"lon":21.880556},{"id":912343,"name":"vannais","country":"fi","lat":60.316667,"lon":22.15},{"id":906342,"name":"maskulainen","country":"fi","lat":60.374722,"lon":21.959444},{"id":903835,"name":"kirjais","country":"fi","lat":60.133333,"lon":21.966667},{"id":902763,"name":"kaastla","country":"fi","lat":60.383056,"lon":21.8425},{"id":910572,"name":"skrabbole","country":"fi","lat":60.28,"lon":22.278056},{"id":910449,"name":"simstrand","country":"fi","lat":60.093889,"lon":22.396389},{"id":903640,"name":"kerttula","country":"fi","lat":60.489722,"lon":22.153056},{"id":912634,"name":"vepo","country":"fi","lat":60.316667,"lon":22.276389},{"id":910515,"name":"sjalo","country":"fi","lat":60.25,"lon":21.966667},{"id":911432,"name":"tennby","country":"fi","lat":60.301111,"lon":22.3275},{"id":901709,"name":"hoggais","country":"fi","lat":60.321111,"lon":22.261667},{"id":906115,"name":"maisaari","country":"fi","lat":60.333333,"lon":21.9},{"id":906749,"name":"munvik","country":"fi","lat":60.294722,"lon":22.315833},{"id":910331,"name":"sexnappa","country":"fi","lat":60.197222,"lon":21.780833},{"id":908978,"name":"pyydysmaki","country":"fi","lat":60.448333,"lon":22.423333},{"id":902879,"name":"kalax","country":"fi","lat":60.116667,"lon":21.55},{"id":903358,"name":"kastu","country":"fi","lat":60.470278,"lon":22.278889},{"id":912151,"name":"vacklax","country":"fi","lat":60.183333,"lon":21.833333},{"id":904345,"name":"korpostrom","country":"fi","lat":60.116667,"lon":21.616667},{"id":904314,"name":"koroinen","country":"fi","lat":60.466944,"lon":22.296389},{"id":906473,"name":"merimasku","country":"fi","lat":60.483333,"lon":21.866667},{"id":902267,"name":"isokyla","country":"fi","lat":60.383333,"lon":22.416667},{"id":910058,"name":"sankt karins","country":"fi","lat":60.416667,"lon":22.416667},{"id":906954,"name":"nagu","country":"fi","lat":60.183333,"lon":21.916667},{"id":905580,"name":"lempisaari","country":"fi","lat":60.483333,"lon":21.766667},{"id":908775,"name":"prunnila","country":"fi","lat":60.36,"lon":21.974167},{"id":905893,"name":"loukinainen","country":"fi","lat":60.483333,"lon":22.416667},{"id":899822,"name":"alakyla","country":"fi","lat":60.283333,"lon":21.95},{"id":909638,"name":"rumar","country":"fi","lat":60.116667,"lon":21.65},{"id":910569,"name":"skormala","country":"fi","lat":60.283056,"lon":22.166667},{"id":906174,"name":"malikkala","country":"fi","lat":60.474167,"lon":22.230278},{"id":910160,"name":"satava","country":"fi","lat":60.383333,"lon":22.2},{"id":900327,"name":"brattnas","country":"fi","lat":60.265556,"lon":22.341944},{"id":910023,"name":"samslaks","country":"fi","lat":60.166667,"lon":21.8},{"id":909455,"name":"risis","country":"fi","lat":60.15,"lon":21.766667},{"id":907259,"name":"norrby","country":"fi","lat":60.316667,"lon":22.3},{"id":908235,"name":"perainen","country":"fi","lat":60.433333,"lon":21.916667},{"id":909349,"name":"retais","country":"fi","lat":60.166667,"lon":21.666667},{"id":910703,"name":"sommaro","country":"fi","lat":60.133333,"lon":22.033333},{"id":900594,"name":"fallbole","country":"fi","lat":60.25,"lon":22.216667},{"id":907823,"name":"paikkari","country":"fi","lat":60.481944,"lon":22.107222},{"id":910044,"name":"sandvik","country":"fi","lat":60.098056,"lon":21.685556},{"id":912157,"name":"vaha-heikkila","country":"fi","lat":60.433889,"lon":22.256944},{"id":904344,"name":"korpo","country":"fi","lat":60.166667,"lon":21.566667},{"id":907334,"name":"nuorikkala","country":"fi","lat":60.472778,"lon":22.136944},{"id":900207,"name":"bjorklid","country":"fi","lat":60.177778,"lon":21.676389},{"id":907016,"name":"naula","country":"fi","lat":60.349444,"lon":22.1775},{"id":900389,"name":"dalkarby","country":"fi","lat":60.166667,"lon":22.0},{"id":910891,"name":"suela","country":"fi","lat":60.416667,"lon":22.233333},{"id":902052,"name":"hyvilemp","country":"fi","lat":60.297778,"lon":22.205833},{"id":910843,"name":"stormolo","country":"fi","lat":60.25,"lon":22.183333},{"id":900202,"name":"bjorkdal","country":"fi","lat":60.199167,"lon":21.999722},{"id":902249,"name":"iso haarla","country":"fi","lat":60.383333,"lon":22.233333},{"id":908704,"name":"pornainen","country":"fi","lat":60.411389,"lon":21.931111},{"id":907308,"name":"nummenniitty","country":"fi","lat":60.418889,"lon":22.373611},{"id":905265,"name":"lampis","country":"fi","lat":60.319722,"lon":22.187778},{"id":901052,"name":"hammarsboda","country":"fi","lat":60.058333,"lon":22.410833},{"id":905570,"name":"lemo vik","country":"fi","lat":60.383333,"lon":22.316667},{"id":910887,"name":"stusnas","country":"fi","lat":60.090556,"lon":22.489167},{"id":906654,"name":"montola","country":"fi","lat":60.363889,"lon":21.9275},{"id":905290,"name":"langnas","country":"fi","lat":60.05,"lon":22.466667},{"id":900586,"name":"fagerkulla","country":"fi","lat":60.35,"lon":22.433333},{"id":907641,"name":"osterkalax","country":"fi","lat":60.116111,"lon":21.599444},{"id":906668,"name":"moskalanmaki","country":"fi","lat":60.435278,"lon":22.493611},{"id":909470,"name":"ristimaki","country":"fi","lat":60.483333,"lon":22.133333},{"id":899714,"name":"ahteentaka","country":"fi","lat":60.3775,"lon":21.880556},{"id":909205,"name":"ratsula","country":"fi","lat":60.361389,"lon":22.448611},{"id":911436,"name":"teppala","country":"fi","lat":60.433333,"lon":22.483333},{"id":910743,"name":"sorpo","country":"fi","lat":60.15,"lon":22.266667},{"id":901832,"name":"hotis","country":"fi","lat":60.366667,"lon":22.15},{"id":904622,"name":"kuivalahti","country":"fi","lat":60.442778,"lon":22.026944},{"id":902147,"name":"ilmarinen","country":"fi","lat":60.483333,"lon":22.333333},{"id":912981,"name":"vottkast","country":"fi","lat":60.2,"lon":21.633333},{"id":909278,"name":"ravattula","country":"fi","lat":60.466667,"lon":22.366667},{"id":911650,"name":"tollsnas","country":"fi","lat":60.166667,"lon":22.466667},{"id":909931,"name":"saksila","country":"fi","lat":60.461111,"lon":21.979167},{"id":900806,"name":"gundvik","country":"fi","lat":60.251944,"lon":22.360278},{"id":909607,"name":"rovik","country":"fi","lat":60.016667,"lon":22.45},{"id":900712,"name":"gasterbole","country":"fi","lat":60.283333,"lon":22.433333},{"id":902387,"name":"janissaari","country":"fi","lat":60.416667,"lon":22.183333},{"id":901316,"name":"havero","country":"fi","lat":60.25,"lon":22.066667},{"id":904113,"name":"kokolo","country":"fi","lat":60.433333,"lon":22.066667},{"id":911120,"name":"sydmo","country":"fi","lat":60.3,"lon":22.133333},{"id":906551,"name":"mielisholm","country":"fi","lat":60.216667,"lon":22.333333},{"id":901230,"name":"hasselbacken","country":"fi","lat":60.013333,"lon":22.477222},{"id":909240,"name":"raustvuori","country":"fi","lat":60.35,"lon":22.166667},{"id":901853,"name":"hovipelto","country":"fi","lat":60.399722,"lon":22.373889},{"id":905314,"name":"lansimaki","country":"fi","lat":60.331111,"lon":21.989167},{"id":911306,"name":"tammisto","country":"fi","lat":60.386389,"lon":22.1825},{"id":910555,"name":"skofatt","country":"fi","lat":60.136944,"lon":21.535278},{"id":902424,"name":"jarvensuu","country":"fi","lat":60.447778,"lon":21.915278},{"id":907774,"name":"paavaistenkulma","country":"fi","lat":60.35,"lon":22.016667},{"id":902783,"name":"kahloja","country":"fi","lat":60.49,"lon":22.461667},{"id":912422,"name":"vasaramaki","country":"fi","lat":60.437778,"lon":22.311944},{"id":900102,"name":"auvainen","country":"fi","lat":60.402778,"lon":22.335278},{"id":906289,"name":"marjamaki","country":"fi","lat":60.395556,"lon":22.203056},{"id":909273,"name":"rauvola","country":"fi","lat":60.4,"lon":22.3},{"id":901078,"name":"hangslax","country":"fi","lat":60.183333,"lon":22.033333},{"id":911723,"name":"torppala","country":"fi","lat":60.391389,"lon":22.296944},{"id":902820,"name":"kaistarniemi","country":"fi","lat":60.4,"lon":22.25},{"id":906649,"name":"monola","country":"fi","lat":60.377222,"lon":21.971111},{"id":903676,"name":"ketola","country":"fi","lat":60.475,"lon":22.457222},{"id":911308,"name":"tammo","country":"fi","lat":60.138333,"lon":22.309167},{"id":911104,"name":"svedjelund","country":"fi","lat":60.15,"lon":21.640278},{"id":904356,"name":"korsnos","country":"fi","lat":60.166667,"lon":21.833333},{"id":904562,"name":"krogsby","country":"fi","lat":60.383333,"lon":22.433333},{"id":908579,"name":"pohjaniitty","country":"fi","lat":60.38,"lon":22.216389},{"id":910350,"name":"signas","country":"fi","lat":60.3,"lon":22.45},{"id":902179,"name":"immanen","country":"fi","lat":60.499444,"lon":22.041111},{"id":905448,"name":"lauste","country":"fi","lat":60.4325,"lon":22.349722},{"id":912350,"name":"vano","country":"fi","lat":60.216667,"lon":22.283333},{"id":903255,"name":"karpijoki","country":"fi","lat":60.485556,"lon":22.455},{"id":901740,"name":"holma","country":"fi","lat":59.911667,"lon":22.3675},{"id":903837,"name":"kirjala","country":"fi","lat":60.366667,"lon":22.366667},{"id":907295,"name":"nuhjala","country":"fi","lat":60.483611,"lon":22.0475},{"id":905912,"name":"lovo","country":"fi","lat":59.972222,"lon":22.454167},{"id":912328,"name":"vanhakyla","country":"fi","lat":60.3,"lon":21.95},{"id":899753,"name":"airismaa","country":"fi","lat":60.333333,"lon":21.983333},{"id":903379,"name":"katariina","country":"fi","lat":60.408889,"lon":22.290278},{"id":912375,"name":"varissuo","country":"fi","lat":60.448056,"lon":22.356111},{"id":900970,"name":"halinen","country":"fi","lat":60.468056,"lon":22.3225},{"id":905041,"name":"kyrkang","country":"fi","lat":60.333333,"lon":22.366667},{"id":908223,"name":"pensar","country":"fi","lat":60.15,"lon":22.116667},{"id":900157,"name":"bendby","country":"fi","lat":60.141389,"lon":21.586944},{"id":903497,"name":"kaxkerta","country":"fi","lat":60.366667,"lon":22.216667},{"id":912218,"name":"vaisaari","country":"fi","lat":60.475,"lon":22.178889},{"id":909573,"name":"rosala","country":"fi","lat":59.85,"lon":22.433333},{"id":905173,"name":"lahteenmaki","country":"fi","lat":60.435,"lon":22.3775},{"id":901799,"name":"horja","country":"fi","lat":60.470278,"lon":21.880278},{"id":902729,"name":"kaanaa","country":"fi","lat":60.461111,"lon":22.094722},{"id":911158,"name":"syvalax","country":"fi","lat":60.133333,"lon":21.633333},{"id":910586,"name":"slats","country":"fi","lat":60.031667,"lon":22.48},{"id":903647,"name":"kesamaki","country":"fi","lat":60.418333,"lon":22.399722},{"id":907485,"name":"okala","country":"fi","lat":60.353333,"lon":21.931944},{"id":905686,"name":"lielax","country":"fi","lat":60.316667,"lon":22.416667},{"id":905807,"name":"littoinen","country":"fi","lat":60.4375,"lon":22.402222},{"id":908053,"name":"parsby","country":"fi","lat":60.304444,"lon":22.292778},{"id":899915,"name":"almas","country":"fi","lat":60.13,"lon":21.662222},{"id":904970,"name":"kvarnkil","country":"fi","lat":60.096111,"lon":21.562778},{"id":909586,"name":"rossvik","country":"fi","lat":60.097222,"lon":22.440556},{"id":900386,"name":"dalen","country":"fi","lat":60.0425,"lon":22.486389},{"id":910734,"name":"soris","country":"fi","lat":60.15,"lon":21.75},{"id":903554,"name":"kellarimaki","country":"fi","lat":60.433889,"lon":22.447222},{"id":907459,"name":"ojainen","country":"fi","lat":60.316111,"lon":21.991944},{"id":900623,"name":"finno","country":"fi","lat":60.183333,"lon":21.516667},{"id":907716,"name":"ovidja","country":"fi","lat":60.294722,"lon":22.396389},{"id":903113,"name":"karby","country":"fi","lat":60.124722,"lon":21.580833},{"id":902306,"name":"itaharju","country":"fi","lat":60.445556,"lon":22.312778},{"id":900081,"name":"attun saha","country":"fi","lat":60.183333,"lon":22.333333},{"id":911605,"name":"toijainen","country":"fi","lat":60.412778,"lon":22.201667},{"id":900254,"name":"bodbacken","country":"fi","lat":60.024722,"lon":22.464167},{"id":909654,"name":"ruohonpaa","country":"fi","lat":60.465278,"lon":22.234722},{"id":904963,"name":"kuva","country":"fi","lat":60.416667,"lon":22.133333},{"id":911403,"name":"teersalo","country":"fi","lat":60.466667,"lon":21.7},{"id":902778,"name":"kahari","country":"fi","lat":60.462222,"lon":22.252778},{"id":909111,"name":"ranavik","country":"fi","lat":60.318889,"lon":22.392778},{"id":903642,"name":"kervois","country":"fi","lat":60.25,"lon":21.616667},{"id":908567,"name":"pjukala","country":"fi","lat":60.271389,"lon":22.2675},{"id":910553,"name":"skinnarvik","country":"fi","lat":60.133333,"lon":22.466667},{"id":899666,"name":"abo","country":"fi","lat":60.45,"lon":22.283333},{"id":900811,"name":"gunnarsnas","country":"fi","lat":60.266667,"lon":22.3},{"id":911443,"name":"terasrautela","country":"fi","lat":60.478333,"lon":22.244444},{"id":900686,"name":"galtby brygga","country":"fi","lat":60.183611,"lon":21.595278},{"id":908796,"name":"puistomaki","country":"fi","lat":60.428611,"lon":22.258333},{"id":904756,"name":"kunnainen","country":"fi","lat":60.468333,"lon":21.971667},{"id":904343,"name":"korpogard","country":"fi","lat":60.163889,"lon":21.549722},{"id":909871,"name":"sabbels","country":"fi","lat":60.0175,"lon":22.485278},{"id":907969,"name":"palstakulma","country":"fi","lat":60.248889,"lon":22.274444},{"id":904245,"name":"koponby","country":"fi","lat":60.166667,"lon":21.55},{"id":906394,"name":"mattnas","country":"fi","lat":60.15,"lon":21.816667},{"id":900485,"name":"empo","country":"fi","lat":60.389167,"lon":22.383611},{"id":900235,"name":"blasnas","country":"fi","lat":60.316667,"lon":22.283333},{"id":906071,"name":"maanpaa","country":"fi","lat":60.4,"lon":22.166667},{"id":913221,"name":"ytterolmos","country":"fi","lat":60.083333,"lon":22.4},{"id":911355,"name":"tarkkinen","country":"fi","lat":60.45,"lon":21.916667},{"id":902229,"name":"innamo","country":"fi","lat":60.25,"lon":21.766667},{"id":906380,"name":"mattholm","country":"fi","lat":60.25,"lon":22.2},{"id":907843,"name":"paivarinta","country":"fi","lat":60.174722,"lon":22.207222},{"id":908868,"name":"purunpaa","country":"fi","lat":60.016667,"lon":22.4},{"id":902166,"name":"ilpoistenkyla","country":"fi","lat":60.416667,"lon":22.283333},{"id":899906,"name":"aliskulma","country":"fi","lat":60.491111,"lon":22.369167},{"id":900108,"name":"avensar","country":"fi","lat":60.283333,"lon":21.566667},{"id":909982,"name":"salomaa","country":"fi","lat":60.366667,"lon":21.866667},{"id":900424,"name":"domarby","country":"fi","lat":60.216667,"lon":22.216667},{"id":904242,"name":"kopois","country":"fi","lat":60.166667,"lon":21.533333},{"id":905459,"name":"lauttaranta","country":"fi","lat":60.424722,"lon":22.223889},{"id":911476,"name":"tervsund","country":"fi","lat":60.25,"lon":22.316667},{"id":902536,"name":"jonsang","country":"fi","lat":60.299722,"lon":22.274167},{"id":909776,"name":"rymattyla","country":"fi","lat":60.366667,"lon":21.95},{"id":909287,"name":"redamo","country":"fi","lat":60.116667,"lon":21.883333},{"id":912397,"name":"varppeenseutu","country":"fi","lat":60.484722,"lon":22.147778},{"id":911959,"name":"ubbersnas","country":"fi","lat":60.283333,"lon":22.2},{"id":907008,"name":"nasudden","country":"fi","lat":60.283333,"lon":22.1},{"id":909527,"name":"rojola","country":"fi","lat":60.417778,"lon":22.483611},{"id":911007,"name":"suopohja","country":"fi","lat":60.463611,"lon":22.457778},{"id":905859,"name":"lom","country":"fi","lat":60.1,"lon":21.666667},{"id":900374,"name":"choldingeby","country":"fi","lat":60.166667,"lon":22.05},{"id":906165,"name":"maksla","country":"fi","lat":60.497778,"lon":22.228333},{"id":904665,"name":"kukolainen","country":"fi","lat":60.460556,"lon":21.835556},{"id":910950,"name":"sunnanberg","country":"fi","lat":60.301944,"lon":22.158333},{"id":905758,"name":"lilltervo","country":"fi","lat":60.216667,"lon":22.2},{"id":912474,"name":"vaster melo","country":"fi","lat":60.25,"lon":22.166667},{"id":903092,"name":"kappelinmaki","country":"fi","lat":60.415278,"lon":22.384167},{"id":909564,"name":"roodila","country":"fi","lat":60.35,"lon":21.966667},{"id":909512,"name":"rodnos","country":"fi","lat":60.333333,"lon":22.166667},{"id":902883,"name":"kaldo","country":"fi","lat":60.216667,"lon":22.0},{"id":911595,"name":"todalen","country":"fi","lat":60.021389,"lon":22.4925},{"id":904686,"name":"kulkkilanranta","country":"fi","lat":60.391944,"lon":22.169444},{"id":910299,"name":"sellmo","country":"fi","lat":60.2,"lon":21.85},{"id":911783,"name":"traskvik","country":"fi","lat":60.209167,"lon":22.218889},{"id":908417,"name":"pihlajaniemi","country":"fi","lat":60.428056,"lon":22.240833},{"id":908493,"name":"piparby","country":"fi","lat":60.167778,"lon":21.982222},{"id":900186,"name":"bisarbole","country":"fi","lat":60.168889,"lon":21.758611},{"id":900136,"name":"bakkas","country":"fi","lat":60.2,"lon":21.819444},{"id":902251,"name":"iso-heikkila","country":"fi","lat":60.446944,"lon":22.226667},{"id":902839,"name":"kaivonen","country":"fi","lat":60.383333,"lon":22.183333},{"id":902209,"name":"inikorp","country":"fi","lat":60.135,"lon":21.641667},{"id":911006,"name":"suopelto","country":"fi","lat":60.4875,"lon":22.057778},{"id":907591,"name":"oriketo","country":"fi","lat":60.480556,"lon":22.318611},{"id":900087,"name":"auranlaakso","country":"fi","lat":60.466111,"lon":22.354444},{"id":905672,"name":"levo","country":"fi","lat":60.316667,"lon":22.216667},{"id":903707,"name":"khersor","country":"fi","lat":60.15,"lon":21.883333},{"id":912721,"name":"viggarholm","country":"fi","lat":60.190556,"lon":22.271111},{"id":901854,"name":"hovirinta","country":"fi","lat":60.401944,"lon":22.365556},{"id":902801,"name":"kaina","country":"fi","lat":60.483333,"lon":21.733333},{"id":903530,"name":"keitila","country":"fi","lat":60.475556,"lon":21.954444},{"id":903353,"name":"kassor","country":"fi","lat":60.283333,"lon":22.366667},{"id":901177,"name":"harkamaki","country":"fi","lat":60.465,"lon":22.199444},{"id":909225,"name":"rauhalinna","country":"fi","lat":60.405833,"lon":22.407222},{"id":907165,"name":"nilsby","country":"fi","lat":60.333333,"lon":22.416667},{"id":901130,"name":"happila","country":"fi","lat":60.403056,"lon":22.19},{"id":912079,"name":"uusikyla","country":"fi","lat":60.377222,"lon":22.199722},{"id":902638,"name":"jurmo","country":"fi","lat":59.833333,"lon":21.616667},{"id":910630,"name":"soderlangvik","country":"fi","lat":60.033333,"lon":22.433333},{"id":900774,"name":"granvik","country":"fi","lat":60.2,"lon":22.266667},{"id":900769,"name":"grannas","country":"fi","lat":60.183333,"lon":21.866667},{"id":905693,"name":"lietsala","country":"fi","lat":60.483333,"lon":22.082778},{"id":904825,"name":"kurala","country":"fi","lat":60.400278,"lon":21.885},{"id":904565,"name":"krokby","country":"fi","lat":60.133333,"lon":21.75},{"id":900169,"name":"berghamn","country":"fi","lat":60.05,"lon":21.8},{"id":906805,"name":"mustfinn","country":"fi","lat":60.316667,"lon":22.133333},{"id":908465,"name":"pikisaari","country":"fi","lat":60.4225,"lon":22.200278},{"id":900787,"name":"grondal","country":"fi","lat":60.155,"lon":21.905556},{"id":912466,"name":"vasterkalax","country":"fi","lat":60.114167,"lon":21.562222},{"id":905708,"name":"liianmaa","country":"fi","lat":60.428056,"lon":21.813889},{"id":906601,"name":"mogby","country":"fi","lat":60.2,"lon":22.233333},{"id":904061,"name":"koivula","country":"fi","lat":60.421389,"lon":22.313333},{"id":899656,"name":"aartuka","country":"fi","lat":60.383333,"lon":22.15},{"id":911609,"name":"toijois","country":"fi","lat":60.299722,"lon":22.2},{"id":902078,"name":"ihala","country":"fi","lat":60.466667,"lon":22.183333},{"id":910499,"name":"sitonby","country":"fi","lat":60.283333,"lon":22.216667},{"id":901290,"name":"hauninen","country":"fi","lat":60.488333,"lon":22.208333},{"id":908106,"name":"patteby","country":"fi","lat":60.283333,"lon":22.183333},{"id":912334,"name":"vanhalinna","country":"fi","lat":60.476389,"lon":22.380556},{"id":906492,"name":"metsaaro","country":"fi","lat":60.464722,"lon":22.163889},{"id":910821,"name":"storbacka","country":"fi","lat":59.9575,"lon":22.361389},{"id":902224,"name":"inkoinen","country":"fi","lat":60.465278,"lon":22.143611},{"id":907301,"name":"nulto","country":"fi","lat":60.283889,"lon":22.138889},{"id":906198,"name":"malsala","country":"fi","lat":60.483333,"lon":21.9},{"id":907270,"name":"norrskata","country":"fi","lat":60.266667,"lon":21.6},{"id":910792,"name":"stanby","country":"fi","lat":60.283333,"lon":22.116667},{"id":902328,"name":"jaakkola","country":"fi","lat":60.4225,"lon":22.021111},{"id":904820,"name":"kupitaa","country":"fi","lat":60.446944,"lon":22.2925},{"id":912125,"name":"vaantela","country":"fi","lat":60.496667,"lon":22.389722},{"id":901512,"name":"herttula","country":"fi","lat":60.436389,"lon":22.0475},{"id":910860,"name":"strandby","country":"fi","lat":60.166667,"lon":21.75},{"id":906549,"name":"miekkula","country":"fi","lat":60.432778,"lon":22.036667},{"id":905820,"name":"lofsdal","country":"fi","lat":60.233333,"lon":22.233333},{"id":909646,"name":"runko","country":"fi","lat":60.416667,"lon":22.466667},{"id":901321,"name":"havtrask","country":"fi","lat":60.233333,"lon":21.583333},{"id":906552,"name":"mielis","country":"fi","lat":60.216667,"lon":21.816667},{"id":905858,"name":"lomarkyla","country":"fi","lat":60.183333,"lon":22.422222},{"id":907711,"name":"over olmoss","country":"fi","lat":60.083333,"lon":22.416667},{"id":910440,"name":"simonkyla","country":"fi","lat":60.183333,"lon":22.05},{"id":906657,"name":"morkby","country":"fi","lat":60.316667,"lon":22.183333},{"id":909186,"name":"rasklax","country":"fi","lat":60.15,"lon":21.633333},{"id":907797,"name":"pahaniemi","country":"fi","lat":60.450833,"lon":22.216111},{"id":910677,"name":"solbacka","country":"fi","lat":60.085278,"lon":22.412222},{"id":904287,"name":"koristo","country":"fi","lat":60.3975,"lon":22.355556},{"id":903998,"name":"kohmo","country":"fi","lat":60.461111,"lon":22.343333},{"id":904666,"name":"kukola","country":"fi","lat":60.45,"lon":22.033333},{"id":910576,"name":"skravso","country":"fi","lat":60.220278,"lon":22.363333},{"id":903475,"name":"kausela","country":"fi","lat":60.466667,"lon":22.35},{"id":900799,"name":"gullkrona","country":"fi","lat":60.086111,"lon":22.085556},{"id":909690,"name":"ruona","country":"fi","lat":60.476667,"lon":22.037222},{"id":899901,"name":"ali-kirjala","country":"fi","lat":60.35,"lon":22.333056},{"id":905936,"name":"luikkio","country":"fi","lat":60.4875,"lon":22.034444},{"id":900022,"name":"armonlaakso","country":"fi","lat":60.370278,"lon":22.287222},{"id":905204,"name":"laitio","country":"fi","lat":60.498333,"lon":22.492778},{"id":900255,"name":"bodnas","country":"fi","lat":60.133333,"lon":21.533333},{"id":906261,"name":"mantymaki","country":"fi","lat":60.434722,"lon":22.280278},{"id":907324,"name":"nunna","country":"fi","lat":60.440833,"lon":22.431389},{"id":900951,"name":"hakkinen","country":"fi","lat":60.486667,"lon":22.392222},{"id":908574,"name":"pohjakyla","country":"fi","lat":60.45,"lon":21.65},{"id":905969,"name":"luolavuori","country":"fi","lat":60.429167,"lon":22.275556},{"id":902775,"name":"kaerla","country":"fi","lat":60.476111,"lon":22.277222},{"id":900429,"name":"dragsfjard","country":"fi","lat":60.066667,"lon":22.483333},{"id":912292,"name":"vallis","country":"fi","lat":60.299444,"lon":22.233889},{"id":901906,"name":"hulkkio","country":"fi","lat":60.416667,"lon":22.433333},{"id":912215,"name":"vainola","country":"fi","lat":60.471111,"lon":22.023611},{"id":910783,"name":"spikis","country":"fi","lat":60.015556,"lon":22.488889},{"id":911118,"name":"sydanpera","country":"fi","lat":60.183333,"lon":21.75},{"id":906685,"name":"muddais","country":"fi","lat":60.299722,"lon":22.35},{"id":912610,"name":"velkuankaupunki","country":"fi","lat":60.427222,"lon":21.618333},{"id":907282,"name":"noto","country":"fi","lat":59.95,"lon":21.766667},{"id":900270,"name":"bollbole","country":"fi","lat":60.343611,"lon":22.443056},{"id":907263,"name":"norrgrannas","country":"fi","lat":59.9575,"lon":21.757222},{"id":911535,"name":"tikanmaa","country":"fi","lat":60.4875,"lon":22.095278},{"id":910409,"name":"sillila","country":"fi","lat":60.490833,"lon":22.424722},{"id":912704,"name":"vidkula","country":"fi","lat":60.333333,"lon":22.45},{"id":903960,"name":"klobbnas","country":"fi","lat":60.153611,"lon":21.972778},{"id":908753,"name":"poutuis","country":"fi","lat":60.207222,"lon":21.816111},{"id":909417,"name":"riistavuori","country":"fi","lat":60.4975,"lon":22.019722},{"id":909678,"name":"ruokorauma","country":"fi","lat":60.400833,"lon":21.955833},{"id":899965,"name":"angsudden","country":"fi","lat":60.125278,"lon":22.446111},{"id":905877,"name":"loskarnas","country":"fi","lat":60.329167,"lon":22.248056},{"id":902232,"name":"inttila","country":"fi","lat":60.45,"lon":21.979722},{"id":908562,"name":"pito","country":"fi","lat":60.302778,"lon":22.395556},{"id":907882,"name":"pakinainen","country":"fi","lat":60.35,"lon":21.666667},{"id":911144,"name":"sysilahti","country":"fi","lat":60.299722,"lon":22.25},{"id":906904,"name":"myltykyla","country":"fi","lat":60.35,"lon":22.233333},{"id":907554,"name":"ontala","country":"fi","lat":60.289722,"lon":22.170833},{"id":906508,"name":"metsamaki","country":"fi","lat":60.486944,"lon":22.331111},{"id":905052,"name":"kyrksundet","country":"fi","lat":59.866667,"lon":22.483333},{"id":911789,"name":"trollgarda","country":"fi","lat":60.345833,"lon":22.368333},{"id":899990,"name":"antbule","country":"fi","lat":60.166667,"lon":21.766667},{"id":904567,"name":"krok","country":"fi","lat":60.133333,"lon":21.733333},{"id":907978,"name":"palva","country":"fi","lat":60.466667,"lon":21.666667},{"id":910041,"name":"sando","country":"fi","lat":60.166667,"lon":22.116667},{"id":910063,"name":"sannainen","country":"fi","lat":60.45,"lon":21.85},{"id":899978,"name":"ankkurikyla","country":"fi","lat":60.454444,"lon":22.135278},{"id":911204,"name":"taimo","country":"fi","lat":60.482222,"lon":22.031944},{"id":900417,"name":"djupdal","country":"fi","lat":60.143611,"lon":21.708611},{"id":905967,"name":"luolaja","country":"fi","lat":60.468889,"lon":22.065833},{"id":913060,"name":"vyyrylaisenmaki","country":"fi","lat":60.429444,"lon":22.380833},{"id":905744,"name":"lillby","country":"fi","lat":60.333333,"lon":22.4},{"id":913005,"name":"vuolahti","country":"fi","lat":60.371111,"lon":22.343889},{"id":908773,"name":"prostvik","country":"fi","lat":60.2,"lon":22.066667},{"id":907588,"name":"orgsaari","country":"fi","lat":60.283333,"lon":22.483333},{"id":903271,"name":"karrvik","country":"fi","lat":60.176111,"lon":22.256944},{"id":912115,"name":"vaala","country":"fi","lat":60.433333,"lon":22.364722},{"id":900707,"name":"garsbele","country":"fi","lat":60.316667,"lon":22.466667},{"id":905247,"name":"lammobro","country":"fi","lat":60.030833,"lon":22.488611},{"id":899962,"name":"angesnas","country":"fi","lat":60.135,"lon":21.700833},{"id":902244,"name":"iskola","country":"fi","lat":60.433333,"lon":21.8},{"id":911901,"name":"tuulissuo","country":"fi","lat":60.468889,"lon":22.426667},{"id":906852,"name":"muurassuo","country":"fi","lat":60.458056,"lon":22.412778},{"id":904138,"name":"kolingby","country":"fi","lat":60.13,"lon":21.564444},{"id":904347,"name":"korppolaismaki","country":"fi","lat":60.430833,"lon":22.24},{"id":904660,"name":"kukkola","country":"fi","lat":60.406111,"lon":22.230833},{"id":906598,"name":"mjosund","country":"fi","lat":60.2,"lon":22.483333},{"id":909648,"name":"runosmaki","country":"fi","lat":60.489167,"lon":22.255833},{"id":903348,"name":"kasluot","country":"fi","lat":60.233333,"lon":21.816667},{"id":901179,"name":"harkinmaa","country":"fi","lat":60.343889,"lon":21.701667},{"id":907073,"name":"niemenkulma","country":"fi","lat":60.354167,"lon":22.151111},{"id":911785,"name":"treskby","country":"fi","lat":60.366667,"lon":22.383333},{"id":900269,"name":"bole","country":"fi","lat":59.866667,"lon":22.45},{"id":905576,"name":"lemperso","country":"fi","lat":60.116667,"lon":21.5},{"id":904627,"name":"kuivanen","country":"fi","lat":60.372222,"lon":21.740833},{"id":902285,"name":"isopoikko","country":"fi","lat":60.416667,"lon":21.916667},{"id":909987,"name":"salonkyla","country":"fi","lat":60.360278,"lon":21.852222},{"id":903856,"name":"kirstila","country":"fi","lat":60.428056,"lon":22.0},{"id":902400,"name":"jaramaki","country":"fi","lat":60.4775,"lon":22.140556},{"id":900914,"name":"haijainen","country":"fi","lat":60.433333,"lon":22.0},{"id":900012,"name":"apola","country":"fi","lat":60.433333,"lon":22.2},{"id":909630,"name":"ruissalo","country":"fi","lat":60.433333,"lon":22.1},{"id":904275,"name":"korenes","country":"fi","lat":60.366667,"lon":22.316667},{"id":912969,"name":"voivala","country":"fi","lat":60.41,"lon":22.425},{"id":900682,"name":"galls","country":"fi","lat":60.169167,"lon":21.786667},{"id":901433,"name":"hellemaa","country":"fi","lat":60.458889,"lon":21.904167},{"id":908656,"name":"polsbole","country":"fi","lat":60.346111,"lon":22.411667},{"id":912425,"name":"vasby","country":"fi","lat":60.15,"lon":21.566667},{"id":909065,"name":"raisio","country":"fi","lat":60.483333,"lon":22.183333},{"id":909380,"name":"riiainen","country":"fi","lat":60.383333,"lon":21.883333},{"id":912461,"name":"vastergard","country":"fi","lat":60.242222,"lon":22.197778},{"id":907993,"name":"pansio","country":"fi","lat":60.45,"lon":22.15},{"id":903262,"name":"karra","country":"fi","lat":60.066667,"lon":22.45},{"id":910894,"name":"suikkila","country":"fi","lat":60.395556,"lon":21.822778},{"id":901715,"name":"hogsar","country":"fi","lat":59.95,"lon":22.366667},{"id":905851,"name":"lokholm","country":"fi","lat":59.916667,"lon":21.883333},{"id":899964,"name":"angsholm","country":"fi","lat":60.225556,"lon":22.363333}]});