callback({"markets":[{"id":1103150,"name":"anse a cochon","country":"ht","lat":18.6666667,"lon":-74.15},{"id":1103273,"name":"baboquette","country":"ht","lat":18.6333333,"lon":-73.6833333},{"id":1112936,"name":"tapona","country":"ht","lat":18.55,"lon":-74.3333333},{"id":1113091,"name":"tibao","country":"ht","lat":18.6333333,"lon":-74.2166667},{"id":1110257,"name":"mith","country":"ht","lat":18.6166667,"lon":-74.15},{"id":1105622,"name":"clisan","country":"ht","lat":18.6666667,"lon":-74.2166667},{"id":1103340,"name":"balizier","country":"ht","lat":18.65,"lon":-74.2833333},{"id":1106386,"name":"detrit","country":"ht","lat":18.7,"lon":-74.2},{"id":1110568,"name":"move zafe","country":"ht","lat":18.55,"lon":-73.9833333},{"id":1109895,"name":"mare zabla","country":"ht","lat":18.5166667,"lon":-73.9166667},{"id":1110920,"name":"nan lise","country":"ht","lat":18.6166667,"lon":-74.05},{"id":1112405,"name":"roseaux","country":"ht","lat":18.6,"lon":-74.0166667},{"id":1103841,"name":"berthaud","country":"ht","lat":18.5333333,"lon":-74.0333333},{"id":1106101,"name":"decidou","country":"ht","lat":18.6,"lon":-73.6666667},{"id":1110345,"name":"monterant","country":"ht","lat":18.5166667,"lon":-74.0666667},{"id":1111003,"name":"nan palmiste","country":"ht","lat":18.5297222,"lon":-73.8663889},{"id":1108838,"name":"lambi","country":"ht","lat":18.55,"lon":-73.6666667},{"id":1104604,"name":"buron","country":"ht","lat":18.6666667,"lon":-74.25},{"id":1111778,"name":"plaine mille","country":"ht","lat":18.5833333,"lon":-74.1666667},{"id":1110922,"name":"nan lundi","country":"ht","lat":18.6833333,"lon":-74.1333333},{"id":1109940,"name":"marion","country":"ht","lat":18.5166667,"lon":-73.8666667},{"id":1106276,"name":"des bourrys","country":"ht","lat":18.6166667,"lon":-74.1166667},{"id":1108411,"name":"ka laurent","country":"ht","lat":18.5666667,"lon":-73.6833333},{"id":1106977,"name":"ester","country":"ht","lat":18.5333333,"lon":-74.2166667},{"id":1103216,"name":"au bas","country":"ht","lat":18.5833333,"lon":-73.7},{"id":1106060,"name":"debarasse","country":"ht","lat":18.5333333,"lon":-74.1666667},{"id":1106334,"name":"desobert","country":"ht","lat":18.55,"lon":-73.6},{"id":1108397,"name":"ka dieu","country":"ht","lat":18.55,"lon":-73.7},{"id":1104889,"name":"campeche","country":"ht","lat":18.5675,"lon":-73.9288889},{"id":1112010,"name":"pot chinotte","country":"ht","lat":18.5166667,"lon":-73.6833333},{"id":1107228,"name":"fond palmiste","country":"ht","lat":18.5166667,"lon":-73.7333333},{"id":1111228,"name":"nouvelette","country":"ht","lat":18.5833333,"lon":-74.1333333},{"id":1112549,"name":"sajotte","country":"ht","lat":18.6,"lon":-74.35},{"id":1112510,"name":"saint juste","country":"ht","lat":18.65,"lon":-74.3333333},{"id":1112095,"name":"quenton","country":"ht","lat":18.6,"lon":-74.1833333},{"id":1105060,"name":"carrefour charles","country":"ht","lat":18.5344444,"lon":-73.9952778},{"id":1110925,"name":"nan madeleine","country":"ht","lat":18.5297222,"lon":-73.8463889},{"id":1105170,"name":"casale","country":"ht","lat":18.5,"lon":-74.3666667},{"id":1109803,"name":"marcorsi","country":"ht","lat":18.6166667,"lon":-74.35},{"id":1110138,"name":"menthor","country":"ht","lat":18.5333333,"lon":-73.7333333},{"id":1110990,"name":"nan moulin","country":"ht","lat":18.5166667,"lon":-74.0333333},{"id":1112400,"name":"rosa","country":"ht","lat":18.5088889,"lon":-73.7711111},{"id":1108567,"name":"la chicotte","country":"ht","lat":18.5522222,"lon":-73.9855556},{"id":1110958,"name":"nan martin","country":"ht","lat":18.6,"lon":-74.3666667},{"id":1103105,"name":"alberie","country":"ht","lat":18.5044444,"lon":-73.8869444},{"id":1106731,"name":"duc","country":"ht","lat":18.55,"lon":-74.0166667},{"id":1103909,"name":"bina","country":"ht","lat":18.5833333,"lon":-73.6833333},{"id":1103583,"name":"bayard","country":"ht","lat":18.55,"lon":-74.2833333},{"id":1108842,"name":"lamentin","country":"ht","lat":18.55,"lon":-73.8166667},{"id":1113245,"name":"torbeck","country":"ht","lat":18.6833333,"lon":-74.2166667},{"id":1105719,"name":"conette","country":"ht","lat":18.5188889,"lon":-73.9325},{"id":1113141,"name":"ti folie","country":"ht","lat":18.5166667,"lon":-74.1166667},{"id":1103168,"name":"anse du nord","country":"ht","lat":18.6666667,"lon":-73.7666667},{"id":1113173,"name":"timpe","country":"ht","lat":18.5166667,"lon":-74.3833333},{"id":1107358,"name":"fraise","country":"ht","lat":18.55,"lon":-74.1833333},{"id":1104309,"name":"bossou","country":"ht","lat":18.6666667,"lon":-74.3166667},{"id":1108825,"name":"lamarque","country":"ht","lat":18.5,"lon":-73.5666667},{"id":1106027,"name":"dasignac","country":"ht","lat":18.5166667,"lon":-74.2166667},{"id":1105314,"name":"cetry","country":"ht","lat":18.5833333,"lon":-74.0666667},{"id":1106903,"name":"duvaranne","country":"ht","lat":18.55,"lon":-74.3666667},{"id":1105599,"name":"clareau","country":"ht","lat":18.6666667,"lon":-74.1333333},{"id":1104105,"name":"bois l\u0027anse","country":"ht","lat":18.5,"lon":-74.2833333},{"id":1106102,"name":"deck","country":"ht","lat":18.6,"lon":-74.2833333},{"id":1106452,"name":"dilobouille","country":"ht","lat":18.5666667,"lon":-74.1666667},{"id":1103326,"name":"balandier","country":"ht","lat":18.5833333,"lon":-74.4},{"id":1108620,"name":"lacour","country":"ht","lat":18.6333333,"lon":-74.0666667},{"id":1106423,"name":"didon","country":"ht","lat":18.5833333,"lon":-74.2},{"id":1105946,"name":"cyrac","country":"ht","lat":18.5833333,"lon":-74.1},{"id":1106285,"name":"deschamps","country":"ht","lat":18.6,"lon":-74.1166667},{"id":1105720,"name":"congande","country":"ht","lat":18.5833333,"lon":-73.95},{"id":1104540,"name":"breton","country":"ht","lat":18.5833333,"lon":-74.4166667},{"id":1108915,"name":"la pagru","country":"ht","lat":18.5166667,"lon":-73.9666667},{"id":1107068,"name":"fevre","country":"ht","lat":18.5,"lon":-73.5},{"id":1111583,"name":"petite riviere de dame marie","country":"ht","lat":18.6,"lon":-74.4166667},{"id":1105338,"name":"chainau","country":"ht","lat":18.6166667,"lon":-74.2},{"id":1106294,"name":"descloches","country":"ht","lat":18.5,"lon":-73.7},{"id":1106098,"name":"decide","country":"ht","lat":18.6166667,"lon":-74.1},{"id":1109166,"name":"lavaud","country":"ht","lat":18.5,"lon":-73.8},{"id":1104145,"name":"bois neuf","country":"ht","lat":18.6166667,"lon":-74.0},{"id":1111385,"name":"parisse","country":"ht","lat":18.5,"lon":-73.9},{"id":1108231,"name":"jardin","country":"ht","lat":18.5166667,"lon":-74.35},{"id":1111214,"name":"nodeste","country":"ht","lat":18.6166667,"lon":-74.4},{"id":1103809,"name":"beril","country":"ht","lat":18.6166667,"lon":-74.3},{"id":1111381,"name":"paris","country":"ht","lat":18.5,"lon":-73.9166667},{"id":1110213,"name":"milfort","country":"ht","lat":18.5166667,"lon":-74.1333333},{"id":1103593,"name":"bayeux","country":"ht","lat":18.6833333,"lon":-73.7333333},{"id":1113100,"name":"tibo","country":"ht","lat":18.5,"lon":-74.3833333},{"id":1111104,"name":"nan sales","country":"ht","lat":18.5666667,"lon":-74.1166667},{"id":1112840,"name":"source abricot","country":"ht","lat":18.55,"lon":-74.2666667},{"id":1108376,"name":"julinette","country":"ht","lat":18.5666667,"lon":-74.2666667},{"id":1109005,"name":"la roche","country":"ht","lat":18.5333333,"lon":-74.2666667},{"id":1111042,"name":"nan pligue","country":"ht","lat":18.5922222,"lon":-73.9919444},{"id":1111882,"name":"plonquette","country":"ht","lat":18.5333333,"lon":-74.4333333},{"id":1105294,"name":"ceme","country":"ht","lat":18.5166667,"lon":-74.45},{"id":1113164,"name":"ti maurice","country":"ht","lat":18.5,"lon":-74.2666667},{"id":1105146,"name":"carrefour prince","country":"ht","lat":18.65,"lon":-74.2166667},{"id":1113571,"name":"ville de dame marie","country":"ht","lat":18.5666667,"lon":-74.4166667},{"id":1113162,"name":"timare","country":"ht","lat":18.5777778,"lon":-73.9966667},{"id":1103270,"name":"babin","country":"ht","lat":18.6333333,"lon":-74.2666667},{"id":1103625,"name":"beaufrin","country":"ht","lat":18.5744444,"lon":-73.9869444},{"id":1107094,"name":"flefe","country":"ht","lat":18.65,"lon":-74.25},{"id":1109567,"name":"madame donne","country":"ht","lat":18.5166667,"lon":-73.8166667},{"id":1106853,"name":"dupre","country":"ht","lat":18.6333333,"lon":-74.3166667},{"id":1112802,"name":"sincao","country":"ht","lat":18.5333333,"lon":-74.1333333},{"id":1108059,"name":"hatte barbe","country":"ht","lat":18.55,"lon":-74.3833333},{"id":1111541,"name":"pestal","country":"ht","lat":18.5411111,"lon":-73.7955556},{"id":1111021,"name":"nan philippe","country":"ht","lat":18.5,"lon":-73.7666667},{"id":1105422,"name":"chardonnette","country":"ht","lat":18.5166667,"lon":-74.0166667},{"id":1107932,"name":"gros latanier","country":"ht","lat":18.5833333,"lon":-73.5833333},{"id":1110767,"name":"nan daniel","country":"ht","lat":18.5022222,"lon":-73.8194444},{"id":1104371,"name":"boucan philippe","country":"ht","lat":18.5833333,"lon":-73.75},{"id":1106732,"name":"duchaninoir","country":"ht","lat":18.5333333,"lon":-74.3833333},{"id":1112432,"name":"rousselin","country":"ht","lat":18.55,"lon":-74.4333333},{"id":1105377,"name":"champy","country":"ht","lat":18.55,"lon":-73.9333333},{"id":1105966,"name":"dalier","country":"ht","lat":18.5,"lon":-74.4},{"id":1104935,"name":"ca noel","country":"ht","lat":18.5166667,"lon":-74.2666667},{"id":1112164,"name":"ravin de rouga","country":"ht","lat":18.5833333,"lon":-74.2666667},{"id":1112601,"name":"sarc","country":"ht","lat":18.5,"lon":-74.4333333},{"id":1104649,"name":"cacajou","country":"ht","lat":18.6,"lon":-73.6833333},{"id":1104323,"name":"boucan","country":"ht","lat":18.5166667,"lon":-74.3333333},{"id":1108311,"name":"jeudi","country":"ht","lat":18.5166667,"lon":-73.7166667},{"id":1113686,"name":"zetrois","country":"ht","lat":18.6166667,"lon":-73.7},{"id":1113108,"name":"tiby","country":"ht","lat":18.55,"lon":-73.5166667},{"id":1105202,"name":"cassetache","country":"ht","lat":18.6166667,"lon":-74.2166667},{"id":1111608,"name":"petit trou","country":"ht","lat":18.5333333,"lon":-73.5166667},{"id":1104193,"name":"bois sec","country":"ht","lat":18.5333333,"lon":-74.0666667},{"id":1109898,"name":"marfranc","country":"ht","lat":18.5833333,"lon":-74.2166667},{"id":1104273,"name":"borde","country":"ht","lat":18.65,"lon":-74.1166667},{"id":1106916,"name":"duvet","country":"ht","lat":18.55,"lon":-74.0666667},{"id":1110004,"name":"massica","country":"ht","lat":18.5666667,"lon":-74.3166667},{"id":1109115,"name":"lato","country":"ht","lat":18.5833333,"lon":-74.35},{"id":1105819,"name":"cote de fer","country":"ht","lat":18.65,"lon":-74.2666667},{"id":1104665,"name":"cachimbo","country":"ht","lat":18.5166667,"lon":-74.05},{"id":1107265,"name":"fond simon","country":"ht","lat":18.5683333,"lon":-73.9888889},{"id":1112067,"name":"print","country":"ht","lat":18.5,"lon":-74.05},{"id":1112343,"name":"roche miel","country":"ht","lat":18.5322222,"lon":-73.9522222},{"id":1109323,"name":"lexi","country":"ht","lat":18.5,"lon":-74.1},{"id":1109065,"name":"la sise","country":"ht","lat":18.55,"lon":-74.2333333},{"id":1108741,"name":"la gombrit","country":"ht","lat":18.6166667,"lon":-74.3166667},{"id":1109380,"name":"limette","country":"ht","lat":18.5,"lon":-74.3333333},{"id":1105569,"name":"cimetiere","country":"ht","lat":18.5833333,"lon":-74.3666667},{"id":1108696,"name":"lafitte","country":"ht","lat":18.6,"lon":-74.3},{"id":1107056,"name":"ferrier","country":"ht","lat":18.5197222,"lon":-73.7605556},{"id":1105313,"name":"cesson","country":"ht","lat":18.6,"lon":-74.4},{"id":1103614,"name":"beaucalin","country":"ht","lat":18.6,"lon":-74.2},{"id":1107877,"name":"gras","country":"ht","lat":18.5166667,"lon":-74.25},{"id":1107245,"name":"fond rage","country":"ht","lat":18.5277778,"lon":-73.9744444},{"id":1103862,"name":"betrouze","country":"ht","lat":18.5833333,"lon":-74.1166667},{"id":1111644,"name":"picoulet","country":"ht","lat":18.5166667,"lon":-73.55},{"id":1107988,"name":"guerin","country":"ht","lat":18.55,"lon":-73.6166667},{"id":1110285,"name":"molet","country":"ht","lat":18.5666667,"lon":-74.2166667},{"id":1108692,"name":"la fige","country":"ht","lat":18.5333333,"lon":-74.2333333},{"id":1104144,"name":"bois-neuf","country":"ht","lat":18.5666667,"lon":-73.5833333},{"id":1103819,"name":"bernagousse","country":"ht","lat":18.5158333,"lon":-73.8294444},{"id":1109152,"name":"lavalace","country":"ht","lat":18.5833333,"lon":-74.25},{"id":1108226,"name":"janvier","country":"ht","lat":18.5166667,"lon":-74.15},{"id":1109972,"name":"martillet","country":"ht","lat":18.5166667,"lon":-74.1666667},{"id":1110405,"name":"morne beaumont","country":"ht","lat":18.6333333,"lon":-74.1166667},{"id":1111767,"name":"plaine gelin","country":"ht","lat":18.6,"lon":-74.1666667},{"id":1109331,"name":"l\u0027homond","country":"ht","lat":18.65,"lon":-74.3166667},{"id":1108408,"name":"ka lafond","country":"ht","lat":18.5666667,"lon":-73.5333333},{"id":1110460,"name":"morne grand bois","country":"ht","lat":18.5833333,"lon":-74.2833333},{"id":1109956,"name":"maroulette","country":"ht","lat":18.55,"lon":-73.8333333},{"id":1110611,"name":"nan bambou","country":"ht","lat":18.65,"lon":-74.1333333},{"id":1112547,"name":"saint-victor","country":"ht","lat":18.6333333,"lon":-74.35},{"id":1106055,"name":"dayer","country":"ht","lat":18.5333333,"lon":-74.15},{"id":1106118,"name":"defaille","country":"ht","lat":18.6333333,"lon":-74.3666667},{"id":1113388,"name":"troupeau","country":"ht","lat":18.5319444,"lon":-73.9297222},{"id":1112574,"name":"sangris","country":"ht","lat":18.55,"lon":-73.55},{"id":1103886,"name":"bienfaisant","country":"ht","lat":18.5513889,"lon":-73.8552778},{"id":1103419,"name":"barnard","country":"ht","lat":18.5833333,"lon":-73.8166667},{"id":1106738,"name":"duchene","country":"ht","lat":18.5833333,"lon":-74.15},{"id":1108681,"name":"laferriere","country":"ht","lat":18.5666667,"lon":-74.3333333},{"id":1111445,"name":"patte large","country":"ht","lat":18.5863889,"lon":-73.9522222},{"id":1104751,"name":"cailledor","country":"ht","lat":18.6333333,"lon":-74.1833333},{"id":1108375,"name":"juliette","country":"ht","lat":18.5333333,"lon":-74.3333333},{"id":1104562,"name":"brisson","country":"ht","lat":18.7,"lon":-74.25},{"id":1109229,"name":"leger","country":"ht","lat":18.5833333,"lon":-74.0166667},{"id":1105057,"name":"carrefour caton","country":"ht","lat":18.6666667,"lon":-74.1833333},{"id":1108593,"name":"lacosse","country":"ht","lat":18.65,"lon":-74.1666667},{"id":1110646,"name":"nan bois neuf","country":"ht","lat":18.5166667,"lon":-73.8480556},{"id":1107530,"name":"gatineau","country":"ht","lat":18.55,"lon":-74.1666667},{"id":1107599,"name":"gilot","country":"ht","lat":18.5166667,"lon":-74.3666667},{"id":1106920,"name":"duvineau","country":"ht","lat":18.5166667,"lon":-74.4166667},{"id":1109521,"name":"lucienne","country":"ht","lat":18.55,"lon":-74.2166667},{"id":1108512,"name":"la borde","country":"ht","lat":18.5,"lon":-74.3166667},{"id":1107075,"name":"fignoie","country":"ht","lat":18.5666667,"lon":-74.3666667},{"id":1104759,"name":"caille maron","country":"ht","lat":18.6666667,"lon":-74.3333333},{"id":1109384,"name":"lindor","country":"ht","lat":18.5666667,"lon":-73.5666667},{"id":1112593,"name":"sanyette","country":"ht","lat":18.5,"lon":-74.1333333},{"id":1111183,"name":"navarre","country":"ht","lat":18.5666667,"lon":-74.1833333},{"id":1113567,"name":"ville de apricots","country":"ht","lat":18.6333333,"lon":-74.3},{"id":1111664,"name":"pierre","country":"ht","lat":18.5833333,"lon":-74.05},{"id":1113032,"name":"testas","country":"ht","lat":18.6333333,"lon":-74.1},{"id":1106865,"name":"duranton","country":"ht","lat":18.55,"lon":-74.15},{"id":1108712,"name":"la foret","country":"ht","lat":18.6333333,"lon":-74.2},{"id":1104652,"name":"ca charlesdieu","country":"ht","lat":18.5169444,"lon":-73.7852778},{"id":1111672,"name":"pifois","country":"ht","lat":18.6,"lon":-74.1333333},{"id":1105666,"name":"colimon","country":"ht","lat":18.5666667,"lon":-74.1},{"id":1105474,"name":"chatelain","country":"ht","lat":18.6666667,"lon":-74.3},{"id":1111727,"name":"piton","country":"ht","lat":18.5666667,"lon":-74.2},{"id":1106323,"name":"deslions","country":"ht","lat":18.5,"lon":-74.15},{"id":1104866,"name":"cambon","country":"ht","lat":18.5666667,"lon":-74.4},{"id":1110389,"name":"morn birotte","country":"ht","lat":18.65,"lon":-74.3},{"id":1109985,"name":"martino","country":"ht","lat":18.65,"lon":-74.2},{"id":1111705,"name":"pinquiere","country":"ht","lat":18.5166667,"lon":-74.1833333},{"id":1105883,"name":"coury","country":"ht","lat":18.5166667,"lon":-74.2333333},{"id":1106762,"name":"dufor","country":"ht","lat":18.6166667,"lon":-74.3666667},{"id":1109835,"name":"mare citron","country":"ht","lat":18.6144444,"lon":-73.7594444},{"id":1110899,"name":"nan lacour","country":"ht","lat":18.5077778,"lon":-73.9513889},{"id":1105149,"name":"carrefour reverdure","country":"ht","lat":18.6166667,"lon":-74.1833333},{"id":1109388,"name":"linton","country":"ht","lat":18.5333333,"lon":-74.2833333},{"id":1105347,"name":"chajotte","country":"ht","lat":18.5833333,"lon":-74.3333333},{"id":1104100,"name":"bois lambert","country":"ht","lat":18.5333333,"lon":-74.0166667},{"id":1112208,"name":"raynald","country":"ht","lat":18.5666667,"lon":-74.0166667},{"id":1111862,"name":"platon","country":"ht","lat":18.6333333,"lon":-74.15},{"id":1105531,"name":"chevry","country":"ht","lat":18.55,"lon":-74.05},{"id":1110174,"name":"mesrocks","country":"ht","lat":18.6166667,"lon":-74.2666667},{"id":1112277,"name":"rinbeau","country":"ht","lat":18.5666667,"lon":-73.95},{"id":1105470,"name":"chateau","country":"ht","lat":18.5,"lon":-74.2166667},{"id":1108157,"name":"hilaire","country":"ht","lat":18.6666667,"lon":-74.2333333},{"id":1113273,"name":"tourneau","country":"ht","lat":18.6333333,"lon":-74.2333333},{"id":1103166,"name":"anse d\u0027hainault","country":"ht","lat":18.5,"lon":-74.45},{"id":1108305,"name":"jeremie","country":"ht","lat":18.6166667,"lon":-74.0833333},{"id":1112439,"name":"roux","country":"ht","lat":18.5333333,"lon":-74.3666667},{"id":1111461,"name":"payrette","country":"ht","lat":18.6333333,"lon":-74.3333333},{"id":1103355,"name":"bambou","country":"ht","lat":18.5333333,"lon":-74.1833333},{"id":1104647,"name":"cabrouette","country":"ht","lat":18.5125,"lon":-73.7925},{"id":1110398,"name":"morne avance","country":"ht","lat":18.5666667,"lon":-73.6333333},{"id":1109981,"name":"martin","country":"ht","lat":18.6333333,"lon":-74.25},{"id":1107205,"name":"fond league","country":"ht","lat":18.5166667,"lon":-73.9333333},{"id":1107253,"name":"fond rouge","country":"ht","lat":18.65,"lon":-74.2333333},{"id":1108065,"name":"hatte chapeau","country":"ht","lat":18.6833333,"lon":-74.25},{"id":1106571,"name":"dony","country":"ht","lat":18.5166667,"lon":-73.6666667},{"id":1111752,"name":"plaine ananas","country":"ht","lat":18.6166667,"lon":-73.7166667},{"id":1104605,"name":"burotte","country":"ht","lat":18.6833333,"lon":-74.2833333},{"id":1112118,"name":"ragosse","country":"ht","lat":18.5,"lon":-74.35},{"id":1106994,"name":"etroit","country":"ht","lat":18.5666667,"lon":-73.7166667},{"id":1110038,"name":"mathon","country":"ht","lat":18.5666667,"lon":-73.6},{"id":1105234,"name":"ca ti charles","country":"ht","lat":18.5666667,"lon":-73.7},{"id":1111124,"name":"nan six","country":"ht","lat":18.5,"lon":-74.4166667},{"id":1111064,"name":"nan rat","country":"ht","lat":18.5272222,"lon":-73.7994444},{"id":1108243,"name":"jean-baptiste","country":"ht","lat":18.5238889,"lon":-73.8186111},{"id":1109903,"name":"mariane","country":"ht","lat":18.5166667,"lon":-74.2833333},{"id":1103724,"name":"belle maison","country":"ht","lat":18.5666667,"lon":-74.35},{"id":1107155,"name":"fond d\u0027acaque","country":"ht","lat":18.5383333,"lon":-73.9630556},{"id":1104551,"name":"briers","country":"ht","lat":18.6833333,"lon":-74.2333333},{"id":1108386,"name":"ka antoine","country":"ht","lat":18.5166667,"lon":-74.0},{"id":1105919,"name":"crochu","country":"ht","lat":18.5166667,"lon":-74.1},{"id":1106704,"name":"duble","country":"ht","lat":18.5166667,"lon":-74.2},{"id":1110533,"name":"mort","country":"ht","lat":18.5625,"lon":-73.9836111},{"id":1107549,"name":"gelin","country":"ht","lat":18.5166667,"lon":-74.3},{"id":1105924,"name":"croix cherie","country":"ht","lat":18.55,"lon":-74.0833333},{"id":1107696,"name":"grand\u0027 anse","country":"ht","lat":18.5666667,"lon":-73.65},{"id":1112162,"name":"ravajou","country":"ht","lat":18.5166667,"lon":-74.4},{"id":1108820,"name":"lamandier","country":"ht","lat":18.5333333,"lon":-74.0833333},{"id":1105574,"name":"citadelle","country":"ht","lat":18.5666667,"lon":-74.0833333},{"id":1109797,"name":"marche leon","country":"ht","lat":18.55,"lon":-74.1166667},{"id":1108005,"name":"guillard","country":"ht","lat":18.5333333,"lon":-73.7},{"id":1106153,"name":"delbreuil","country":"ht","lat":18.5333333,"lon":-73.6},{"id":1112889,"name":"souyac","country":"ht","lat":18.5333333,"lon":-73.5},{"id":1106347,"name":"des plantes","country":"ht","lat":18.5166667,"lon":-74.3166667},{"id":1113650,"name":"yaya","country":"ht","lat":18.6166667,"lon":-74.1666667},{"id":1112626,"name":"sauve","country":"ht","lat":18.5333333,"lon":-74.1166667},{"id":1109253,"name":"leopold","country":"ht","lat":18.5833333,"lon":-74.2333333},{"id":1111802,"name":"planche","country":"ht","lat":18.6,"lon":-74.3833333},{"id":1105271,"name":"cayemites","country":"ht","lat":18.5833333,"lon":-73.7333333},{"id":1109042,"name":"la salle","country":"ht","lat":18.5166667,"lon":-73.7833333},{"id":1104708,"name":"ca docteur","country":"ht","lat":18.5186111,"lon":-73.9102778},{"id":1107569,"name":"gepe","country":"ht","lat":18.6,"lon":-74.2333333},{"id":1103860,"name":"bethel","country":"ht","lat":18.5666667,"lon":-73.6166667},{"id":1106447,"name":"digoterie","country":"ht","lat":18.5,"lon":-73.95},{"id":1110527,"name":"moron","country":"ht","lat":18.5666667,"lon":-74.25},{"id":1105725,"name":"congo tout nu","country":"ht","lat":18.6166667,"lon":-74.3333333},{"id":1107782,"name":"grande ravine","country":"ht","lat":18.5666667,"lon":-73.55},{"id":1108690,"name":"la fievre","country":"ht","lat":18.5205556,"lon":-73.7966667},{"id":1110864,"name":"nan guillaume","country":"ht","lat":18.5136111,"lon":-73.9069444},{"id":1110349,"name":"montimar","country":"ht","lat":18.5333333,"lon":-73.6333333},{"id":1107583,"name":"germon","country":"ht","lat":18.5833333,"lon":-74.3833333},{"id":1105941,"name":"curvier","country":"ht","lat":18.6166667,"lon":-74.2833333},{"id":1105671,"name":"colinette","country":"ht","lat":18.515,"lon":-73.8727778},{"id":1109754,"name":"manze avril","country":"ht","lat":18.5147222,"lon":-73.8052778},{"id":1108938,"name":"lapino","country":"ht","lat":18.5,"lon":-74.0833333},{"id":1110841,"name":"nan glacis","country":"ht","lat":18.5666667,"lon":-74.2333333},{"id":1110821,"name":"nan fourneau","country":"ht","lat":18.5038889,"lon":-73.7777778},{"id":1107714,"name":"grand boucon","country":"ht","lat":18.55,"lon":-73.5833333},{"id":1103061,"name":"abeille","country":"ht","lat":18.5641667,"lon":-73.8463889},{"id":1108658,"name":"la digue","country":"ht","lat":18.6666667,"lon":-74.1166667},{"id":1107681,"name":"gouyvier","country":"ht","lat":18.6833333,"lon":-73.7666667},{"id":1103622,"name":"beaudrouin","country":"ht","lat":18.5833333,"lon":-74.0833333},{"id":1106414,"name":"dianacou","country":"ht","lat":18.55,"lon":-74.3166667},{"id":1111780,"name":"plaine numero deux","country":"ht","lat":18.6666667,"lon":-74.1666667},{"id":1110165,"name":"meroque","country":"ht","lat":18.5666667,"lon":-74.2833333},{"id":1109702,"name":"mame","country":"ht","lat":18.5166667,"lon":-73.5333333},{"id":1113502,"name":"vido","country":"ht","lat":18.5291667,"lon":-73.8119444},{"id":1113195,"name":"ti plaine","country":"ht","lat":18.5630556,"lon":-73.9025},{"id":1109297,"name":"les rois","country":"ht","lat":18.5333333,"lon":-74.35},{"id":1109526,"name":"l\u0027usine","country":"ht","lat":18.5166667,"lon":-73.5},{"id":1110348,"name":"mont guillot","country":"ht","lat":18.5166667,"lon":-73.7},{"id":1109171,"name":"laventin","country":"ht","lat":18.5166667,"lon":-73.9833333},{"id":1110147,"name":"merci","country":"ht","lat":18.5333333,"lon":-74.4},{"id":1112235,"name":"renaud","country":"ht","lat":18.5333333,"lon":-73.65},{"id":1106580,"name":"dorfeull","country":"ht","lat":18.5333333,"lon":-74.2},{"id":1106552,"name":"domingo","country":"ht","lat":18.5333333,"lon":-74.1},{"id":1108046,"name":"habitation seringue","country":"ht","lat":18.6333333,"lon":-74.3833333},{"id":1107601,"name":"ginerte","country":"ht","lat":18.5333333,"lon":-74.0},{"id":1110532,"name":"mortel","country":"ht","lat":18.5833333,"lon":-74.0333333},{"id":1111757,"name":"plaine charles","country":"ht","lat":18.5833333,"lon":-74.1833333},{"id":1110032,"name":"mathieu","country":"ht","lat":18.5333333,"lon":-74.3166667},{"id":1110624,"name":"nan bayard","country":"ht","lat":18.5783333,"lon":-73.9855556},{"id":1107090,"name":"flandre","country":"ht","lat":18.5077778,"lon":-73.9816667},{"id":1112033,"name":"pousseline","country":"ht","lat":18.5666667,"lon":-74.05},{"id":1111663,"name":"pierre philippe","country":"ht","lat":18.6,"lon":-74.3333333},{"id":1104051,"name":"bois debout","country":"ht","lat":18.5,"lon":-73.7833333},{"id":1109350,"name":"liciet","country":"ht","lat":18.5072222,"lon":-73.7591667},{"id":1111408,"name":"passe barbe","country":"ht","lat":18.55,"lon":-74.4166667},{"id":1110317,"name":"monnery","country":"ht","lat":18.5,"lon":-73.5333333},{"id":1105462,"name":"chassagne","country":"ht","lat":18.6666667,"lon":-74.2666667},{"id":1104284,"name":"borgella","country":"ht","lat":18.65,"lon":-73.7333333},{"id":1110531,"name":"morron","country":"ht","lat":18.5666667,"lon":-74.1333333},{"id":1112002,"name":"poste-moulin","country":"ht","lat":18.55,"lon":-74.0},{"id":1113331,"name":"trois sources","country":"ht","lat":18.55,"lon":-74.35},{"id":1105539,"name":"chiendent","country":"ht","lat":18.5047222,"lon":-73.7822222},{"id":1106650,"name":"douane","country":"ht","lat":18.5666667,"lon":-73.6666667},{"id":1104525,"name":"brea","country":"ht","lat":18.55,"lon":-73.65},{"id":1111576,"name":"petite place","country":"ht","lat":18.6166667,"lon":-74.3833333},{"id":1106086,"name":"decade","country":"ht","lat":18.6166667,"lon":-74.1333333},{"id":1111454,"name":"pauvet","country":"ht","lat":18.6,"lon":-74.15},{"id":1105459,"name":"chartes","country":"ht","lat":18.6333333,"lon":-74.2833333},{"id":1104363,"name":"boucan noel","country":"ht","lat":18.5666667,"lon":-73.9333333},{"id":1105936,"name":"croquis","country":"ht","lat":18.55,"lon":-74.1},{"id":1108172,"name":"imbert","country":"ht","lat":18.55,"lon":-74.2},{"id":1106507,"name":"doca","country":"ht","lat":18.5666667,"lon":-74.3833333},{"id":1105657,"name":"colberan","country":"ht","lat":18.55,"lon":-74.3},{"id":1106597,"name":"dos camp","country":"ht","lat":18.55,"lon":-74.4}]});