callback({"markets":[{"id":300063,"name":"gilboes","country":"br","lat":-9.838889,"lon":-45.353889},{"id":305222,"name":"malhada da barra","country":"br","lat":-10.416667,"lon":-45.216667},{"id":313509,"name":"riacho grande","country":"br","lat":-10.25,"lon":-45.05},{"id":293377,"name":"canto do coco","country":"br","lat":-9.883333,"lon":-45.166667},{"id":309875,"name":"pedra furada","country":"br","lat":-9.716667,"lon":-45.283333},{"id":310678,"name":"piquizeiro","country":"br","lat":-9.633333,"lon":-44.85},{"id":289433,"name":"barra","country":"br","lat":-10.05,"lon":-45.05},{"id":289590,"name":"barra do brejo","country":"br","lat":-10.033333,"lon":-45.366667},{"id":293098,"name":"cana-brava","country":"br","lat":-10.1,"lon":-45.183333},{"id":287215,"name":"ananas","country":"br","lat":-9.905833,"lon":-45.038611},{"id":294229,"name":"castanheiro","country":"br","lat":-9.816667,"lon":-45.283333},{"id":313066,"name":"reducao","country":"br","lat":-9.5,"lon":-44.6},{"id":314540,"name":"saltoes","country":"br","lat":-9.75,"lon":-45.35},{"id":329057,"name":"xingu","country":"br","lat":-9.633333,"lon":-45.433333},{"id":296215,"name":"cruz","country":"br","lat":-10.35,"lon":-45.066667},{"id":313495,"name":"riacho frio","country":"br","lat":-10.083333,"lon":-44.983333},{"id":304177,"name":"lagoinha","country":"br","lat":-10.15,"lon":-45.283333},{"id":295948,"name":"corrente","country":"br","lat":-10.436111,"lon":-45.131111},{"id":325715,"name":"sucupira","country":"br","lat":-9.583333,"lon":-45.2},{"id":295709,"name":"contrato","country":"br","lat":-9.65,"lon":-45.183333},{"id":309907,"name":"pedra","country":"br","lat":-10.0,"lon":-45.35},{"id":308334,"name":"olhos d\u0027agua","country":"br","lat":-10.216667,"lon":-44.583333},{"id":313081,"name":"regalo","country":"br","lat":-9.794167,"lon":-45.038889},{"id":309728,"name":"paus","country":"br","lat":-9.55,"lon":-44.683333},{"id":291262,"name":"boqueirao","country":"br","lat":-10.433333,"lon":-45.233333},{"id":308948,"name":"papagaio","country":"br","lat":-10.033333,"lon":-45.2},{"id":289684,"name":"barra do prata","country":"br","lat":-10.116667,"lon":-45.366667},{"id":310957,"name":"pocao","country":"br","lat":-10.466667,"lon":-45.116667},{"id":301475,"name":"ipameri","country":"br","lat":-10.366667,"lon":-45.133333},{"id":297264,"name":"enseada","country":"br","lat":-9.953889,"lon":-45.122222},{"id":295087,"name":"cocos","country":"br","lat":-10.351667,"lon":-45.331389},{"id":309231,"name":"parnagua","country":"br","lat":-10.216667,"lon":-44.633333},{"id":312470,"name":"projeto","country":"br","lat":-10.233333,"lon":-45.25},{"id":290748,"name":"boa vista","country":"br","lat":-10.483333,"lon":-45.1},{"id":314838,"name":"santa cruz","country":"br","lat":-10.166667,"lon":-45.466667},{"id":303875,"name":"lagoa de baixo","country":"br","lat":-9.75,"lon":-45.45},{"id":302857,"name":"jataba","country":"br","lat":-9.516667,"lon":-44.966667},{"id":306884,"name":"monte alegre do piaui","country":"br","lat":-9.740556,"lon":-45.285556},{"id":325933,"name":"tabuleiro grande","country":"br","lat":-9.8,"lon":-44.633333},{"id":290645,"name":"boa esperanca","country":"br","lat":-10.0,"lon":-45.483333},{"id":294461,"name":"caxingo","country":"br","lat":-10.498056,"lon":-45.220278},{"id":311052,"name":"poco de pedra","country":"br","lat":-9.9,"lon":-44.583333}]});