callback({"markets":[{"id":3004884,"name":"watova","country":"us","lat":36.6172222,"lon":-95.6555556},{"id":2947119,"name":"cloverdale","country":"us","lat":37.2269444,"lon":-96.4888889},{"id":3004394,"name":"owen","country":"us","lat":36.9991667,"lon":-95.9313889},{"id":3004673,"name":"south coffeyville","country":"us","lat":36.9944444,"lon":-95.62},{"id":2947909,"name":"osro","country":"us","lat":37.0658333,"lon":-96.4358333},{"id":3004352,"name":"okesa","country":"us","lat":36.7127778,"lon":-96.1344444},{"id":2947637,"name":"le hunt","country":"us","lat":37.2691667,"lon":-95.7516667},{"id":3004754,"name":"tallant","country":"us","lat":36.5975,"lon":-96.1902778},{"id":3004585,"name":"ruthdale","country":"us","lat":36.815,"lon":-95.7372222},{"id":2947838,"name":"neodesha","country":"us","lat":37.4183333,"lon":-95.68},{"id":2947661,"name":"liberty","country":"us","lat":37.1555556,"lon":-95.5944444},{"id":3004325,"name":"nowata","country":"us","lat":36.7005556,"lon":-95.6377778},{"id":2947257,"name":"elk falls","country":"us","lat":37.3672222,"lon":-96.1883333},{"id":3004327,"name":"noxie","country":"us","lat":36.9713889,"lon":-95.7322222},{"id":3004416,"name":"pawhuska","country":"us","lat":36.6677778,"lon":-96.3369444},{"id":2947449,"name":"havana","country":"us","lat":37.0916667,"lon":-95.9416667},{"id":2948126,"name":"sedan","country":"us","lat":37.1266667,"lon":-96.1866667},{"id":2947408,"name":"grenola","country":"us","lat":37.3486111,"lon":-96.4502778},{"id":3004332,"name":"oak ridge","country":"us","lat":36.8969444,"lon":-96.1127778},{"id":3004423,"name":"pearsonia","country":"us","lat":36.8016667,"lon":-96.4505556},{"id":3003287,"name":"bowring","country":"us","lat":36.8780556,"lon":-96.1197222},{"id":2946993,"name":"bolton","country":"us","lat":37.1566667,"lon":-95.8052778},{"id":2947861,"name":"niotaze","country":"us","lat":37.0736111,"lon":-96.0133333},{"id":2947189,"name":"dearing","country":"us","lat":37.0586111,"lon":-95.7130556},{"id":3004377,"name":"opah","country":"us","lat":36.7511111,"lon":-96.2930556},{"id":3003255,"name":"blackland","country":"us","lat":36.8291667,"lon":-96.4919444},{"id":2947954,"name":"peru","country":"us","lat":37.0886111,"lon":-96.0944444},{"id":2947605,"name":"lafontaine","country":"us","lat":37.3991667,"lon":-95.845},{"id":2947545,"name":"jefferson","country":"us","lat":37.1122222,"lon":-95.7611111},{"id":2947075,"name":"cedar vale","country":"us","lat":37.1041667,"lon":-96.4997222},{"id":3004273,"name":"nanos","country":"us","lat":36.7963889,"lon":-96.2691667},{"id":3004960,"name":"wynona","country":"us","lat":36.5461111,"lon":-96.3269444},{"id":2947482,"name":"hilford","country":"us","lat":37.4497222,"lon":-95.6763889},{"id":2947793,"name":"moline","country":"us","lat":37.3602778,"lon":-96.3036111},{"id":2948356,"name":"west coffeyville","country":"us","lat":37.0388889,"lon":-95.6697222},{"id":2948280,"name":"upola","country":"us","lat":37.4166667,"lon":-95.9983333},{"id":2947255,"name":"elgin","country":"us","lat":37.0044444,"lon":-96.2763889},{"id":2947037,"name":"busby","country":"us","lat":37.4694444,"lon":-96.0441667},{"id":3004340,"name":"ochelata","country":"us","lat":36.6,"lon":-95.9794444},{"id":2947919,"name":"owen","country":"us","lat":36.9991667,"lon":-95.9316667},{"id":3003794,"name":"glenoak","country":"us","lat":36.7280556,"lon":-95.8086111},{"id":2948338,"name":"wauneta","country":"us","lat":37.1130556,"lon":-96.3802778},{"id":3003896,"name":"hickory hill","country":"us","lat":36.9458333,"lon":-96.11},{"id":3004940,"name":"winganon","country":"us","lat":36.5538889,"lon":-95.5608333},{"id":2947424,"name":"hale","country":"us","lat":37.2347222,"lon":-96.0547222},{"id":3004176,"name":"matoaka","country":"us","lat":36.6786111,"lon":-95.9780556},{"id":3004921,"name":"whippoorwill","country":"us","lat":36.9122222,"lon":-96.1297222},{"id":3004033,"name":"kiheki","country":"us","lat":36.6730556,"lon":-96.2155556},{"id":2948341,"name":"wayside","country":"us","lat":37.1247222,"lon":-95.8730556},{"id":3004287,"name":"nelagoney","country":"us","lat":36.6263889,"lon":-96.2419444},{"id":2947682,"name":"longton","country":"us","lat":37.3777778,"lon":-96.0805556},{"id":3004088,"name":"lenapah","country":"us","lat":36.8505556,"lon":-95.6358333},{"id":3003983,"name":"jamestown","country":"us","lat":36.5694444,"lon":-95.6297222},{"id":3003208,"name":"barnsdall","country":"us","lat":36.5619444,"lon":-96.1613889},{"id":3004434,"name":"pershing","country":"us","lat":36.5933333,"lon":-96.275},{"id":3003517,"name":"cotton valley","country":"us","lat":36.9708333,"lon":-95.8586111},{"id":3003441,"name":"childers","country":"us","lat":36.7716667,"lon":-95.5394444},{"id":3003917,"name":"hogshooter","country":"us","lat":36.6986111,"lon":-95.8541667},{"id":2947367,"name":"gibbs","country":"us","lat":37.1375,"lon":-96.3266667},{"id":3003947,"name":"hulah","country":"us","lat":36.9286111,"lon":-96.035},{"id":3003504,"name":"copan","country":"us","lat":36.8975,"lon":-95.9258333},{"id":2948060,"name":"rogers","country":"us","lat":37.1469444,"lon":-96.2788889},{"id":2946979,"name":"blake","country":"us","lat":37.1675,"lon":-95.7569444},{"id":3003281,"name":"boulangerville","country":"us","lat":36.9563889,"lon":-96.2180556},{"id":3004344,"name":"oglesby","country":"us","lat":36.6263889,"lon":-95.8563889},{"id":2947025,"name":"buffville","country":"us","lat":37.4825,"lon":-95.66},{"id":3004946,"name":"wolco","country":"us","lat":36.5383333,"lon":-96.0711111},{"id":3003712,"name":"fite","country":"us","lat":36.7233333,"lon":-96.0791667},{"id":3003498,"name":"coodys bluff","country":"us","lat":36.6983333,"lon":-95.5638889},{"id":2947636,"name":"layton","country":"us","lat":37.0822222,"lon":-96.4077778},{"id":2947530,"name":"independence","country":"us","lat":37.2241667,"lon":-95.7080556},{"id":2948227,"name":"sycamore","country":"us","lat":37.3269444,"lon":-95.7152778},{"id":2947795,"name":"monett","country":"us","lat":37.1444444,"lon":-96.1055556},{"id":3004867,"name":"wann","country":"us","lat":36.9152778,"lon":-95.8041667},{"id":3003660,"name":"elliott","country":"us","lat":36.9422222,"lon":-95.6291667},{"id":3003211,"name":"bartlesville","country":"us","lat":36.7472222,"lon":-95.9805556},{"id":2947054,"name":"caney","country":"us","lat":37.0113889,"lon":-95.935},{"id":3003886,"name":"herd","country":"us","lat":36.8644444,"lon":-96.2005556},{"id":3004796,"name":"torpedo","country":"us","lat":36.7269444,"lon":-96.0427778},{"id":3004955,"name":"woolaroc","country":"us","lat":36.6608333,"lon":-96.1141667},{"id":2946904,"name":"avian","country":"us","lat":37.0958333,"lon":-95.6013889},{"id":3004271,"name":"myers","country":"us","lat":36.7533333,"lon":-96.4005556},{"id":3004752,"name":"talala","country":"us","lat":36.5297222,"lon":-95.7011111},{"id":2947093,"name":"cherryvale","country":"us","lat":37.2702778,"lon":-95.5522222},{"id":3004513,"name":"ramona","country":"us","lat":36.5302778,"lon":-95.9233333},{"id":3003245,"name":"bigheart","country":"us","lat":36.8516667,"lon":-96.2255556},{"id":3004302,"name":"nichols","country":"us","lat":36.52,"lon":-96.1377778},{"id":3003789,"name":"gilland","country":"us","lat":36.5330556,"lon":-96.1538889},{"id":2947807,"name":"morehead","country":"us","lat":37.3841667,"lon":-95.5075},{"id":2947125,"name":"coffeyville","country":"us","lat":37.0372222,"lon":-95.6161111},{"id":2947513,"name":"howard","country":"us","lat":37.4702778,"lon":-96.2633333},{"id":2947341,"name":"fruitland","country":"us","lat":37.2038889,"lon":-95.7105556},{"id":2947014,"name":"brooks","country":"us","lat":37.3847222,"lon":-95.6025},{"id":2947256,"name":"elk city","country":"us","lat":37.2891667,"lon":-95.9113889},{"id":2948275,"name":"tyro","country":"us","lat":37.0377778,"lon":-95.8211111},{"id":2947043,"name":"buxton","country":"us","lat":37.4483333,"lon":-95.9202778},{"id":2947162,"name":"crane","country":"us","lat":37.2794444,"lon":-95.7966667},{"id":2947475,"name":"hewins","country":"us","lat":37.0408333,"lon":-96.4080556},{"id":2947390,"name":"grafton","country":"us","lat":37.2002778,"lon":-96.1494444},{"id":3003572,"name":"delaware","country":"us","lat":36.7786111,"lon":-95.6391667},{"id":3003280,"name":"boulanger landing","country":"us","lat":36.97,"lon":-96.2},{"id":2947877,"name":"oak valley","country":"us","lat":37.3433333,"lon":-96.0097222},{"id":2947088,"name":"chautauqua","country":"us","lat":37.0202778,"lon":-96.1763889},{"id":3003584,"name":"dewey","country":"us","lat":36.7958333,"lon":-95.9352778}]});