callback({"markets":[{"id":2726244,"name":"ban noen yang tok thoi","country":"th","lat":12.816667,"lon":101.333333},{"id":2728428,"name":"ban nong mahat","country":"th","lat":12.696111,"lon":101.259722},{"id":2743799,"name":"ban thammarat","country":"th","lat":13.317556,"lon":101.486806},{"id":2713504,"name":"ban khlong maduea","country":"th","lat":13.297139,"lon":101.44875},{"id":2735707,"name":"ban plaeng ha","country":"th","lat":13.12825,"lon":101.441556},{"id":2717698,"name":"ban kranap","country":"th","lat":12.725278,"lon":101.229722},{"id":2709558,"name":"ban huai ruam","country":"th","lat":12.937861,"lon":100.945778},{"id":2706256,"name":"ban don kok","country":"th","lat":13.422806,"lon":101.246972},{"id":2711012,"name":"ban kahom","country":"th","lat":12.8025,"lon":101.287222},{"id":2735233,"name":"ban phra prathan phon","country":"th","lat":13.122528,"lon":100.945445},{"id":2728182,"name":"ban nong krathing","country":"th","lat":13.362695,"lon":101.1975},{"id":2710012,"name":"ban hua khan thot","country":"th","lat":13.143389,"lon":100.935472},{"id":2708262,"name":"ban hua chuat","country":"th","lat":12.840278,"lon":101.310833},{"id":2734585,"name":"ban phlong","country":"th","lat":12.731389,"lon":101.149722},{"id":2726227,"name":"ban noen tong","country":"th","lat":13.12425,"lon":101.073639},{"id":2728559,"name":"ban nong mi","country":"th","lat":13.430611,"lon":101.283945},{"id":2702992,"name":"ban bueng taku","country":"th","lat":13.310834,"lon":101.339111},{"id":2726737,"name":"ban nong bua","country":"th","lat":13.418695,"lon":101.199834},{"id":2708937,"name":"ban huai krok","country":"th","lat":13.134195,"lon":100.956611},{"id":2735406,"name":"ban phu don huai mahat","country":"th","lat":12.768889,"lon":101.073611},{"id":2729684,"name":"ban nong sala","country":"th","lat":13.271056,"lon":101.133917},{"id":2736132,"name":"ban pong khlum","country":"th","lat":12.866667,"lon":101.066667},{"id":2748269,"name":"ban wat rai","country":"th","lat":12.859444,"lon":101.294444},{"id":2752935,"name":"muban samaphan","country":"th","lat":12.688611,"lon":101.3075},{"id":2726966,"name":"ban nong chek man","country":"th","lat":13.320028,"lon":101.220167},{"id":2738826,"name":"ban sam ngam","country":"th","lat":12.966667,"lon":101.383333},{"id":2712283,"name":"ban khao din bon","country":"th","lat":13.143695,"lon":101.015695},{"id":2745868,"name":"ban thung prong","country":"th","lat":12.7,"lon":100.866667},{"id":2730380,"name":"ban nong waeng","country":"th","lat":13.451556,"lon":101.160445},{"id":2729266,"name":"ban nong pladuk","country":"th","lat":13.477361,"lon":101.404417},{"id":2729977,"name":"ban nong tabaek","country":"th","lat":12.732778,"lon":101.313333},{"id":2741351,"name":"ban suan maphrao","country":"th","lat":13.314611,"lon":101.0005},{"id":2752781,"name":"muban chonnikan","country":"th","lat":12.62,"lon":101.381389},{"id":2744317,"name":"ban thap thai","country":"th","lat":13.268222,"lon":101.449389},{"id":2712421,"name":"ban khao mai kaeo","country":"th","lat":12.875278,"lon":101.252222},{"id":2744208,"name":"ban thap kho but","country":"th","lat":13.147889,"lon":101.05725},{"id":2713012,"name":"ban khlong cham ka","country":"th","lat":12.883889,"lon":101.476944},{"id":2712490,"name":"ban khao nong hin","country":"th","lat":12.716667,"lon":100.833333},{"id":2709745,"name":"ban huai sup","country":"th","lat":13.42525,"lon":101.172222},{"id":2732474,"name":"ban pakthang khao ta lo","country":"th","lat":12.908028,"lon":100.884306},{"id":2723916,"name":"ban na mai","country":"th","lat":13.06575,"lon":100.923806},{"id":2712437,"name":"ban khao mayura","country":"th","lat":13.355195,"lon":101.01375},{"id":2739863,"name":"ban saphan khu","country":"th","lat":13.167834,"lon":100.807472},{"id":2721795,"name":"ban map bon","country":"th","lat":12.970972,"lon":100.959611},{"id":2704013,"name":"ban chao phraya","country":"th","lat":13.068695,"lon":101.127556},{"id":2728842,"name":"ban nong nok","country":"th","lat":13.175778,"lon":101.284334},{"id":2712273,"name":"ban khao din","country":"th","lat":13.119389,"lon":101.003528},{"id":2730150,"name":"ban nong tarang","country":"th","lat":13.44125,"lon":101.0985},{"id":2700485,"name":"ban ang nai","country":"th","lat":13.211111,"lon":101.373195},{"id":2707785,"name":"ban hin dat","country":"th","lat":13.225639,"lon":101.266361},{"id":2709091,"name":"ban huai mafai","country":"th","lat":13.287639,"lon":101.097167},{"id":2746496,"name":"ban ton lamduan","country":"th","lat":12.648333,"lon":101.4425},{"id":2713025,"name":"ban khlong chang tai","country":"th","lat":12.7825,"lon":101.235278},{"id":2735230,"name":"ban phraphrom","country":"th","lat":13.416722,"lon":101.003195},{"id":2726902,"name":"ban nong chak","country":"th","lat":13.28875,"lon":101.179278},{"id":2726238,"name":"ban noen yai ra","country":"th","lat":13.130361,"lon":100.987},{"id":2704637,"name":"ban chong sem san","country":"th","lat":12.600028,"lon":100.96075},{"id":2740697,"name":"ban soet samran","country":"th","lat":13.434639,"lon":101.132584},{"id":2729110,"name":"ban nong phang krai","country":"th","lat":12.9,"lon":100.983333},{"id":2704510,"name":"ban chom phon","country":"th","lat":13.142472,"lon":101.054417},{"id":2727564,"name":"ban nong karok","country":"th","lat":12.776389,"lon":101.276667},{"id":2726104,"name":"ban noen phlap wan","country":"th","lat":12.931278,"lon":100.911167},{"id":2730059,"name":"ban nong tako","country":"th","lat":13.347914,"lon":100.998473},{"id":2708907,"name":"ban huai kong dai","country":"th","lat":13.060472,"lon":100.964334},{"id":2702436,"name":"ban bon ban","country":"th","lat":12.642222,"lon":101.423889},{"id":2701802,"name":"ban bang sai","country":"th","lat":13.400472,"lon":100.999361},{"id":2703566,"name":"ban chak kabok","country":"th","lat":12.766667,"lon":101.333333},{"id":2728295,"name":"ban nong lamduan","country":"th","lat":13.34625,"lon":101.318222},{"id":2718443,"name":"ban laem chabang","country":"th","lat":13.08775,"lon":100.884334},{"id":2719081,"name":"ban lang khao","country":"th","lat":13.093084,"lon":101.336111},{"id":2738353,"name":"ban sak malai","country":"th","lat":12.957222,"lon":101.286389},{"id":2715493,"name":"ban khong kanda","country":"th","lat":12.714972,"lon":100.886889},{"id":2738815,"name":"ban samnak thong","country":"th","lat":12.7675,"lon":101.478889},{"id":2715612,"name":"ban khot klang","country":"th","lat":12.628889,"lon":101.424722},{"id":2739157,"name":"ban san chao","country":"th","lat":12.676667,"lon":101.231111},{"id":2730006,"name":"ban nong taengme","country":"th","lat":12.674167,"lon":101.199722},{"id":2704856,"name":"ban chum saeng","country":"th","lat":12.926667,"lon":101.4875},{"id":2725699,"name":"ban na yai ruan","country":"th","lat":12.748333,"lon":101.282222},{"id":2741579,"name":"ban surao","country":"th","lat":13.384472,"lon":101.288139},{"id":2730498,"name":"ban nong yai in","country":"th","lat":12.61,"lon":101.400556},{"id":2739055,"name":"ban sam yaek","country":"th","lat":13.383306,"lon":101.318584},{"id":2725238,"name":"ban na suem","country":"th","lat":13.307028,"lon":101.454389},{"id":2710784,"name":"ban kabok phrong","country":"th","lat":12.684167,"lon":101.493333},{"id":2734630,"name":"ban pho bai","country":"th","lat":13.404917,"lon":101.326167},{"id":2742948,"name":"ban tha banthuk","country":"th","lat":12.681111,"lon":101.22},{"id":2741892,"name":"ban takhian ngam","country":"th","lat":12.633333,"lon":101.416667},{"id":2728038,"name":"ban nong klang dong","country":"th","lat":13.330639,"lon":101.032945},{"id":2742101,"name":"ban talat bueng bon","country":"th","lat":13.079667,"lon":100.99675},{"id":2726194,"name":"ban noen sung","country":"th","lat":13.325334,"lon":101.331861},{"id":2718462,"name":"ban laem hiang","country":"th","lat":12.759444,"lon":101.265833},{"id":2738809,"name":"ban samnak tabaek","country":"th","lat":12.959417,"lon":100.989889},{"id":2737907,"name":"ban saen suk","country":"th","lat":13.283333,"lon":100.933333},{"id":2703623,"name":"ban chak taeng","country":"th","lat":12.842611,"lon":100.937111},{"id":2745235,"name":"ban thung chek liao","country":"th","lat":12.805778,"lon":100.931222},{"id":2700581,"name":"ban ao pradu","country":"th","lat":12.680833,"lon":101.163056},{"id":2726070,"name":"ban noen makok","country":"th","lat":13.406945,"lon":101.200667},{"id":2733845,"name":"ban phak chaonathi pho liang satnam chaifang","country":"th","lat":12.632222,"lon":101.352222},{"id":2721864,"name":"ban map prachan lang","country":"th","lat":12.936334,"lon":100.976639},{"id":2726579,"name":"ban nong ai ruen","country":"th","lat":12.983751,"lon":101.322478},{"id":2746228,"name":"ban tin khao","country":"th","lat":13.405889,"lon":101.00125},{"id":2728495,"name":"ban nong makok","country":"th","lat":12.880222,"lon":100.895472},{"id":2741872,"name":"ban ta khan","country":"th","lat":12.715556,"lon":101.310556},{"id":2730088,"name":"ban nong tamlung","country":"th","lat":13.421584,"lon":101.071556},{"id":2726954,"name":"ban nong chap tao","country":"th","lat":12.790195,"lon":100.929306},{"id":2726173,"name":"ban noen sao thong","country":"th","lat":12.643611,"lon":101.376944},{"id":2703603,"name":"ban chak oi","country":"th","lat":12.862222,"lon":101.109167},{"id":2698982,"name":"amphoe ban chang","country":"th","lat":12.725428,"lon":101.055305},{"id":2736299,"name":"ban pong ta muk","country":"th","lat":13.404945,"lon":101.115722},{"id":2739088,"name":"ban sam yeak kut nam sai","country":"th","lat":13.380417,"lon":101.131195},{"id":2715518,"name":"ban khong wanphen","country":"th","lat":12.737361,"lon":100.944028},{"id":2700967,"name":"ban bang hia","country":"th","lat":13.489556,"lon":100.815389},{"id":2730041,"name":"ban nong takhian","country":"th","lat":12.778333,"lon":101.026111},{"id":2723126,"name":"ban na chom thong","country":"th","lat":13.253669,"lon":100.937618},{"id":2714210,"name":"ban khlong than","country":"th","lat":13.2825,"lon":101.467056},{"id":2728332,"name":"ban nong leng","country":"th","lat":13.164306,"lon":101.036167},{"id":2740475,"name":"ban si plong","country":"th","lat":13.296306,"lon":101.243945},{"id":2746491,"name":"ban ton krarok","country":"th","lat":12.998889,"lon":100.990556},{"id":2721878,"name":"ban map song salueng","country":"th","lat":12.814722,"lon":101.346389},{"id":2753810,"name":"padeng","country":"th","lat":13.258611,"lon":101.317389},{"id":2708016,"name":"ban hnong kham","country":"th","lat":13.127306,"lon":100.971306},{"id":2712897,"name":"ban khlong bang kradan","country":"th","lat":12.830278,"lon":101.308889},{"id":2702927,"name":"ban bueng charoen","country":"th","lat":13.320639,"lon":101.448084},{"id":2736685,"name":"ban puk","country":"th","lat":13.3,"lon":100.933333},{"id":2742808,"name":"ban ta sit","country":"th","lat":12.835,"lon":101.297778},{"id":2742810,"name":"ban ta son","country":"th","lat":13.466667,"lon":100.933333},{"id":2723674,"name":"ban na khuan","country":"th","lat":13.371278,"lon":101.034195},{"id":2736895,"name":"ban rai din daeng","country":"th","lat":13.194917,"lon":100.935889},{"id":2738779,"name":"ban samnak ai ngon","country":"th","lat":12.784444,"lon":101.17},{"id":2700491,"name":"ban ang sila","country":"th","lat":13.339556,"lon":100.929639},{"id":2698981,"name":"amphoe ban bung","country":"th","lat":13.311,"lon":101.112139},{"id":2702977,"name":"ban bueng sam ngam","country":"th","lat":13.05975,"lon":101.424278},{"id":2727569,"name":"ban nong kasang","country":"th","lat":13.383333,"lon":101.083333},{"id":2729147,"name":"ban nong phlong","country":"th","lat":12.845278,"lon":101.350833},{"id":2724539,"name":"ban nam tok","country":"th","lat":12.676667,"lon":101.086667},{"id":2717362,"name":"ban kon nong","country":"th","lat":12.684722,"lon":101.341667},{"id":2703627,"name":"ban chak thong lang","country":"th","lat":12.795,"lon":101.335278},{"id":2729976,"name":"ban nong tabaek","country":"th","lat":13.320167,"lon":101.204472},{"id":2729963,"name":"ban nong suea klueak","country":"th","lat":12.698889,"lon":101.165833},{"id":2736112,"name":"ban pong keng","country":"th","lat":13.011944,"lon":101.308611},{"id":2712246,"name":"ban khao chi chan","country":"th","lat":12.761139,"lon":100.958861},{"id":2712348,"name":"ban khao khayai","country":"th","lat":13.050334,"lon":101.050889},{"id":2735731,"name":"ban plaeng suea khrut","country":"th","lat":13.470389,"lon":101.281556},{"id":2717454,"name":"ban ko sadao","country":"th","lat":13.417972,"lon":101.180445},{"id":2738518,"name":"ban sala sangkasi","country":"th","lat":12.642222,"lon":101.435833},{"id":2700602,"name":"ban ao udom","country":"th","lat":13.121084,"lon":100.896584},{"id":2739162,"name":"ban san chao keng","country":"th","lat":13.153361,"lon":100.809195},{"id":2726078,"name":"ban noen mok","country":"th","lat":13.282639,"lon":101.256722},{"id":2709943,"name":"ban huai yang","country":"th","lat":13.331,"lon":101.096611},{"id":2704212,"name":"ban chet noen","country":"th","lat":13.440611,"lon":101.374528},{"id":2728697,"name":"ban nong nam khao","country":"th","lat":13.492695,"lon":101.408278},{"id":2723416,"name":"ban nai sak","country":"th","lat":13.08875,"lon":100.989445},{"id":2718632,"name":"ban laem yang","country":"th","lat":12.722222,"lon":101.260833},{"id":2745822,"name":"ban thung photanot","country":"th","lat":12.72,"lon":101.325278},{"id":2717394,"name":"ban ko phai","country":"th","lat":12.734722,"lon":101.283889},{"id":2712440,"name":"ban khao mon","country":"th","lat":12.669417,"lon":100.912861},{"id":2721850,"name":"ban map mo","country":"th","lat":13.302472,"lon":100.9335},{"id":2717183,"name":"ban ko mo hok","country":"th","lat":12.675667,"lon":100.949834},{"id":2737611,"name":"ban rongsi","country":"th","lat":12.786528,"lon":100.936},{"id":2735085,"name":"ban phothi samphao","country":"th","lat":13.487167,"lon":101.222639},{"id":2741781,"name":"ban tah tewawong","country":"th","lat":13.159222,"lon":100.811084},{"id":2708224,"name":"ban hua ang thong","country":"th","lat":13.481917,"lon":100.87075},{"id":2721799,"name":"ban map chalut","country":"th","lat":12.731237,"lon":101.129317},{"id":2727515,"name":"ban nong kai ploi","country":"th","lat":13.129556,"lon":101.088445},{"id":2711728,"name":"ban khak kho","country":"th","lat":13.145945,"lon":100.959472},{"id":2750172,"name":"huai pong","country":"th","lat":12.745942,"lon":101.12916},{"id":2729960,"name":"ban nong suea chang","country":"th","lat":13.136361,"lon":101.34575},{"id":2721480,"name":"ban mai samakkhi","country":"th","lat":12.82899,"lon":101.14978},{"id":2730507,"name":"ban nong yai phao","country":"th","lat":13.327472,"lon":101.295917},{"id":2724125,"name":"ban nam khem","country":"th","lat":13.263806,"lon":101.240889},{"id":2736167,"name":"ban pong lang","country":"th","lat":12.952139,"lon":100.980167},{"id":2751206,"name":"king amphoe bo thong","country":"th","lat":13.27825,"lon":101.440278},{"id":2721879,"name":"ban map ta khiat","country":"th","lat":12.916667,"lon":100.966667},{"id":2752754,"name":"muban bruk sai wanle","country":"th","lat":12.761667,"lon":101.411667},{"id":2710261,"name":"ban hua noen","country":"th","lat":13.248028,"lon":101.288695},{"id":2729193,"name":"ban nong phrao","country":"th","lat":13.386917,"lon":101.216167},{"id":2703599,"name":"ban chak nam luek","country":"th","lat":12.785833,"lon":101.331389},{"id":2729072,"name":"ban nong phaknam","country":"th","lat":13.202167,"lon":101.363889},{"id":2703598,"name":"ban chak na","country":"th","lat":13.061278,"lon":101.453778},{"id":2703843,"name":"ban chang","country":"th","lat":13.435195,"lon":101.173222},{"id":2717465,"name":"ban ko sakae","country":"th","lat":12.7025,"lon":101.254167},{"id":2721260,"name":"ban mai","country":"th","lat":13.392528,"lon":101.196834},{"id":2738805,"name":"ban samnak muang","country":"th","lat":12.686667,"lon":101.101389},{"id":2712331,"name":"ban khao kapom","country":"th","lat":13.282778,"lon":101.243806},{"id":2729113,"name":"ban nong phangphon","country":"th","lat":13.386778,"lon":101.334306},{"id":2726049,"name":"ban noen krabok","country":"th","lat":13.074111,"lon":101.015139},{"id":2755090,"name":"tan dam","country":"th","lat":13.308889,"lon":101.254222},{"id":2716479,"name":"ban klang dong","country":"th","lat":12.628333,"lon":101.386111},{"id":2730153,"name":"ban nong ta rot","country":"th","lat":12.659167,"lon":101.358889},{"id":2712583,"name":"ban khao saophao thong","country":"th","lat":12.640556,"lon":101.408333},{"id":2741379,"name":"ban suan pa","country":"th","lat":13.075945,"lon":101.124861},{"id":2714288,"name":"ban khlong wai som","country":"th","lat":12.986944,"lon":101.470556},{"id":2709093,"name":"ban huai mafueng","country":"th","lat":12.656944,"lon":101.396389},{"id":2741337,"name":"ban suan mai","country":"th","lat":13.423945,"lon":101.219278},{"id":2730628,"name":"ban nong yi pha","country":"th","lat":13.310556,"lon":100.942334},{"id":2714336,"name":"ban khlong yai mueang","country":"th","lat":12.886944,"lon":101.453056},{"id":2703276,"name":"ban bung taku","country":"th","lat":13.3225,"lon":101.347528},{"id":2726082,"name":"ban noen muang","country":"th","lat":13.4365,"lon":101.230472},{"id":2754698,"name":"satahib","country":"th","lat":12.666438,"lon":100.900727},{"id":2725651,"name":"ban na wang hin","country":"th","lat":13.461861,"lon":101.223306},{"id":2726130,"name":"ban noen rae","country":"th","lat":13.401945,"lon":101.254139},{"id":2726683,"name":"ban nong bon daeng","country":"th","lat":13.345917,"lon":101.151195},{"id":2721883,"name":"ban map ta put","country":"th","lat":12.725951,"lon":101.170343},{"id":2749003,"name":"ban yang yong","country":"th","lat":12.901667,"lon":101.319722},{"id":2720026,"name":"ban lum yang","country":"th","lat":13.201361,"lon":101.148084},{"id":2728193,"name":"ban nong krathum","country":"th","lat":13.360611,"lon":101.013806},{"id":2703594,"name":"ban chak makham","country":"th","lat":13.183333,"lon":100.966667},{"id":2726410,"name":"ban nok khao","country":"th","lat":12.933333,"lon":101.4},{"id":2712322,"name":"ban khao kaeo","country":"th","lat":12.678889,"lon":101.466667},{"id":2738257,"name":"ban sa kaeo","country":"th","lat":12.7225,"lon":101.006667},{"id":2712216,"name":"ban khao amnuai suk","country":"th","lat":13.446417,"lon":101.333028},{"id":2712647,"name":"ban khao wang man","country":"th","lat":12.749444,"lon":101.378889},{"id":2721893,"name":"ban map wai","country":"th","lat":13.3,"lon":101.0},{"id":2716545,"name":"ban klet","country":"th","lat":12.747765,"lon":100.888672},{"id":2727401,"name":"ban nong i bu","country":"th","lat":13.142528,"lon":100.99125},{"id":2730043,"name":"ban nong takhian long","country":"th","lat":13.133333,"lon":101.15},{"id":2750040,"name":"hin phoeng","country":"th","lat":13.3,"lon":101.1},{"id":2741588,"name":"ban surasak montri","country":"th","lat":13.0665,"lon":101.172722},{"id":2735714,"name":"ban plaeng makhuea","country":"th","lat":13.487917,"lon":101.240167},{"id":2737558,"name":"ban rong na","country":"th","lat":13.467306,"lon":101.11625},{"id":2747812,"name":"ban wang pradu","country":"th","lat":12.931389,"lon":101.182222},{"id":2732143,"name":"ban pak khlong phe","country":"th","lat":12.615278,"lon":101.416389},{"id":2727387,"name":"ban nong hu ling","country":"th","lat":13.482556,"lon":101.23275},{"id":2713752,"name":"ban khlong phlu ta luang","country":"th","lat":12.711917,"lon":100.971556},{"id":2750153,"name":"huai kum","country":"th","lat":13.232334,"lon":101.005361},{"id":2711314,"name":"ban kao","country":"th","lat":13.461472,"lon":101.056195},{"id":2744114,"name":"ban thap charoen","country":"th","lat":13.193528,"lon":101.419139},{"id":2729873,"name":"ban nong si mongkhon","country":"th","lat":12.648333,"lon":101.3725},{"id":2727665,"name":"ban nong khaen nang","country":"th","lat":13.362556,"lon":101.312834},{"id":2720600,"name":"ban mae nam khu","country":"th","lat":12.885889,"lon":101.26325},{"id":2718674,"name":"ban laharn","country":"th","lat":12.851729,"lon":101.299014},{"id":2719194,"name":"ban lao bon","country":"th","lat":13.433972,"lon":101.210139},{"id":2740727,"name":"ban soi methro","country":"th","lat":12.694722,"lon":100.891056},{"id":2709861,"name":"ban huai toei","country":"th","lat":13.337639,"lon":101.169584},{"id":2714116,"name":"ban khlong ta iam","country":"th","lat":13.492611,"lon":100.888389},{"id":2726182,"name":"ban noen sawat","country":"th","lat":13.140389,"lon":100.975111},{"id":2744326,"name":"ban thap thong","country":"th","lat":12.9725,"lon":101.197222},{"id":2728543,"name":"ban nong mek","country":"th","lat":13.458445,"lon":101.302695},{"id":2708998,"name":"ban huai lek lai","country":"th","lat":13.260889,"lon":101.159667},{"id":2733752,"name":"ban phai lom","country":"th","lat":12.783333,"lon":101.3},{"id":2754005,"name":"payup","country":"th","lat":13.012609,"lon":101.45661},{"id":2732344,"name":"ban pak pa","country":"th","lat":12.748918,"lon":101.259505},{"id":2725951,"name":"ban nnong phayom","country":"th","lat":13.346111,"lon":101.129972},{"id":2730348,"name":"ban nong wa","country":"th","lat":12.943028,"lon":101.047028},{"id":2716670,"name":"ban kluk faeb","country":"th","lat":12.783333,"lon":101.183333},{"id":2740694,"name":"ban soet","country":"th","lat":13.433333,"lon":101.15},{"id":2729017,"name":"ban nong phai kaeo","country":"th","lat":13.190445,"lon":101.262334},{"id":2732147,"name":"ban pak khlong phraya wisut","country":"th","lat":13.496103,"lon":100.933954},{"id":2726052,"name":"ban noen kraprok nai","country":"th","lat":12.722778,"lon":101.086944},{"id":2712501,"name":"ban khao phai","country":"th","lat":12.725556,"lon":101.195556},{"id":2737041,"name":"ban rai yai kham","country":"th","lat":12.736944,"lon":101.360278},{"id":2718599,"name":"ban laem thaen","country":"th","lat":13.301834,"lon":100.899806},{"id":2721861,"name":"ban map pong","country":"th","lat":13.423,"lon":101.117722},{"id":2703635,"name":"ban chak yai","country":"th","lat":12.695833,"lon":101.314167},{"id":2700033,"name":"amphoe tha pradu","country":"th","lat":12.668462,"lon":101.275503},{"id":2701796,"name":"ban bang saen","country":"th","lat":13.288167,"lon":100.913556},{"id":2726014,"name":"ban noen khae","country":"th","lat":13.332139,"lon":101.070778},{"id":2713684,"name":"ban khlong om kaeo","country":"th","lat":13.457389,"lon":101.112472},{"id":2729038,"name":"ban nong phai yai","country":"th","lat":13.308917,"lon":101.145334},{"id":2753159,"name":"nab jalud","country":"th","lat":13.127528,"lon":100.943195},{"id":2720025,"name":"ban lum ton tan","country":"th","lat":12.931667,"lon":101.403611},{"id":2740696,"name":"ban soet noi","country":"th","lat":13.320972,"lon":101.107611},{"id":2744169,"name":"ban tha pho","country":"th","lat":13.417222,"lon":101.161056},{"id":2727172,"name":"ban nong fak nam","country":"th","lat":13.209639,"lon":101.019028},{"id":2729004,"name":"ban nong phai","country":"th","lat":13.308472,"lon":101.300334},{"id":2753565,"name":"naung pla lai","country":"th","lat":13.0,"lon":101.383333},{"id":2703656,"name":"ban chaloem","country":"th","lat":13.080028,"lon":101.280695},{"id":2715652,"name":"ban khrot","country":"th","lat":12.65,"lon":100.966667},{"id":2702990,"name":"ban bueng ta kat","country":"th","lat":12.982222,"lon":101.495278},{"id":2717110,"name":"ban ko mai laem","country":"th","lat":13.356278,"lon":101.099611},{"id":2704602,"name":"ban chong lom","country":"th","lat":12.72975,"lon":100.945917},{"id":2717380,"name":"ban kon thung","country":"th","lat":13.412195,"lon":101.004084},{"id":2736907,"name":"ban rai hua phai","country":"th","lat":13.490389,"lon":101.165417},{"id":2727676,"name":"ban nong khai nao","country":"th","lat":13.355917,"lon":101.034084},{"id":2754087,"name":"phatthaya","country":"th","lat":12.933333,"lon":100.883333},{"id":2704548,"name":"ban chon","country":"th","lat":12.64,"lon":101.3825},{"id":2736049,"name":"ban pong bon","country":"th","lat":12.998056,"lon":101.303889},{"id":2747097,"name":"ban wai som bon","country":"th","lat":12.916611,"lon":101.065695},{"id":2745960,"name":"ban thung samnak","country":"th","lat":12.774167,"lon":101.1725},{"id":2730188,"name":"ban nong thaen","country":"th","lat":13.33871,"lon":100.993353},{"id":2716716,"name":"ban ko","country":"th","lat":12.743056,"lon":101.281389},{"id":2727567,"name":"ban nong kasaem","country":"th","lat":13.282389,"lon":100.962417},{"id":2707966,"name":"ban hnohng bua","country":"th","lat":12.708611,"lon":101.277222},{"id":2717822,"name":"ban krok kaeo","country":"th","lat":13.498028,"lon":101.319695},{"id":2712721,"name":"ban khet thetsaban saen suk","country":"th","lat":13.303556,"lon":100.91275},{"id":2741837,"name":"ban ta kat","country":"th","lat":13.042222,"lon":100.928222},{"id":2726569,"name":"ban nong ai kang","country":"th","lat":12.662222,"lon":101.335},{"id":2720601,"name":"ban mae nam khu mai","country":"th","lat":12.903408,"lon":101.244432},{"id":2713515,"name":"ban khlong mai","country":"th","lat":13.484139,"lon":100.935417},{"id":2713751,"name":"ban khlong phlu lang","country":"th","lat":13.07775,"lon":101.430917},{"id":2718236,"name":"ban kut nam sai","country":"th","lat":13.3805,"lon":101.121972},{"id":2721828,"name":"ban map kha wan","country":"th","lat":12.931417,"lon":101.030722},{"id":2724931,"name":"ban na phrathat","country":"th","lat":13.466889,"lon":101.164278},{"id":2710467,"name":"ban hua thung","country":"th","lat":12.7,"lon":101.466667},{"id":2728294,"name":"ban nong lam daeng","country":"th","lat":12.974444,"lon":101.379167},{"id":2712394,"name":"ban khao krathin","country":"th","lat":13.281917,"lon":101.337917},{"id":2725780,"name":"ban ngio","country":"th","lat":13.427667,"lon":101.100222},{"id":2717671,"name":"ban kraek","country":"th","lat":12.990056,"lon":100.965056},{"id":2729405,"name":"ban nong pru","country":"th","lat":12.748889,"lon":101.221667},{"id":2721903,"name":"ban map yang","country":"th","lat":13.193972,"lon":101.370278},{"id":2721868,"name":"ban map rahong","country":"th","lat":13.0375,"lon":101.1725},{"id":2731972,"name":"ban pa khan","country":"th","lat":12.639167,"lon":101.367778},{"id":2727882,"name":"ban nong khok mu","country":"th","lat":12.754709,"lon":101.314011},{"id":2699939,"name":"amphoe si racha","country":"th","lat":13.173722,"lon":100.931111},{"id":2719068,"name":"ban lang","country":"th","lat":13.497222,"lon":100.995556},{"id":2716960,"name":"ban ko kloi","country":"th","lat":12.705,"lon":101.27},{"id":2725973,"name":"ban noen banphot","country":"th","lat":12.763806,"lon":100.897222},{"id":2735559,"name":"ban phu sai","country":"th","lat":12.994722,"lon":101.1},{"id":2721876,"name":"ban map sam kliao","country":"th","lat":13.443361,"lon":101.060667},{"id":2738034,"name":"ban sai khu","country":"th","lat":13.477861,"lon":101.252084},{"id":2729584,"name":"ban nong sa","country":"th","lat":12.716667,"lon":101.0},{"id":2732487,"name":"ban pak thang wat si wanophat","country":"th","lat":12.657222,"lon":101.461944},{"id":2716142,"name":"ban khun in","country":"th","lat":12.994172,"lon":101.449414},{"id":2719986,"name":"ban lum makham","country":"th","lat":13.244417,"lon":101.480528},{"id":2735303,"name":"ban phruat","country":"th","lat":12.704167,"lon":101.258056},{"id":2745917,"name":"ban thung sadao","country":"th","lat":13.393389,"lon":101.301139},{"id":2712393,"name":"ban khao kratha","country":"th","lat":13.069528,"lon":101.240945},{"id":2713565,"name":"ban khlong muang","country":"th","lat":13.412528,"lon":101.282861},{"id":2705746,"name":"ban dong mai lai","country":"th","lat":13.334195,"lon":101.251667},{"id":2734783,"name":"ban pho ngam","country":"th","lat":13.47175,"lon":101.230806},{"id":2730283,"name":"ban nong to","country":"th","lat":13.246806,"lon":101.322806},{"id":2738313,"name":"ban sa khlong","country":"th","lat":13.470056,"lon":101.216945},{"id":2728163,"name":"ban nong krapho","country":"th","lat":13.365222,"lon":101.414389},{"id":2719587,"name":"ban leng","country":"th","lat":12.704444,"lon":101.341667},{"id":2726897,"name":"ban nong chae waen","country":"th","lat":13.429222,"lon":101.132556},{"id":2718578,"name":"ban laem sa-nguan","country":"th","lat":12.685833,"lon":101.212778},{"id":2728396,"name":"ban nong lumphuk","country":"th","lat":13.322695,"lon":101.421334},{"id":2729883,"name":"ban nong si tong","country":"th","lat":12.683333,"lon":101.216667},{"id":2746772,"name":"ban trok sattaban","country":"th","lat":12.783611,"lon":101.281667},{"id":2734464,"name":"ban phe","country":"th","lat":12.628236,"lon":101.437568},{"id":2707773,"name":"ban hin chon","country":"th","lat":13.47225,"lon":101.172639},{"id":2746764,"name":"ban trok pradu","country":"th","lat":13.406306,"lon":101.060334},{"id":2753504,"name":"naung khaem","country":"th","lat":13.2,"lon":101.183333},{"id":2727743,"name":"ban nong khang khok","country":"th","lat":13.346334,"lon":100.989695},{"id":2709845,"name":"ban huai thung","country":"th","lat":12.646389,"lon":101.481111},{"id":2742787,"name":"ban ta rong","country":"th","lat":12.722778,"lon":101.332778},{"id":2712458,"name":"ban khao nang nom","country":"th","lat":13.372306,"lon":101.334167},{"id":2721885,"name":"ban map ta to","country":"th","lat":12.923349,"lon":100.938627},{"id":2703589,"name":"ban chak lek","country":"th","lat":12.821944,"lon":101.341944},{"id":2737006,"name":"ban rai se","country":"th","lat":13.460584,"lon":101.362722},{"id":2728571,"name":"ban nong moei","country":"th","lat":13.425667,"lon":101.123278},{"id":2707319,"name":"bang pakong","country":"th","lat":13.498139,"lon":100.991861},{"id":2728695,"name":"ban nong nam kham","country":"th","lat":13.366667,"lon":101.155084},{"id":2717245,"name":"ban kon ao","country":"th","lat":12.605389,"lon":101.409806},{"id":2716594,"name":"ban klongnamchai","country":"th","lat":12.822945,"lon":100.914084},{"id":2709677,"name":"ban huai sarika","country":"th","lat":13.405806,"lon":101.0105},{"id":2712301,"name":"ban khao hin","country":"th","lat":13.054472,"lon":101.097945},{"id":2712427,"name":"ban khao makrut","country":"th","lat":13.33925,"lon":101.486084},{"id":2727033,"name":"ban nong chok","country":"th","lat":12.679444,"lon":101.313056},{"id":2744818,"name":"ban tha yai thim","country":"th","lat":13.116667,"lon":100.816667},{"id":2717467,"name":"ban ko samaesan","country":"th","lat":12.583333,"lon":100.95},{"id":2745319,"name":"ban thung hua wua","country":"th","lat":13.345611,"lon":101.387417},{"id":2721786,"name":"ban manorom","country":"th","lat":13.105584,"lon":100.91675},{"id":2724454,"name":"ban nam sap","country":"th","lat":13.203667,"lon":101.49025},{"id":2735708,"name":"ban plaeng ket","country":"th","lat":13.470556,"lon":101.26125},{"id":2743214,"name":"ban thai don","country":"th","lat":13.240139,"lon":100.931611},{"id":2734375,"name":"ban phatthana phang song","country":"th","lat":12.873611,"lon":101.208611},{"id":2744105,"name":"ban thap boribun","country":"th","lat":13.384611,"lon":101.419639},{"id":2726177,"name":"ban noen sawan","country":"th","lat":12.978333,"lon":101.153611},{"id":2742080,"name":"ban talat bang sare","country":"th","lat":12.760139,"lon":100.885472},{"id":2741325,"name":"ban suan lao","country":"th","lat":12.836667,"lon":101.257222},{"id":2730442,"name":"ban nong wai som","country":"th","lat":12.9,"lon":100.966667},{"id":2738674,"name":"ban samet","country":"th","lat":13.312361,"lon":100.942334},{"id":2726240,"name":"ban noen ya kha","country":"th","lat":13.498,"lon":101.118389},{"id":2740354,"name":"ban si kak","country":"th","lat":12.713056,"lon":101.075833},{"id":2735656,"name":"ban pin thong","country":"th","lat":12.756667,"lon":101.4775},{"id":2729898,"name":"ban nong song","country":"th","lat":13.384778,"lon":101.254},{"id":2727161,"name":"ban nong faep","country":"th","lat":13.345834,"lon":101.362528},{"id":2703588,"name":"ban chak lao","country":"th","lat":12.653958,"lon":101.390446},{"id":2730487,"name":"ban nong yai","country":"th","lat":12.835278,"lon":101.308889},{"id":2729971,"name":"ban nong ta bae","country":"th","lat":13.470722,"lon":101.244639},{"id":2719981,"name":"ban lum klang","country":"th","lat":13.170861,"lon":101.328556},{"id":2734263,"name":"ban phan thong","country":"th","lat":13.449361,"lon":101.100417},{"id":2743288,"name":"ban thai thung","country":"th","lat":12.866667,"lon":101.309167},{"id":2730461,"name":"ban nong wong","country":"th","lat":13.279584,"lon":101.296389},{"id":2748610,"name":"ban yang","country":"th","lat":13.429334,"lon":101.223028},{"id":2727509,"name":"ban nong kai","country":"th","lat":13.316667,"lon":101.15},{"id":2728224,"name":"ban nong kumphan","country":"th","lat":13.373306,"lon":101.223417},{"id":2726673,"name":"ban nong bon","country":"th","lat":13.289306,"lon":101.320445},{"id":2709843,"name":"ban huai thuan","country":"th","lat":13.316695,"lon":100.966361},{"id":2709136,"name":"ban huai mara","country":"th","lat":13.145917,"lon":101.288667},{"id":2728669,"name":"ban nong nai","country":"th","lat":13.182167,"lon":101.276084},{"id":2717735,"name":"ban krasang","country":"th","lat":13.413334,"lon":101.293945},{"id":2712441,"name":"ban khao mot ngam","country":"th","lat":13.101667,"lon":101.48275},{"id":2712416,"name":"ban khao mai daeng","country":"th","lat":13.232111,"lon":101.033028},{"id":2701648,"name":"ban bang phra","country":"th","lat":13.214599,"lon":100.962171},{"id":2711695,"name":"ban khai","country":"th","lat":12.763333,"lon":101.291667},{"id":2744306,"name":"ban thap sung","country":"th","lat":13.235611,"lon":101.459222},{"id":2728127,"name":"ban nong krabok","country":"th","lat":12.908445,"lon":100.903278},{"id":2704069,"name":"ban charoen rat","country":"th","lat":13.31125,"lon":100.968167},{"id":2746101,"name":"ban thung ton liap","country":"th","lat":12.765278,"lon":101.199722},{"id":2702668,"name":"ban bo yang","country":"th","lat":13.1035,"lon":100.952695},{"id":2755145,"name":"tha bun mi","country":"th","lat":13.399861,"lon":101.2855},{"id":2747417,"name":"ban wang khayaeng","country":"th","lat":12.980278,"lon":101.195833},{"id":2713241,"name":"ban khlong khet","country":"th","lat":13.0325,"lon":101.434167},{"id":2754076,"name":"phan sadet nauk","country":"th","lat":13.083167,"lon":101.124},{"id":2734620,"name":"ban phlu ta luang","country":"th","lat":12.700222,"lon":100.978084},{"id":2712523,"name":"ban khao phrabat","country":"th","lat":12.711111,"lon":101.398889},{"id":2712366,"name":"ban khao khun in","country":"th","lat":12.9925,"lon":101.455},{"id":2729647,"name":"ban nong sai","country":"th","lat":13.391167,"lon":101.033445},{"id":2729952,"name":"ban nong suang","country":"th","lat":13.339167,"lon":101.201889},{"id":2736903,"name":"ban rai hai lam","country":"th","lat":13.286806,"lon":100.972584},{"id":2713486,"name":"ban khlong luang","country":"th","lat":13.303778,"lon":101.414695},{"id":2729668,"name":"ban nong sakae","country":"th","lat":12.867945,"lon":100.894195},{"id":2729074,"name":"ban nong phaknam","country":"th","lat":13.220417,"lon":101.345611},{"id":2726221,"name":"ban noen thawon","country":"th","lat":13.492084,"lon":101.072167},{"id":2753524,"name":"naung kuk","country":"th","lat":13.3015,"lon":101.1665},{"id":2703575,"name":"ban chak khanun","country":"th","lat":12.716667,"lon":101.35},{"id":2737568,"name":"ban rong ngan namtan","country":"th","lat":12.768667,"lon":101.0075},{"id":2743803,"name":"ban thammasathit","country":"th","lat":12.701667,"lon":101.444722},{"id":2729089,"name":"ban nong phakwaen","country":"th","lat":12.701389,"lon":101.374722},{"id":2712626,"name":"ban khao thung na","country":"th","lat":13.319445,"lon":101.074361},{"id":2745918,"name":"ban thung sadao","country":"th","lat":12.687778,"lon":101.166667},{"id":2736077,"name":"ban pong din dam","country":"th","lat":13.190472,"lon":101.04375},{"id":2734244,"name":"ban phan sadet nai","country":"th","lat":13.0525,"lon":101.117278},{"id":2706291,"name":"ban don lang","country":"th","lat":13.278889,"lon":100.946695},{"id":2703765,"name":"ban champhang","country":"th","lat":12.878441,"lon":101.287147},{"id":2714135,"name":"ban khlong takhian","country":"th","lat":13.139445,"lon":101.498806},{"id":2721870,"name":"ban map rakam","country":"th","lat":12.687778,"lon":101.395833},{"id":2734549,"name":"ban phla","country":"th","lat":12.667222,"lon":101.041389},{"id":2703161,"name":"ban bung bon","country":"th","lat":13.25,"lon":101.133333},{"id":2744119,"name":"ban thap chula","country":"th","lat":13.341611,"lon":101.332028},{"id":2751331,"name":"king amphoe ko chan","country":"th","lat":13.416584,"lon":101.334584},{"id":2728436,"name":"ban nong mai daeng","country":"th","lat":13.404834,"lon":101.019722},{"id":2703782,"name":"ban chamrung","country":"th","lat":12.62,"lon":101.3925},{"id":2731568,"name":"ban pa","country":"th","lat":13.391917,"lon":101.05375},{"id":2726885,"name":"ban nong chae kloi","country":"th","lat":13.374056,"lon":101.240056},{"id":2712662,"name":"ban khao yai bung","country":"th","lat":13.050056,"lon":101.397472},{"id":2729888,"name":"ban nong soi ting","country":"th","lat":13.458028,"lon":101.441167},{"id":2700512,"name":"ban ang wian","country":"th","lat":13.278405,"lon":101.212457},{"id":2740034,"name":"ban sa ta phrom","country":"th","lat":13.409472,"lon":101.417584},{"id":2745181,"name":"ban thung","country":"th","lat":12.713861,"lon":100.916695},{"id":2741283,"name":"ban suan","country":"th","lat":13.351611,"lon":101.008195},{"id":2729078,"name":"ban nong phak pot","country":"th","lat":13.427389,"lon":101.237778},{"id":2731383,"name":"ban nuea khlong luang","country":"th","lat":13.482084,"lon":101.184722},{"id":2705815,"name":"ban dong noi","country":"th","lat":13.321972,"lon":101.095611},{"id":2741366,"name":"ban suan nam tok","country":"th","lat":13.316667,"lon":101.016667},{"id":2730443,"name":"ban nong wai som","country":"th","lat":12.716667,"lon":101.366667},{"id":2712983,"name":"ban khlong bon","country":"th","lat":13.435722,"lon":101.000584},{"id":2708876,"name":"ban huai khwang","country":"th","lat":12.822806,"lon":100.924111},{"id":2733900,"name":"ban phakkrachet","country":"th","lat":13.486167,"lon":101.3325},{"id":2727533,"name":"ban nong ka nam","country":"th","lat":13.364167,"lon":101.131056},{"id":2746873,"name":"ban tung lahan","country":"th","lat":12.829084,"lon":100.932472},{"id":2716054,"name":"ban khum thong","country":"th","lat":13.318945,"lon":101.240472},{"id":2729075,"name":"ban nong phak nam","country":"th","lat":12.755833,"lon":101.204722},{"id":2742180,"name":"ban talat samyaek","country":"th","lat":13.286695,"lon":101.206945},{"id":2738083,"name":"ban sai ngam","country":"th","lat":12.685278,"lon":101.360833},{"id":2726180,"name":"ban noen sawang","country":"th","lat":12.87,"lon":101.421667},{"id":2709900,"name":"ban huai wai","country":"th","lat":13.433,"lon":101.316278},{"id":2717839,"name":"ban krok tabaek","country":"th","lat":12.713333,"lon":101.031667},{"id":2743989,"name":"ban thang trong","country":"th","lat":13.193389,"lon":101.016111},{"id":2726132,"name":"ban noen rai song","country":"th","lat":13.089028,"lon":100.9535},{"id":2728895,"name":"ban nong o","country":"th","lat":13.185972,"lon":101.150722},{"id":2716451,"name":"ban klang","country":"th","lat":12.942528,"lon":100.939084},{"id":2710621,"name":"ban i khwo","country":"th","lat":13.427195,"lon":101.259917},{"id":2700615,"name":"ban aphakon","country":"th","lat":13.312972,"lon":100.978334},{"id":2746801,"name":"ban tua yang","country":"th","lat":12.855278,"lon":101.230833},{"id":2708492,"name":"ban huai chumphon","country":"th","lat":13.212889,"lon":101.173084},{"id":2730040,"name":"ban nong takhian","country":"th","lat":13.110472,"lon":101.209056},{"id":2725751,"name":"ban nenn kaprohk","country":"th","lat":12.733889,"lon":101.084167},{"id":2717724,"name":"ban krarok en","country":"th","lat":13.411722,"lon":101.465611},{"id":2702347,"name":"ban bo khing","country":"th","lat":13.459,"lon":101.137417},{"id":2717177,"name":"ban ko mo chet","country":"th","lat":12.675167,"lon":100.957084},{"id":2728982,"name":"ban nong phaeng phuai","country":"th","lat":13.340445,"lon":101.048695},{"id":2708331,"name":"ban hua fat","country":"th","lat":12.666667,"lon":101.3},{"id":2710205,"name":"ban hua na","country":"th","lat":13.078806,"lon":100.990278},{"id":2723339,"name":"ban nai","country":"th","lat":12.711667,"lon":101.247778},{"id":2713293,"name":"ban khlong khun nen","country":"th","lat":13.466667,"lon":100.983333},{"id":2701825,"name":"ban bang samae","country":"th","lat":13.484361,"lon":101.022222},{"id":2717646,"name":"ban krachet lang","country":"th","lat":12.756363,"lon":101.22346},{"id":2754004,"name":"payup","country":"th","lat":13.205861,"lon":101.256028},{"id":2717348,"name":"ban kong thahan","country":"th","lat":13.162306,"lon":101.060139},{"id":2724986,"name":"ban na prao","country":"th","lat":13.155306,"lon":100.975695},{"id":2707718,"name":"ban hat won","country":"th","lat":13.260227,"lon":100.927449},{"id":2733486,"name":"ban pa yup","country":"th","lat":12.676195,"lon":100.903445},{"id":2709794,"name":"ban huai ta thuk","country":"th","lat":13.381972,"lon":101.05275},{"id":2748506,"name":"ban yai da","country":"th","lat":12.679722,"lon":101.3775},{"id":2748235,"name":"ban wat mai kabok khuen phueng","country":"th","lat":12.788889,"lon":101.311111},{"id":2726226,"name":"ban noen thung","country":"th","lat":13.389361,"lon":101.442306},{"id":2712354,"name":"ban khao khlong song","country":"th","lat":13.038889,"lon":101.341944},{"id":2704416,"name":"ban choeng noen","country":"th","lat":13.469806,"lon":101.142139},{"id":2716305,"name":"ban khwak ling","country":"th","lat":12.696111,"lon":101.360833},{"id":2721815,"name":"ban map iang","country":"th","lat":13.095722,"lon":101.137028},{"id":2725259,"name":"ban na ta khwan","country":"th","lat":12.713611,"lon":101.3325},{"id":2721905,"name":"ban map yang phon mai","country":"th","lat":12.975278,"lon":101.133889},{"id":2721839,"name":"ban map lam bit","country":"th","lat":13.147972,"lon":101.155917},{"id":2729990,"name":"ban nong ta chu","country":"th","lat":12.857222,"lon":101.3375},{"id":2721800,"name":"ban map chan","country":"th","lat":12.682778,"lon":101.431667},{"id":2721862,"name":"ban map prachan","country":"th","lat":12.931195,"lon":100.967056},{"id":2713366,"name":"ban khlong klang","country":"th","lat":13.041861,"lon":101.403834},{"id":2731988,"name":"ban pak hin","country":"th","lat":13.447889,"lon":101.269361},{"id":2737163,"name":"ban rang nok","country":"th","lat":12.633333,"lon":101.35},{"id":2735936,"name":"ban pluak ket","country":"th","lat":12.655,"lon":101.321944},{"id":2745485,"name":"ban thung krasai","country":"th","lat":13.398611,"lon":101.323334},{"id":2736603,"name":"ban prong mai rai","country":"th","lat":13.34725,"lon":101.308084},{"id":2729416,"name":"ban nong prue","country":"th","lat":12.946445,"lon":100.940028},{"id":2728836,"name":"ban nong noen chon","country":"th","lat":12.616667,"lon":101.4},{"id":2746780,"name":"ban trok yai cha","country":"th","lat":12.677778,"lon":101.199722},{"id":2750046,"name":"hin tawet","country":"th","lat":12.674444,"lon":101.166667},{"id":2728624,"name":"ban nong muang mai","country":"th","lat":13.384834,"lon":101.143222},{"id":2722417,"name":"ban muang","country":"th","lat":13.266667,"lon":100.95},{"id":2738412,"name":"ban sala","country":"th","lat":13.449917,"lon":101.142889},{"id":2729654,"name":"ban nong sai bon","country":"th","lat":13.484889,"lon":101.373111},{"id":2737332,"name":"ban rim khlong","country":"th","lat":13.494834,"lon":101.174695},{"id":2737302,"name":"ban rawoeng","country":"th","lat":12.976944,"lon":101.235556},{"id":2709929,"name":"ban huai yai phrom","country":"th","lat":13.170334,"lon":100.959667},{"id":2712383,"name":"ban khao kong rot","country":"th","lat":12.961584,"lon":101.0205},{"id":2714160,"name":"ban khlong ta nak","country":"th","lat":13.477278,"lon":101.217},{"id":2751873,"name":"laem khae","country":"th","lat":13.4865,"lon":101.090584},{"id":2726391,"name":"ban nok","country":"th","lat":12.638889,"lon":101.499444},{"id":2748525,"name":"ban yai ra","country":"th","lat":12.751788,"lon":101.037832},{"id":2741816,"name":"ban tai sun","country":"th","lat":13.057222,"lon":101.215833},{"id":2735719,"name":"ban plaeng phai","country":"th","lat":13.463056,"lon":101.387667},{"id":2717193,"name":"ban ko mo paet","country":"th","lat":12.687167,"lon":100.959945},{"id":2732142,"name":"ban pak khlong phan thong","country":"th","lat":13.483333,"lon":101.016667},{"id":2727048,"name":"ban nong chorakhe","country":"th","lat":13.181334,"lon":101.465111},{"id":2745460,"name":"ban thung klom","country":"th","lat":12.904722,"lon":100.955889},{"id":2734264,"name":"ban phan thong luang","country":"th","lat":13.466667,"lon":101.1},{"id":2712591,"name":"ban khao sok","country":"th","lat":13.080111,"lon":101.372861},{"id":2721831,"name":"ban map kho","country":"th","lat":12.716667,"lon":101.333333},{"id":2727058,"name":"ban nong chum het","country":"th","lat":13.371667,"lon":101.402445},{"id":2727522,"name":"ban nong kakha lang","country":"th","lat":13.423195,"lon":101.094639},{"id":2708945,"name":"ban huai kruat","country":"th","lat":13.183417,"lon":101.018806},{"id":2733280,"name":"ban pa si siat","country":"th","lat":12.897778,"lon":101.347222},{"id":2738788,"name":"ban samnak kham","country":"th","lat":13.352695,"lon":101.202945},{"id":2717830,"name":"ban krok makham","country":"th","lat":12.918472,"lon":100.786778},{"id":2736678,"name":"ban puek yai","country":"th","lat":13.322445,"lon":100.923972},{"id":2729426,"name":"ban nong prue maisak","country":"th","lat":13.345917,"lon":101.254556},{"id":2728691,"name":"ban nong nam daeng","country":"th","lat":13.451667,"lon":101.148445},{"id":2702507,"name":"ban bon noen","country":"th","lat":13.499278,"lon":101.181195},{"id":2727598,"name":"ban nong ket","country":"th","lat":13.318389,"lon":101.303195},{"id":2726918,"name":"ban nong chan","country":"th","lat":12.805833,"lon":101.338889},{"id":2703637,"name":"ban chak yai nak","country":"th","lat":12.834722,"lon":101.330833},{"id":2728576,"name":"ban nong mok","country":"th","lat":13.416528,"lon":101.239528},{"id":2709727,"name":"ban huai song ton","country":"th","lat":13.250214,"lon":101.005348},{"id":2744776,"name":"ban tha wang","country":"th","lat":13.147028,"lon":100.811472},{"id":2735293,"name":"ban phrong makham pom","country":"th","lat":13.15,"lon":101.216667},{"id":2726153,"name":"ban noen sai khao","country":"th","lat":13.307806,"lon":101.272639},{"id":2738378,"name":"ban sak samo","country":"th","lat":13.409,"lon":101.064972},{"id":2742780,"name":"ban ta ran","country":"th","lat":12.716667,"lon":101.483333},{"id":2745127,"name":"ban thuai ngam","country":"th","lat":13.38275,"lon":101.28075},{"id":2726149,"name":"ban noen sai","country":"th","lat":12.834361,"lon":100.938028},{"id":2729760,"name":"ban nong sang","country":"th","lat":13.283056,"lon":101.409889},{"id":2710130,"name":"ban hua laem","country":"th","lat":13.499111,"lon":100.983556},{"id":2748505,"name":"ban yai chan","country":"th","lat":12.710556,"lon":101.466111},{"id":2707935,"name":"ban hin wong","country":"th","lat":12.784361,"lon":100.908278},{"id":2713040,"name":"ban khlong charoen wai","country":"th","lat":13.469834,"lon":100.914056},{"id":2745939,"name":"ban thung sala","country":"th","lat":13.335584,"lon":101.395639},{"id":2728148,"name":"ban nong kraduk khwai","country":"th","lat":13.408111,"lon":101.170195},{"id":2726120,"name":"ban noen phutsa","country":"th","lat":12.666944,"lon":101.290833},{"id":2728440,"name":"ban nong mai kaen","country":"th","lat":13.461806,"lon":101.4255},{"id":2700477,"name":"ban ang kraphong","country":"th","lat":13.355389,"lon":101.496417},{"id":2703590,"name":"ban chak luk ya","country":"th","lat":12.740556,"lon":101.123056},{"id":2730120,"name":"ban nong tao","country":"th","lat":12.720278,"lon":101.383333},{"id":2732355,"name":"ban pak phai","country":"th","lat":12.683333,"lon":101.383333},{"id":2712594,"name":"ban khao suan","country":"th","lat":12.878611,"lon":101.367222},{"id":2727886,"name":"ban nong kho na","country":"th","lat":13.113806,"lon":101.024695},{"id":2744115,"name":"ban thap chek","country":"th","lat":13.246195,"lon":101.484222},{"id":2738311,"name":"ban sak hin","country":"th","lat":12.880833,"lon":101.333611},{"id":2737588,"name":"ban rong po","country":"th","lat":13.019316,"lon":100.931219},{"id":2721847,"name":"ban map makhrut","country":"th","lat":13.302695,"lon":101.131445},{"id":2705032,"name":"ban dan sam","country":"th","lat":13.104,"lon":101.004334},{"id":2726075,"name":"ban noen maprang","country":"th","lat":13.281945,"lon":101.23275},{"id":2753404,"name":"napa","country":"th","lat":13.398611,"lon":101.007667},{"id":2727526,"name":"ban nong kaleum","country":"th","lat":13.233333,"lon":101.233333},{"id":2728698,"name":"ban nong nam khao","country":"th","lat":13.357334,"lon":101.190972},{"id":2726390,"name":"ban nok","country":"th","lat":12.849945,"lon":100.960945},{"id":2728105,"name":"ban nong kong chak","country":"th","lat":13.408278,"lon":101.040056},{"id":2735558,"name":"ban phu sai","country":"th","lat":12.965972,"lon":101.081917},{"id":2740651,"name":"ban si yaek nong prue","country":"th","lat":13.229556,"lon":101.230417},{"id":2726018,"name":"ban noen khanong","country":"th","lat":13.313084,"lon":101.290222},{"id":2727144,"name":"ban nong duk","country":"th","lat":13.457834,"lon":101.168806},{"id":2741026,"name":"ban song salueng","country":"th","lat":13.203584,"lon":101.308584},{"id":2737301,"name":"ban rawoeng","country":"th","lat":13.084278,"lon":101.208834},{"id":2712639,"name":"ban khao uttaphong","country":"th","lat":13.133611,"lon":100.916945},{"id":2740815,"name":"ban som","country":"th","lat":13.171056,"lon":101.204056},{"id":2727869,"name":"ban nong khoen","country":"th","lat":13.322111,"lon":101.187889},{"id":2747296,"name":"ban wang hin","country":"th","lat":13.183333,"lon":100.983333},{"id":2743294,"name":"ban thai wat khot","country":"th","lat":12.683333,"lon":101.266667},{"id":2751012,"name":"khlong khleng","country":"th","lat":13.256667,"lon":101.231584},{"id":2742100,"name":"ban talat bueng","country":"th","lat":13.071472,"lon":101.003139},{"id":2727375,"name":"ban nong huaraet","country":"th","lat":12.990667,"lon":100.9445},{"id":2745855,"name":"ban thung pong","country":"th","lat":13.369528,"lon":101.137556},{"id":2700174,"name":"amphu panas nikom","country":"th","lat":13.445813,"lon":101.184447},{"id":2708374,"name":"ban huai","country":"th","lat":13.359278,"lon":101.066389},{"id":2714333,"name":"ban khlong yai lam","country":"th","lat":12.775278,"lon":101.311667},{"id":2716898,"name":"ban ko khram","country":"th","lat":12.7,"lon":100.8},{"id":2727162,"name":"ban nong faep","country":"th","lat":12.686389,"lon":101.115278},{"id":2712411,"name":"ban khao loi","country":"th","lat":12.827222,"lon":101.443333},{"id":2729788,"name":"ban nong sano","country":"th","lat":13.418056,"lon":101.170306},{"id":2721937,"name":"ban mat tho","country":"th","lat":13.459972,"lon":101.01925},{"id":2703148,"name":"ban bung","country":"th","lat":12.866298,"lon":100.970249},{"id":2736614,"name":"ban prong ueat","country":"th","lat":13.447167,"lon":101.249028},{"id":2709045,"name":"ban huai luek","country":"th","lat":12.737445,"lon":100.8945},{"id":2741957,"name":"ban takian tiah","country":"th","lat":13.025684,"lon":100.959739},{"id":2738082,"name":"ban sai ngam","country":"th","lat":13.427445,"lon":101.331},{"id":2714159,"name":"ban khlong tamru","country":"th","lat":13.439361,"lon":100.997834},{"id":2752949,"name":"muban sila chon","country":"th","lat":12.613889,"lon":101.380556},{"id":2728482,"name":"ban nong makhuea","country":"th","lat":13.402556,"lon":101.076917},{"id":2745871,"name":"ban thung prong mai","country":"th","lat":12.693333,"lon":101.046111},{"id":2721855,"name":"ban map pa wai","country":"th","lat":12.918611,"lon":101.349167},{"id":2740659,"name":"ban si yeak kasem phon","country":"th","lat":12.7255,"lon":100.981334},{"id":2753586,"name":"naung saung haung","country":"th","lat":13.373861,"lon":101.158834},{"id":2741329,"name":"ban suan luang","country":"th","lat":12.833333,"lon":101.266667},{"id":2722854,"name":"ban muen chit","country":"th","lat":13.101972,"lon":101.251861},{"id":2729477,"name":"ban nong rai","country":"th","lat":13.006944,"lon":101.361111},{"id":2745018,"name":"ban thong hong","country":"th","lat":12.731111,"lon":101.491111},{"id":2703164,"name":"ban bung bua","country":"th","lat":13.316667,"lon":101.416667},{"id":2703000,"name":"ban bueng ton chan","country":"th","lat":12.7725,"lon":101.376389},{"id":2721892,"name":"ban map wa","country":"th","lat":13.005889,"lon":100.954667},{"id":2715468,"name":"ban kho mo sip paet","country":"th","lat":12.714167,"lon":101.038889},{"id":2713521,"name":"ban khlong mai phi khut","country":"th","lat":13.4915,"lon":100.917},{"id":2711315,"name":"ban kao","country":"th","lat":12.7275,"lon":101.288611},{"id":2717180,"name":"ban ko mo ha","country":"th","lat":12.672667,"lon":100.939306},{"id":2730469,"name":"ban nong ya","country":"th","lat":12.704,"lon":100.931361},{"id":2726123,"name":"ban noen pong","country":"th","lat":12.715556,"lon":101.085833},{"id":2741419,"name":"ban suan son","country":"th","lat":12.633889,"lon":101.442222},{"id":2727420,"name":"ban nong inthanin","country":"th","lat":12.915278,"lon":101.328056},{"id":2754262,"name":"pluak daeng","country":"th","lat":12.97122,"lon":101.214632},{"id":2726005,"name":"ban noen hin song","country":"th","lat":13.482972,"lon":101.289084},{"id":2730435,"name":"ban nong wai","country":"th","lat":13.420556,"lon":101.294945},{"id":2729484,"name":"ban nong rakam","country":"th","lat":12.883544,"lon":101.149459},{"id":2729128,"name":"ban nong phawa","country":"th","lat":12.836389,"lon":101.355},{"id":2702418,"name":"ban bo nam","country":"th","lat":13.465389,"lon":101.333222},{"id":2729058,"name":"ban nong phak kachet","country":"th","lat":12.798333,"lon":101.024444},{"id":2717868,"name":"ban krun","country":"th","lat":12.648333,"lon":101.4525},{"id":2728158,"name":"ban nong krap","country":"th","lat":12.896667,"lon":101.329722},{"id":2749302,"name":"boeng mai kaen","country":"th","lat":13.278917,"lon":101.167222},{"id":2727742,"name":"ban nong khangkhao","country":"th","lat":13.053611,"lon":101.198333},{"id":2712396,"name":"ban khao krok","country":"th","lat":12.743333,"lon":101.0125},{"id":2712599,"name":"ban khao tabaek","country":"th","lat":12.690917,"lon":100.953445},{"id":2703585,"name":"ban chak ko phai","country":"th","lat":12.760278,"lon":101.330278},{"id":2727849,"name":"ban nong khlon","country":"th","lat":13.314806,"lon":101.090945},{"id":2713736,"name":"ban khlong phi khut","country":"th","lat":13.485722,"lon":100.964056},{"id":2721616,"name":"ban makham khu","country":"th","lat":12.837778,"lon":101.090833},{"id":2712315,"name":"ban khao kachai","country":"th","lat":12.983333,"lon":101.2},{"id":2705263,"name":"ban dohk krai","country":"th","lat":12.885278,"lon":101.221944},{"id":2728809,"name":"ban nong ngulueam","country":"th","lat":13.35825,"lon":101.289722},{"id":2727921,"name":"ban nong khon samo","country":"th","lat":12.949464,"lon":100.913401},{"id":2739238,"name":"ban sang ka piao","country":"th","lat":13.042,"lon":100.9605},{"id":2730176,"name":"ban nong ta yai","country":"th","lat":13.180639,"lon":100.971278},{"id":2753653,"name":"nikhom utsahakam bang pakong","country":"th","lat":13.444584,"lon":101.022806},{"id":2736599,"name":"ban prong ket","country":"th","lat":13.198972,"lon":101.4155},{"id":2701826,"name":"ban bang samae","country":"th","lat":13.490472,"lon":101.048139},{"id":2709821,"name":"ban huai thap khwai","country":"th","lat":13.237556,"lon":101.347639},{"id":2721894,"name":"ban map ya","country":"th","lat":12.732222,"lon":101.170833},{"id":2753594,"name":"naung takhian","country":"th","lat":13.141445,"lon":101.383584},{"id":2717205,"name":"ban ko mo sip","country":"th","lat":12.687778,"lon":100.972278},{"id":2734383,"name":"ban phatthaya tai","country":"th","lat":12.929917,"lon":100.879},{"id":2699736,"name":"amphoe phan thong","country":"th","lat":13.46804,"lon":101.095322},{"id":2723515,"name":"ban na ket","country":"th","lat":13.132084,"lon":100.94},{"id":2736741,"name":"ban pum tabaek","country":"th","lat":13.2595,"lon":101.111695},{"id":2702377,"name":"ban bo kwang thong","country":"th","lat":13.274778,"lon":101.328611},{"id":2726016,"name":"ban noen khamin","country":"th","lat":12.633333,"lon":101.383333},{"id":2721904,"name":"ban map yang phon","country":"th","lat":12.989444,"lon":101.135278},{"id":2712547,"name":"ban khao raet","country":"th","lat":13.384584,"lon":101.065695},{"id":2704165,"name":"ban chawuek","country":"th","lat":12.736199,"lon":101.343297},{"id":2714187,"name":"ban khlong ta thai","country":"th","lat":12.886667,"lon":101.170833},{"id":2729491,"name":"ban nong rak mit","country":"th","lat":13.474306,"lon":101.245584},{"id":2729747,"name":"ban nong sam sak","country":"th","lat":13.343056,"lon":101.060722},{"id":2712529,"name":"ban khao phu","country":"th","lat":13.119584,"lon":100.915917},{"id":2708026,"name":"ban hnong kla","country":"th","lat":13.073449,"lon":100.962527},{"id":2714249,"name":"ban khlong thuea raet","country":"th","lat":12.816944,"lon":101.360278},{"id":2748660,"name":"ban yang en","country":"th","lat":13.095445,"lon":101.058639},{"id":2747380,"name":"ban wang katha","country":"th","lat":12.766667,"lon":101.483333},{"id":2737470,"name":"ban rong hip","country":"th","lat":12.822222,"lon":100.94275},{"id":2753619,"name":"na wang","country":"th","lat":13.012834,"lon":100.98975},{"id":2719985,"name":"ban lum makham","country":"th","lat":13.453195,"lon":101.47525},{"id":2721829,"name":"ban map khla","country":"th","lat":13.191945,"lon":101.19225},{"id":2730349,"name":"ban nong wa","country":"th","lat":12.710833,"lon":101.35},{"id":2732089,"name":"ban pak khlong","country":"th","lat":12.65,"lon":101.266667},{"id":2707654,"name":"ban hat sai","country":"th","lat":13.23875,"lon":101.106889},{"id":2736966,"name":"ban rai nueng","country":"th","lat":13.106084,"lon":100.968389},{"id":2734590,"name":"ban phlong lamduan","country":"th","lat":12.981389,"lon":101.283333},{"id":2727209,"name":"ban nong haeo","country":"th","lat":13.4095,"lon":101.218222},{"id":2738371,"name":"ban sak phut sa","country":"th","lat":13.305861,"lon":100.963528},{"id":2729051,"name":"ban nong phakbung khan","country":"th","lat":13.337667,"lon":101.26925},{"id":2704612,"name":"ban chong mafueang","country":"th","lat":13.314195,"lon":101.054945},{"id":2728109,"name":"ban nong kop","country":"th","lat":12.676389,"lon":101.347778},{"id":2726166,"name":"ban noen samre","country":"th","lat":12.73941,"lon":101.047788},{"id":2709479,"name":"ban huai prap","country":"th","lat":13.019167,"lon":101.116111},{"id":2740746,"name":"ban soi sip song","country":"th","lat":12.894167,"lon":101.103056},{"id":2726910,"name":"ban nong chanak","country":"th","lat":13.328945,"lon":101.017222},{"id":2727219,"name":"ban nong hai","country":"th","lat":13.333889,"lon":101.183389},{"id":2712848,"name":"ban khlong ang","country":"th","lat":12.753333,"lon":101.341389},{"id":2744149,"name":"ban tha phanu","country":"th","lat":13.166667,"lon":100.816667},{"id":2707743,"name":"ban ha yaek","country":"th","lat":13.434334,"lon":101.464},{"id":2716358,"name":"ban kilo 8","country":"th","lat":12.748333,"lon":101.286944},{"id":2728747,"name":"ban nong namtao loi","country":"th","lat":12.966472,"lon":100.990139},{"id":2724617,"name":"ban na nai","country":"th","lat":12.576111,"lon":101.456389},{"id":2733601,"name":"ban phaen din thai","country":"th","lat":12.738333,"lon":101.095278},{"id":2713481,"name":"ban khlong lot","country":"th","lat":12.740556,"lon":101.150556},{"id":2703602,"name":"ban chak nok","country":"th","lat":12.883889,"lon":101.096944},{"id":2732151,"name":"ban pak khlong rong nak","country":"th","lat":13.329695,"lon":100.920334},{"id":2738465,"name":"ban sala khu","country":"th","lat":13.366,"lon":101.018471},{"id":2748648,"name":"ban yang dan","country":"th","lat":13.137472,"lon":101.114334},{"id":2710548,"name":"ban hui yai","country":"th","lat":12.861806,"lon":100.948472},{"id":2712433,"name":"ban khao maphut","country":"th","lat":12.903056,"lon":101.098611},{"id":2713747,"name":"ban khlong phlu","country":"th","lat":13.106834,"lon":101.413667},{"id":2741838,"name":"ban ta kat","country":"th","lat":12.671667,"lon":101.046944},{"id":2703611,"name":"ban chak phakkut","country":"th","lat":12.823056,"lon":101.189444},{"id":2723127,"name":"ban nachomtien","country":"th","lat":12.843917,"lon":100.910167},{"id":2712306,"name":"ban khao hin lat","country":"th","lat":13.106695,"lon":101.119584},{"id":2712600,"name":"ban khao ta in","country":"th","lat":12.910278,"lon":101.48},{"id":2734455,"name":"ban phayun","country":"th","lat":12.677954,"lon":101.067679},{"id":2725908,"name":"ban nikhom sang ton-eng sai ek","country":"th","lat":12.922222,"lon":101.2525},{"id":2727713,"name":"ban nong kham pom","country":"th","lat":13.227917,"lon":101.213806},{"id":2717766,"name":"ban krathom","country":"th","lat":13.41225,"lon":101.315167},{"id":2721875,"name":"ban map samet daeng","country":"th","lat":12.966667,"lon":101.083333},{"id":2709478,"name":"ban huai prap","country":"th","lat":13.174417,"lon":101.015972},{"id":2707333,"name":"bang phra","country":"th","lat":13.219278,"lon":100.93975},{"id":2726144,"name":"ban noen saen suk","country":"th","lat":13.149806,"lon":101.0425},{"id":2717670,"name":"ban kraduk khwai","country":"th","lat":13.427,"lon":101.178695},{"id":2721889,"name":"ban map tong","country":"th","lat":12.804559,"lon":101.229172},{"id":2747981,"name":"ban wang ta phin","country":"th","lat":12.978333,"lon":101.168611},{"id":2713610,"name":"ban khlong nam ngu","country":"th","lat":12.795278,"lon":101.294722},{"id":2723338,"name":"ban nai","country":"th","lat":12.989222,"lon":100.925028},{"id":2717214,"name":"ban ko mo sip song","country":"th","lat":12.836389,"lon":101.2075},{"id":2747098,"name":"ban wai som lang","country":"th","lat":12.931028,"lon":101.076639},{"id":2729425,"name":"ban nong prue mai sak","country":"th","lat":13.336084,"lon":101.243389},{"id":2704831,"name":"ban chumnum klang","country":"th","lat":12.916667,"lon":101.433333},{"id":2727936,"name":"ban nong khrok","country":"th","lat":13.437556,"lon":101.212028},{"id":2707235,"name":"bang lamung","country":"th","lat":12.976278,"lon":100.914056},{"id":2721880,"name":"ban map takiap","country":"th","lat":12.992222,"lon":101.206389},{"id":2703592,"name":"ban chak mahat","country":"th","lat":12.822222,"lon":101.306944},{"id":2739848,"name":"ban saphan hin","country":"th","lat":12.716667,"lon":101.233333},{"id":2704816,"name":"ban chumchon bang sare","country":"th","lat":12.752834,"lon":100.90125},{"id":2735822,"name":"ban plakang","country":"th","lat":12.875556,"lon":101.322222},{"id":2727285,"name":"ban nong hin","country":"th","lat":12.718556,"lon":100.91775},{"id":2726093,"name":"ban noen nueng","country":"th","lat":13.236667,"lon":101.297361},{"id":2711508,"name":"ban kating rai","country":"th","lat":12.995556,"lon":100.924361},{"id":2710585,"name":"ban hup ta pho","country":"th","lat":12.765167,"lon":100.917472},{"id":2747978,"name":"ban wang tan mon","country":"th","lat":12.947222,"lon":101.158056},{"id":2703593,"name":"ban chak mak","country":"th","lat":12.796667,"lon":101.033611},{"id":2739091,"name":"ban sana","country":"th","lat":13.440806,"lon":101.253584},{"id":2710118,"name":"ban hua krok","country":"th","lat":13.320917,"lon":101.002389},{"id":2711449,"name":"ban kaset siri","country":"th","lat":12.744042,"lon":101.452722},{"id":2733751,"name":"ban phai lom","country":"th","lat":13.443528,"lon":101.149306},{"id":2717619,"name":"ban krabok khu","country":"th","lat":13.383334,"lon":101.313056},{"id":2753512,"name":"naung khau","country":"th","lat":13.125556,"lon":101.023861},{"id":2721836,"name":"ban map krut","country":"th","lat":13.291945,"lon":101.121195},{"id":2727834,"name":"ban nong khla","country":"th","lat":12.770833,"lon":101.211111},{"id":2727267,"name":"ban nong hiang","country":"th","lat":13.387389,"lon":101.162639},{"id":2701446,"name":"ban bang o","country":"th","lat":13.083333,"lon":101.116667},{"id":2726002,"name":"ban noen hin","country":"th","lat":13.298861,"lon":101.362056},{"id":2726589,"name":"ban nong ang","country":"th","lat":12.816667,"lon":101.3},{"id":2703549,"name":"ban chak bon","country":"th","lat":12.639722,"lon":101.397222},{"id":2744667,"name":"ban tha than","country":"th","lat":13.379584,"lon":101.013028},{"id":2726674,"name":"ban nong bon","country":"th","lat":12.812222,"lon":101.141389},{"id":2726222,"name":"ban noen thon","country":"th","lat":13.488195,"lon":101.102584},{"id":2709767,"name":"ban huai tak tai","country":"th","lat":13.379861,"lon":101.090584},{"id":2732378,"name":"ban pak phraek","country":"th","lat":12.942346,"lon":101.313984},{"id":2716815,"name":"ban ko kaeo phitsadom","country":"th","lat":12.567778,"lon":101.469167},{"id":2728712,"name":"ban nong nam khieo","country":"th","lat":13.231528,"lon":101.105917},{"id":2745809,"name":"ban thung pho","country":"th","lat":12.718889,"lon":101.360278},{"id":2746747,"name":"ban trok dan phasi","country":"th","lat":13.155167,"lon":100.811056},{"id":2703551,"name":"ban chak chaom","country":"th","lat":12.85,"lon":101.15},{"id":2713706,"name":"ban khlong pa wai","country":"th","lat":12.951944,"lon":101.3975},{"id":2743585,"name":"ban tha lamu","country":"th","lat":12.916111,"lon":101.316111},{"id":2736583,"name":"ban prok fa","country":"th","lat":13.412445,"lon":101.390861},{"id":2727521,"name":"ban nong kakha bon","country":"th","lat":13.411445,"lon":101.097306},{"id":2700533,"name":"ban ao cho","country":"th","lat":12.557222,"lon":101.4525},{"id":2729527,"name":"ban nong ri","country":"th","lat":12.683333,"lon":101.3},{"id":2749107,"name":"ban yi kong si","country":"th","lat":13.348306,"lon":101.082},{"id":2738494,"name":"ban sala nam luek","country":"th","lat":12.922222,"lon":101.441389},{"id":2707820,"name":"ban hin khong","country":"th","lat":12.874167,"lon":101.348889},{"id":2727369,"name":"ban nong hua mu","country":"th","lat":13.384528,"lon":101.179222},{"id":2738586,"name":"ban samae khao","country":"th","lat":13.472667,"lon":100.899306},{"id":2725982,"name":"ban noen chani","country":"th","lat":13.103195,"lon":100.99325},{"id":2712852,"name":"ban khlong baeng","country":"th","lat":13.483333,"lon":101.183333},{"id":2729067,"name":"ban nong phakkut","country":"th","lat":12.812278,"lon":101.034917},{"id":2726185,"name":"ban noen si","country":"th","lat":13.230528,"lon":101.325417},{"id":2753500,"name":"naung kaung sao","country":"th","lat":13.219445,"lon":101.147306},{"id":2702517,"name":"ban bon thao ma","country":"th","lat":13.416861,"lon":101.096445},{"id":2713624,"name":"ban khlong nam yen","country":"th","lat":12.845833,"lon":101.257222},{"id":2746019,"name":"ban thung sukhla","country":"th","lat":13.102972,"lon":100.904722},{"id":2728980,"name":"ban nong phaeng phuai","country":"th","lat":13.077334,"lon":100.948334},{"id":2702634,"name":"ban bo thong","country":"th","lat":13.160417,"lon":101.479667},{"id":2700603,"name":"ban ao wai","country":"th","lat":12.539167,"lon":101.445833},{"id":2730567,"name":"ban nong ya noi","country":"th","lat":12.6905,"lon":100.924806},{"id":2745032,"name":"ban thong khung","country":"th","lat":13.383972,"lon":101.029695},{"id":2707484,"name":"ban ha lang","country":"th","lat":13.176306,"lon":101.004917},{"id":2721863,"name":"ban map prachan bon","country":"th","lat":12.919056,"lon":101.018139},{"id":2709675,"name":"ban huai saphan","country":"th","lat":13.088556,"lon":101.016167},{"id":2737011,"name":"ban rai s. r.","country":"th","lat":12.976445,"lon":101.006028},{"id":2712922,"name":"ban khlong bang phai","country":"th","lat":12.745,"lon":101.041944},{"id":2727345,"name":"ban nong hong","country":"th","lat":13.4,"lon":101.1},{"id":2703657,"name":"ban chaloem lap","country":"th","lat":13.077556,"lon":101.253945},{"id":2726076,"name":"ban noen matum","country":"th","lat":13.4,"lon":101.2},{"id":2726231,"name":"ban noen uma","country":"th","lat":13.147972,"lon":100.929972},{"id":2742481,"name":"ban ta nen","country":"th","lat":13.466667,"lon":100.95},{"id":2718943,"name":"ban lam phang","country":"th","lat":13.284167,"lon":101.187556},{"id":2712230,"name":"ban khao bot","country":"th","lat":12.735278,"lon":101.230556},{"id":2727877,"name":"ban nong khok","country":"th","lat":13.299778,"lon":101.156334},{"id":2751851,"name":"kut ngong","country":"th","lat":13.443417,"lon":101.162222},{"id":2730145,"name":"ban nong ta phrom","country":"th","lat":13.407556,"lon":101.234806},{"id":2709259,"name":"ban huai nam tok","country":"th","lat":12.723056,"lon":101.178889},{"id":2724120,"name":"ban nam khang","country":"th","lat":12.712222,"lon":101.27},{"id":2721304,"name":"ban mai choeng noen","country":"th","lat":13.462584,"lon":101.141139},{"id":2721869,"name":"ban map rakam","country":"th","lat":13.266667,"lon":101.166667},{"id":2729116,"name":"ban nong phangphuai","country":"th","lat":13.333333,"lon":101.066667},{"id":2717574,"name":"ban ko wai","country":"th","lat":12.678611,"lon":101.304722},{"id":2729294,"name":"ban nong plalai","country":"th","lat":13.475028,"lon":101.363778},{"id":2753573,"name":"naung proe","country":"th","lat":13.093167,"lon":101.006084},{"id":2742182,"name":"ban talat san chao","country":"th","lat":13.396695,"lon":101.430389},{"id":2719088,"name":"ban lang khao phra chedi","country":"th","lat":13.206667,"lon":101.050361},{"id":2714318,"name":"ban khlong yai","country":"th","lat":12.891806,"lon":101.046611},{"id":2749024,"name":"ban yan su","country":"th","lat":13.462528,"lon":101.036806},{"id":2740445,"name":"ban si phalo","country":"th","lat":13.411417,"lon":100.987},{"id":2727286,"name":"ban nong hin","country":"th","lat":12.639444,"lon":101.350278},{"id":2749209,"name":"ban yup ta neng","country":"th","lat":12.963889,"lon":101.468611},{"id":2734479,"name":"ban pherak","country":"th","lat":12.633333,"lon":101.418333},{"id":2717825,"name":"ban krok krabok","country":"th","lat":13.342472,"lon":101.021972},{"id":2710827,"name":"ban kadon","country":"th","lat":13.328334,"lon":100.981222},{"id":2710033,"name":"ban hua khao sammuk","country":"th","lat":13.3,"lon":100.916667},{"id":2726126,"name":"ban noen prah","country":"th","lat":12.673889,"lon":101.236667},{"id":2728707,"name":"ban nong nam khem","country":"th","lat":12.602972,"lon":100.952417},{"id":2703608,"name":"ban chak phai","country":"th","lat":12.616667,"lon":101.383333},{"id":2729583,"name":"ban nong sa","country":"th","lat":13.333333,"lon":101.316667},{"id":2736481,"name":"ban prap","country":"th","lat":12.955,"lon":101.247778},{"id":2712255,"name":"ban khao chong lom","country":"th","lat":13.145778,"lon":101.094111},{"id":2712310,"name":"ban khao hin thang","country":"th","lat":13.320834,"lon":101.014389},{"id":2726956,"name":"ban nong chap ung","country":"th","lat":13.428889,"lon":101.062389},{"id":2713822,"name":"ban khlong pong","country":"th","lat":12.852222,"lon":101.408333},{"id":2712646,"name":"ban khao wang kaeo","country":"th","lat":13.360195,"lon":101.468778},{"id":2747032,"name":"ban u taphao","country":"th","lat":12.69686,"lon":101.004312},{"id":2729719,"name":"ban nong samet daeng","country":"th","lat":12.713611,"lon":101.213889},{"id":2729046,"name":"ban nong phakbung","country":"th","lat":13.494695,"lon":101.481222},{"id":2736033,"name":"ban pong","country":"th","lat":12.783333,"lon":101.35},{"id":2712251,"name":"ban khao chom hae","country":"th","lat":12.842778,"lon":101.115556},{"id":2750903,"name":"khao khan song","country":"th","lat":13.121667,"lon":101.16675},{"id":2735066,"name":"ban pho tak","country":"th","lat":13.441584,"lon":101.165889},{"id":2704211,"name":"ban chet luk noen","country":"th","lat":12.771667,"lon":101.396111},{"id":2740092,"name":"ban saung","country":"th","lat":13.319222,"lon":101.407472},{"id":2727367,"name":"ban nong hua lo","country":"th","lat":13.422778,"lon":101.036472},{"id":2700476,"name":"ban ang kraden","country":"th","lat":13.179,"lon":101.426361},{"id":2726096,"name":"ban noen pha suk","country":"th","lat":13.106417,"lon":100.986834},{"id":2719215,"name":"ban lao kai","country":"th","lat":12.712222,"lon":101.492778},{"id":2712365,"name":"ban khao khun in","country":"th","lat":13.04775,"lon":101.450889},{"id":2713748,"name":"ban khlong phlu","country":"th","lat":12.897778,"lon":101.146944},{"id":2704855,"name":"ban chum saeng","country":"th","lat":13.362222,"lon":101.249167},{"id":2752793,"name":"muban doe pak","country":"th","lat":12.752778,"lon":101.445278},{"id":2743219,"name":"ban thai kapom","country":"th","lat":12.683333,"lon":101.283333},{"id":2704603,"name":"ban chong lom","country":"th","lat":12.836667,"lon":101.4175},{"id":2738388,"name":"ban sak to ruea","country":"th","lat":13.029507,"lon":100.984342},{"id":2747004,"name":"ban u pla kang","country":"th","lat":13.215306,"lon":101.309611},{"id":2713601,"name":"ban khlong nam dam","country":"th","lat":13.055528,"lon":101.292445},{"id":2729961,"name":"ban nong suea cho","country":"th","lat":13.2195,"lon":101.442445},{"id":2720019,"name":"ban lum takhian","country":"th","lat":12.915556,"lon":101.373056},{"id":2728296,"name":"ban nong lamduan","country":"th","lat":12.75,"lon":101.283333},{"id":2727519,"name":"ban nong kai thuean","country":"th","lat":13.498472,"lon":101.272611},{"id":2725998,"name":"ban noen hin 1","country":"th","lat":13.489278,"lon":101.290056},{"id":2736629,"name":"ban prum pram","country":"th","lat":12.958889,"lon":101.139722},{"id":2708929,"name":"ban huai kra soem","country":"th","lat":13.153806,"lon":100.993667},{"id":2703550,"name":"ban chak chao diao","country":"th","lat":12.856944,"lon":101.091667},{"id":2714574,"name":"ban kho khao","country":"th","lat":12.995334,"lon":101.061889},{"id":2742535,"name":"ban tanman","country":"th","lat":12.896028,"lon":100.940056},{"id":2730131,"name":"ban nong tao ruan","country":"th","lat":12.85,"lon":101.3},{"id":2730598,"name":"ban nong yaplong","country":"th","lat":13.115306,"lon":101.275472},{"id":2727484,"name":"ban nong kae","country":"th","lat":13.333556,"lon":101.117861},{"id":2705413,"name":"ban don bon","country":"th","lat":13.257084,"lon":100.962195},{"id":2728289,"name":"ban nong lalok","country":"th","lat":12.747778,"lon":101.363333},{"id":2727195,"name":"ban nong haen","country":"th","lat":13.34075,"lon":101.225889},{"id":2701849,"name":"ban bang sare","country":"th","lat":12.755417,"lon":100.897417},{"id":2712921,"name":"ban khlong bang phai","country":"th","lat":12.710972,"lon":100.989222},{"id":2712234,"name":"ban khao chak khaek","country":"th","lat":12.733333,"lon":101.233333},{"id":2713534,"name":"ban khlong mangua","country":"th","lat":12.788889,"lon":101.402222},{"id":2704791,"name":"ban chuk kraphoe","country":"th","lat":13.087056,"lon":100.977445},{"id":2718505,"name":"ban laem makham","country":"th","lat":12.7,"lon":101.233333},{"id":2729526,"name":"ban nong ri","country":"th","lat":13.34525,"lon":101.01275},{"id":2730511,"name":"ban nong yai rak","country":"th","lat":13.402139,"lon":101.016917},{"id":2745652,"name":"ban thung na","country":"th","lat":13.05,"lon":100.916667},{"id":2717075,"name":"ban ko lan","country":"th","lat":12.924195,"lon":100.787945},{"id":2728143,"name":"ban nong kradi","country":"th","lat":13.412084,"lon":101.128695},{"id":2739861,"name":"ban saphan khla","country":"th","lat":12.683333,"lon":101.366667},{"id":2712413,"name":"ban khao luang tia","country":"th","lat":12.783333,"lon":101.43},{"id":2726199,"name":"ban noen tabaek","country":"th","lat":13.388056,"lon":101.290945},{"id":2712601,"name":"ban khao ta khem","country":"th","lat":13.140417,"lon":100.911472},{"id":2727816,"name":"ban nong khi lek","country":"th","lat":12.866667,"lon":100.916667},{"id":2753004,"name":"muban yung thong winla","country":"th","lat":12.641667,"lon":101.481111},{"id":2721833,"name":"ban map khoen","country":"th","lat":12.91825,"lon":101.036667},{"id":2715513,"name":"ban khong pradu","country":"th","lat":13.432667,"lon":101.355056},{"id":2729047,"name":"ban nong phak bung","country":"th","lat":12.806,"lon":100.965389},{"id":2732466,"name":"ban pak thang ao udom","country":"th","lat":13.119972,"lon":100.927},{"id":2746606,"name":"ban ton sai","country":"th","lat":12.706167,"lon":100.881},{"id":2726225,"name":"ban noen thua","country":"th","lat":13.484584,"lon":101.102556},{"id":2746802,"name":"ban tuayang","country":"th","lat":12.863889,"lon":101.252778},{"id":2703597,"name":"ban chak man thet","country":"th","lat":12.917887,"lon":101.211924},{"id":2707720,"name":"ban hat yai","country":"th","lat":12.8,"lon":101.471389},{"id":2727698,"name":"ban nong kham","country":"th","lat":13.434528,"lon":101.442778},{"id":2730192,"name":"ban nong thakhian","country":"th","lat":12.801944,"lon":101.051389},{"id":2717645,"name":"ban krachet bon","country":"th","lat":12.772222,"lon":101.189167},{"id":2718503,"name":"ban laem mai ruak","country":"th","lat":12.894472,"lon":100.873},{"id":2726077,"name":"ban noen mayom","country":"th","lat":12.623611,"lon":101.391667},{"id":2752302,"name":"moen chit","country":"th","lat":13.130917,"lon":101.248889},{"id":2742008,"name":"ban takrao thong","country":"th","lat":12.711389,"lon":101.383333},{"id":2726161,"name":"ban noen samakkhi","country":"th","lat":12.757056,"lon":100.9065},{"id":2705034,"name":"ban dan si","country":"th","lat":13.096639,"lon":101.023611},{"id":2730035,"name":"ban nong ta khan","country":"th","lat":12.714167,"lon":101.27},{"id":2706431,"name":"ban don nun","country":"th","lat":13.10475,"lon":101.024611},{"id":2738384,"name":"ban sak ta kaeo","country":"th","lat":12.950556,"lon":101.300833},{"id":2746774,"name":"ban trok ta chang","country":"th","lat":12.721389,"lon":101.267222},{"id":2728418,"name":"ban nong maek","country":"th","lat":13.414695,"lon":101.140722},{"id":2744287,"name":"ban thap rang","country":"th","lat":13.392361,"lon":101.315889},{"id":2723987,"name":"ban nam cho","country":"th","lat":12.739444,"lon":101.281389},{"id":2729297,"name":"ban nong pla lai","country":"th","lat":12.667222,"lon":101.374444},{"id":2742699,"name":"ban tao than","country":"th","lat":12.707111,"lon":100.889861},{"id":2710320,"name":"ban hua phrong","country":"th","lat":13.322778,"lon":100.937806},{"id":2725980,"name":"ban noen chan","country":"th","lat":12.666667,"lon":101.366667},{"id":2726068,"name":"ban noen maklua","country":"th","lat":13.316667,"lon":100.933333},{"id":2726027,"name":"ban noen kho","country":"th","lat":13.432917,"lon":101.225834},{"id":2729143,"name":"ban nong phlap","country":"th","lat":13.017445,"lon":100.978722},{"id":2736928,"name":"ban rai kluai","country":"th","lat":13.152306,"lon":100.953056},{"id":2712500,"name":"ban khao phai","country":"th","lat":13.249028,"lon":101.278556},{"id":2703618,"name":"ban chak samo","country":"th","lat":13.416667,"lon":101.05},{"id":2704833,"name":"ban chumnum prok fa","country":"th","lat":13.416667,"lon":101.366667},{"id":2752909,"name":"muban pricha","country":"th","lat":12.638611,"lon":101.341944},{"id":2728181,"name":"ban nong krathing","country":"th","lat":13.461167,"lon":101.490111},{"id":2727474,"name":"ban nong kaduang","country":"th","lat":12.733333,"lon":101.316667},{"id":2727542,"name":"ban nong kan krao","country":"th","lat":13.408,"lon":101.477556},{"id":2726004,"name":"ban noen hin sam","country":"th","lat":13.484972,"lon":101.266917},{"id":2737442,"name":"ban rong chak","country":"th","lat":13.289778,"lon":101.165472},{"id":2738799,"name":"ban samnak krathon","country":"th","lat":12.770833,"lon":101.023611},{"id":2700607,"name":"ban ao wong duean","country":"th","lat":12.550993,"lon":101.447818},{"id":2700433,"name":"ban amper","country":"th","lat":12.834389,"lon":100.913472},{"id":2735142,"name":"ban phraek","country":"th","lat":12.666667,"lon":101.25},{"id":2728622,"name":"ban nong muang kao","country":"th","lat":13.39575,"lon":101.135028},{"id":2752926,"name":"muban sabai sabai","country":"th","lat":12.624722,"lon":101.360278},{"id":2732428,"name":"ban pak ruam","country":"th","lat":13.0365,"lon":101.084889},{"id":2738430,"name":"ban sala daeng","country":"th","lat":13.479695,"lon":101.148695},{"id":2727773,"name":"ban nong khayat","country":"th","lat":13.416667,"lon":101.15},{"id":2721899,"name":"ban map yai","country":"th","lat":12.790278,"lon":101.197222},{"id":2748169,"name":"ban wat bot","country":"th","lat":13.497667,"lon":101.159},{"id":2707972,"name":"ban hnohng pla hiai","country":"th","lat":12.970222,"lon":100.944584},{"id":2743381,"name":"ban tha kham","country":"th","lat":13.485472,"lon":100.995445},{"id":2728610,"name":"ban nong muang","country":"th","lat":12.705278,"lon":101.028889},{"id":2735916,"name":"ban plet","country":"th","lat":12.6,"lon":101.416667},{"id":2725960,"name":"ban noen ban kao","country":"th","lat":13.45175,"lon":101.241695},{"id":2736863,"name":"ban rai","country":"th","lat":13.093372,"lon":101.021247},{"id":2726053,"name":"ban noen krathin","country":"th","lat":13.485611,"lon":101.3925},{"id":2730147,"name":"ban nong ta pin","country":"th","lat":12.746389,"lon":101.489444},{"id":2723008,"name":"ban na","country":"th","lat":12.659167,"lon":101.371667},{"id":2709441,"name":"ban huai pla kang","country":"th","lat":12.752856,"lon":101.015368},{"id":2739893,"name":"ban saphan si","country":"th","lat":13.007222,"lon":101.126111},{"id":2716877,"name":"ban ko kham yai","country":"th","lat":13.165917,"lon":100.822195},{"id":2730447,"name":"ban nong wang prong","country":"th","lat":13.404472,"lon":101.37325},{"id":2713421,"name":"ban khlong kwang","country":"th","lat":13.493195,"lon":101.153417},{"id":2703600,"name":"ban chak ngaeo","country":"th","lat":12.833917,"lon":100.966417},{"id":2729476,"name":"ban nong rai","country":"th","lat":13.475972,"lon":101.262222},{"id":2704159,"name":"ban chawae","country":"th","lat":12.841946,"lon":101.488409},{"id":2728584,"name":"ban nong mon","country":"th","lat":12.933333,"lon":101.033333},{"id":2748065,"name":"ban wang yai","country":"th","lat":13.110084,"lon":101.353806},{"id":2749782,"name":"daun thaung","country":"th","lat":13.487028,"lon":101.13675},{"id":2726091,"name":"ban noen nong sai","country":"th","lat":13.480417,"lon":101.167167},{"id":2734589,"name":"ban phlong khlum","country":"th","lat":12.866667,"lon":101.05},{"id":2745446,"name":"ban thung khwang","country":"th","lat":13.412528,"lon":101.180389},{"id":2726212,"name":"ban noen tan","country":"th","lat":13.440972,"lon":101.235139},{"id":2753571,"name":"naung pradu","country":"th","lat":13.243056,"lon":101.340306},{"id":2745122,"name":"ban tho yai","country":"th","lat":13.257084,"lon":101.184556},{"id":2713319,"name":"ban khlong khut mai","country":"th","lat":13.493722,"lon":100.860695},{"id":2728154,"name":"ban nong krang","country":"th","lat":13.35,"lon":101.016667},{"id":2713372,"name":"ban khlong kloi","country":"th","lat":12.893056,"lon":101.476944},{"id":2729517,"name":"ban nong rian","country":"th","lat":13.372806,"lon":101.178195},{"id":2738352,"name":"ban sak mak","country":"th","lat":13.490472,"lon":101.355611},{"id":2709470,"name":"ban huai pong nai","country":"th","lat":12.748611,"lon":101.137778},{"id":2727032,"name":"ban nong chok","country":"th","lat":13.457889,"lon":101.161417},{"id":2741307,"name":"ban suan khaek","country":"th","lat":13.334722,"lon":100.972972},{"id":2706520,"name":"ban don rai","country":"th","lat":13.419389,"lon":101.224778},{"id":2721887,"name":"ban map toei","country":"th","lat":12.7425,"lon":101.224167},{"id":2716817,"name":"ban ko kang pla","country":"th","lat":13.253972,"lon":101.330278},{"id":2728563,"name":"ban nong mi nueng","country":"th","lat":13.485361,"lon":101.321417},{"id":2750909,"name":"khao mai keo","country":"th","lat":12.953834,"lon":101.043695},{"id":2728564,"name":"ban nong mi song","country":"th","lat":13.425945,"lon":101.299611},{"id":2723007,"name":"ban na","country":"th","lat":12.907278,"lon":100.958195},{"id":2702945,"name":"ban bueng kradon","country":"th","lat":13.301139,"lon":101.208917},{"id":2737407,"name":"ban rom ruedi","country":"th","lat":12.679584,"lon":100.894639},{"id":2700221,"name":"aum phanom","country":"th","lat":13.286556,"lon":101.422834},{"id":2747042,"name":"ban u thaphao","country":"th","lat":13.415639,"lon":101.024417},{"id":2744454,"name":"ban tha sai","country":"th","lat":13.233333,"lon":101.016667},{"id":2723115,"name":"ban na chik","country":"th","lat":13.292875,"lon":101.427497},{"id":2710382,"name":"ban hua saphan","country":"th","lat":13.270695,"lon":101.176361},{"id":2744514,"name":"ban tha sao","country":"th","lat":12.940278,"lon":101.460833},{"id":2730044,"name":"ban nong takhian nong","country":"th","lat":13.356556,"lon":101.175278},{"id":2709776,"name":"ban huai ta nu","country":"th","lat":12.910139,"lon":100.973556},{"id":2734381,"name":"ban phatthaya nua","country":"th","lat":12.944139,"lon":100.886028},{"id":2746106,"name":"ban thung trat","country":"th","lat":13.058528,"lon":100.924667},{"id":2729196,"name":"ban nong phraya","country":"th","lat":12.692778,"lon":101.351667},{"id":2703577,"name":"ban chak khao haeng","country":"th","lat":12.816667,"lon":101.05},{"id":2728152,"name":"ban nong kralok","country":"th","lat":13.3345,"lon":101.1105},{"id":2742690,"name":"ban tao pun","country":"th","lat":13.321389,"lon":100.94425},{"id":2701828,"name":"ban bang saman","country":"th","lat":13.476806,"lon":101.061861},{"id":2708996,"name":"ban huai lek","country":"th","lat":13.095472,"lon":100.938778},{"id":2709744,"name":"ban huai sung","country":"th","lat":13.334111,"lon":101.360556},{"id":2727099,"name":"ban nong din daeng","country":"th","lat":13.240861,"lon":101.379945},{"id":2745355,"name":"ban thung kha","country":"th","lat":12.859503,"lon":100.929506},{"id":2753757,"name":"nong yai","country":"th","lat":13.155147,"lon":101.372257},{"id":2707538,"name":"ban hang sung","country":"th","lat":13.185472,"lon":101.312084},{"id":2727897,"name":"ban nong khon","country":"th","lat":13.389695,"lon":101.310334},{"id":2728118,"name":"ban nong koson","country":"th","lat":13.208472,"lon":101.265278},{"id":2713509,"name":"ban khlong mafueang","country":"th","lat":12.826111,"lon":101.373333},{"id":2727540,"name":"ban nong kang pla","country":"th","lat":13.048556,"lon":101.155972},{"id":2712471,"name":"ban khao noi","country":"th","lat":12.925111,"lon":100.903861},{"id":2745686,"name":"ban thung na phon","country":"th","lat":13.199201,"lon":100.956665},{"id":2715467,"name":"ban kho mo sip hok","country":"th","lat":12.711667,"lon":101.027778},{"id":2730264,"name":"ban nong tian","country":"th","lat":13.425084,"lon":101.390972},{"id":2739901,"name":"ban saphan yai khut","country":"th","lat":12.748196,"lon":101.295858},{"id":2721826,"name":"ban map khao tom","country":"th","lat":12.96,"lon":101.372778},{"id":2727321,"name":"ban nong hoi","country":"th","lat":13.42675,"lon":101.406695},{"id":2752745,"name":"muban ban chan","country":"th","lat":12.642778,"lon":101.3825},{"id":2729712,"name":"ban nong samet","country":"th","lat":13.188695,"lon":101.354556},{"id":2707006,"name":"ban fang daeng","country":"th","lat":13.15,"lon":100.916667},{"id":2738835,"name":"ban sam noen","country":"th","lat":12.863056,"lon":101.356944},{"id":2729740,"name":"ban nong samrong","country":"th","lat":13.498028,"lon":101.222722},{"id":2728004,"name":"ban nong khwae","country":"th","lat":13.053126,"lon":100.993301},{"id":2709205,"name":"ban huai nam daeng","country":"th","lat":13.064334,"lon":100.992945},{"id":2721852,"name":"ban map oi chang","country":"th","lat":12.995833,"lon":101.347222},{"id":2710122,"name":"ban hua kunchae","country":"th","lat":13.237472,"lon":101.153},{"id":2703580,"name":"ban chak kho","country":"th","lat":12.8,"lon":101.316667},{"id":2738783,"name":"ban samnak bok","country":"th","lat":13.360278,"lon":101.054417},{"id":2703609,"name":"ban chak phakbung","country":"th","lat":12.933611,"lon":101.087056},{"id":2712314,"name":"ban khao iang","country":"th","lat":13.415639,"lon":101.434278},{"id":2725985,"name":"ban noen din daeng","country":"th","lat":13.121917,"lon":101.443334},{"id":2700464,"name":"ban ang kaeo","country":"th","lat":13.141111,"lon":101.419556},{"id":2740496,"name":"ban siri anuson","country":"th","lat":13.095945,"lon":101.109361},{"id":2723404,"name":"ban nai rai","country":"th","lat":12.621667,"lon":101.407222},{"id":2729803,"name":"ban nong sanom","country":"th","lat":12.686389,"lon":101.236667},{"id":2726965,"name":"ban nong chek","country":"th","lat":13.344056,"lon":101.261917},{"id":2735702,"name":"ban plaeng","country":"th","lat":13.438556,"lon":101.492639},{"id":2726157,"name":"ban noen sakae","country":"th","lat":13.479167,"lon":101.103445},{"id":2728265,"name":"ban nong kwang","country":"th","lat":13.216667,"lon":101.233333},{"id":2750234,"name":"hui kau mou","country":"th","lat":13.25,"lon":101.0},{"id":2726931,"name":"ban nong chang","country":"th","lat":13.42725,"lon":101.150084},{"id":2742740,"name":"ban taphong nai","country":"th","lat":12.666389,"lon":101.346944},{"id":2729569,"name":"ban nong ruea taek","country":"th","lat":13.381945,"lon":101.268722},{"id":2710528,"name":"ban hui kapi","country":"th","lat":13.321167,"lon":100.971945},{"id":2730505,"name":"ban nong yai mat","country":"th","lat":13.3745,"lon":101.48275},{"id":2726176,"name":"ban noen sawan","country":"th","lat":13.322028,"lon":101.298611},{"id":2702974,"name":"ban bueng rong","country":"th","lat":13.484556,"lon":101.407278},{"id":2727384,"name":"ban nong hu chang","country":"th","lat":13.426445,"lon":101.343917},{"id":2743246,"name":"ban thai phatthana","country":"th","lat":13.111889,"lon":100.917695},{"id":2721821,"name":"ban map kha","country":"th","lat":12.78082,"lon":101.187754},{"id":2732485,"name":"ban pak thang ton kabok","country":"th","lat":12.669167,"lon":101.462778},{"id":2712116,"name":"ban khanam rai","country":"th","lat":12.843611,"lon":101.072778},{"id":2713573,"name":"ban khlong mue sai","country":"th","lat":13.288667,"lon":101.389639},{"id":2736264,"name":"ban pong saket","country":"th","lat":13.006834,"lon":101.063445},{"id":2723428,"name":"ban nai thaeo","country":"th","lat":12.769444,"lon":101.313889},{"id":2745261,"name":"ban thung faek","country":"th","lat":13.435528,"lon":101.237834},{"id":2736184,"name":"ban pong makham","country":"th","lat":13.219556,"lon":101.238639},{"id":2752833,"name":"muban lek sai","country":"th","lat":13.490806,"lon":101.0075},{"id":2727601,"name":"ban nong ket yai","country":"th","lat":12.982334,"lon":100.941084},{"id":2724564,"name":"ban na muang","country":"th","lat":13.406222,"lon":101.280945},{"id":2709928,"name":"ban huai yai muk","country":"th","lat":12.943334,"lon":100.979084},{"id":2749248,"name":"bau tmaung","country":"th","lat":13.182917,"lon":101.488195},{"id":2745935,"name":"ban thung sa kaeo","country":"th","lat":12.947778,"lon":101.097778},{"id":2742942,"name":"ban tha","country":"th","lat":13.035917,"lon":100.926334},{"id":2715610,"name":"ban khot hin","country":"th","lat":12.698333,"lon":101.200833},{"id":2724138,"name":"ban nam khok","country":"th","lat":12.711389,"lon":101.268056},{"id":2728036,"name":"ban nong klang don","country":"th","lat":13.226584,"lon":101.155667},{"id":2702995,"name":"ban bueng ta ta","country":"th","lat":13.041667,"lon":101.309722},{"id":2738787,"name":"ban samnak kato","country":"th","lat":13.314,"lon":101.185056},{"id":2700882,"name":"ban bang but","country":"th","lat":12.810171,"lon":101.303139},{"id":2730486,"name":"ban nong yai","country":"th","lat":13.132389,"lon":101.384417},{"id":2741321,"name":"ban suan kluai","country":"th","lat":13.456334,"lon":101.236195},{"id":2702508,"name":"ban bon noen","country":"th","lat":12.747222,"lon":101.105556},{"id":2743268,"name":"ban thai soet","country":"th","lat":13.440111,"lon":101.12525},{"id":2738399,"name":"ban sak yai chin","country":"th","lat":13.11225,"lon":100.932},{"id":2731471,"name":"ban om kaeo","country":"th","lat":13.216417,"lon":101.285639},{"id":2726102,"name":"ban noen phayom","country":"th","lat":12.756111,"lon":101.178333},{"id":2702661,"name":"ban bo win","country":"th","lat":13.055722,"lon":101.052778},{"id":2721884,"name":"ban map ta rot","country":"th","lat":12.784722,"lon":101.362778},{"id":2719099,"name":"ban lang pa","country":"th","lat":13.4735,"lon":101.023972},{"id":2713645,"name":"ban khlong niyom","country":"th","lat":13.495445,"lon":100.872695},{"id":2715490,"name":"ban khong dara","country":"th","lat":13.16675,"lon":101.069389},{"id":2744234,"name":"ban thap ma","country":"th","lat":12.705352,"lon":101.242366},{"id":2726167,"name":"ban noen samrong","country":"th","lat":13.414,"lon":101.221028},{"id":2728510,"name":"ban nong manao","country":"th","lat":13.053778,"lon":100.954139},{"id":2721743,"name":"ban ma mui","country":"th","lat":12.989167,"lon":101.337778},{"id":2702619,"name":"ban bo ta sing","country":"th","lat":12.933333,"lon":100.916667},{"id":2701801,"name":"ban bang sai","country":"th","lat":13.478084,"lon":101.015695},{"id":2707837,"name":"ban hin kong","country":"th","lat":13.155695,"lon":101.095111},{"id":2747964,"name":"ban wang tako","country":"th","lat":13.293028,"lon":100.987417},{"id":2726948,"name":"ban nong chan kong","country":"th","lat":12.8425,"lon":101.327222},{"id":2729695,"name":"ban nong salak","country":"th","lat":13.402528,"lon":101.388},{"id":2721900,"name":"ban map yai lai","country":"th","lat":12.925917,"lon":100.923195},{"id":2742165,"name":"ban talat pa daeng","country":"th","lat":13.266,"lon":101.300861},{"id":2747574,"name":"ban wang maduea","country":"th","lat":13.303361,"lon":101.458056},{"id":2713395,"name":"ban khlong kram","country":"th","lat":13.0175,"lon":101.21},{"id":2729482,"name":"ban nong rakam","country":"th","lat":13.483139,"lon":101.366639},{"id":2712220,"name":"ban khao bai si","country":"th","lat":12.738972,"lon":100.981167},{"id":2750151,"name":"huai kru","country":"th","lat":13.203969,"lon":101.003829},{"id":2703601,"name":"ban chak nok","country":"th","lat":12.877,"lon":100.935278},{"id":2699373,"name":"amphoe ko si chang","country":"th","lat":13.163885,"lon":100.805467},{"id":2706073,"name":"ban don hua lo","country":"th","lat":13.398417,"lon":101.031667},{"id":2730162,"name":"ban nong ta siang","country":"th","lat":12.762778,"lon":101.2825},{"id":2723755,"name":"ban na klum","country":"th","lat":13.304917,"lon":101.292},{"id":2736148,"name":"ban pong klang","country":"th","lat":12.951722,"lon":100.989528},{"id":2730165,"name":"ban nong ta son","country":"th","lat":12.965222,"lon":101.058472},{"id":2714023,"name":"ban khlong sip paet","country":"th","lat":13.053722,"lon":101.487806},{"id":2706224,"name":"ban don klang","country":"th","lat":13.266945,"lon":100.970584},{"id":2742979,"name":"ban tha cham","country":"th","lat":13.098972,"lon":101.285},{"id":2717409,"name":"ban ko pho","country":"th","lat":13.386389,"lon":101.277084},{"id":2728200,"name":"ban nong krating","country":"th","lat":13.262584,"lon":101.174445},{"id":2734598,"name":"ban phlong ta khlao","country":"th","lat":12.9,"lon":101.116667},{"id":2702967,"name":"ban bueng phan tha","country":"th","lat":13.223945,"lon":101.2525},{"id":2726047,"name":"ban noen krabak","country":"th","lat":13.427639,"lon":101.209167},{"id":2726917,"name":"ban nong chan","country":"th","lat":13.325278,"lon":101.239584},{"id":2713988,"name":"ban khlong sattaphong","country":"th","lat":13.456417,"lon":101.011834},{"id":2712229,"name":"ban khao bong","country":"th","lat":13.288806,"lon":101.470806},{"id":2705389,"name":"ban don","country":"th","lat":12.700651,"lon":101.295294},{"id":2746770,"name":"ban trok samut","country":"th","lat":12.716667,"lon":101.266667},{"id":2745712,"name":"ban thung noi","country":"th","lat":13.334472,"lon":101.418695},{"id":2742765,"name":"ban tapong nok","country":"th","lat":12.653056,"lon":101.346667},{"id":2709204,"name":"ban huai nam chon","country":"th","lat":13.313556,"lon":101.130611},{"id":2730545,"name":"ban nong yang","country":"th","lat":13.395972,"lon":101.213472},{"id":2727753,"name":"ban nong khanun","country":"th","lat":13.265056,"lon":101.203056},{"id":2721843,"name":"ban map mahuat","country":"th","lat":13.151222,"lon":101.251834},{"id":2710243,"name":"ban huang hin","country":"th","lat":12.772222,"lon":101.346944},{"id":2702243,"name":"ban bo bunthong","country":"th","lat":13.357778,"lon":101.029472},{"id":2710567,"name":"ban hup bon","country":"th","lat":13.123084,"lon":101.105917},{"id":2746806,"name":"ban tuek","country":"th","lat":13.15375,"lon":101.323778},{"id":2701258,"name":"ban bang lamung","country":"th","lat":13.05,"lon":100.933333},{"id":2720076,"name":"ban mab fak tong","country":"th","lat":12.803361,"lon":100.951417},{"id":2718461,"name":"ban laem hiang","country":"th","lat":12.988417,"lon":100.936472},{"id":2727608,"name":"ban nong kha","country":"th","lat":13.230556,"lon":101.002584},{"id":2743914,"name":"ban tha nam","country":"th","lat":13.273945,"lon":101.113667},{"id":2745338,"name":"ban thung kai tia","country":"th","lat":12.666667,"lon":100.866667},{"id":2732088,"name":"ban pak khlong","country":"th","lat":12.84725,"lon":100.90775},{"id":2712337,"name":"ban khao khanthamat","country":"th","lat":12.718667,"lon":100.902917},{"id":2727200,"name":"ban nong haeng","country":"th","lat":13.474722,"lon":101.301},{"id":2723792,"name":"ban na krarok","country":"th","lat":13.394472,"lon":101.178389},{"id":2745059,"name":"ban thong na","country":"th","lat":13.487584,"lon":101.175528},{"id":2749000,"name":"ban yang yai","country":"th","lat":12.840417,"lon":100.974278},{"id":2702446,"name":"ban bon","country":"th","lat":12.735833,"lon":101.1725},{"id":2753651,"name":"nikhom phattana","country":"th","lat":12.827355,"lon":101.20273},{"id":2735903,"name":"ban pla sai","country":"th","lat":13.362199,"lon":100.983454},{"id":2729298,"name":"ban nong plalai","country":"th","lat":12.871944,"lon":101.313889},{"id":2730473,"name":"ban nong ya haeng","country":"th","lat":13.324,"lon":101.070722},{"id":2736068,"name":"ban pong daeng","country":"th","lat":13.434778,"lon":101.32},{"id":2748863,"name":"ban yang ngam","country":"th","lat":12.68811,"lon":100.898471},{"id":2726162,"name":"ban noen samli","country":"th","lat":12.699444,"lon":101.188056},{"id":2748715,"name":"ban yang kha khim","country":"th","lat":12.733333,"lon":101.3},{"id":2716063,"name":"ban khu mueang","country":"th","lat":13.243945,"lon":101.43625},{"id":2746048,"name":"ban thung tanot","country":"th","lat":12.690833,"lon":101.241389},{"id":2714182,"name":"ban khlong ta ruai","country":"th","lat":13.479486,"lon":100.913371},{"id":2716950,"name":"ban ko klang","country":"th","lat":13.394917,"lon":101.332528},{"id":2699032,"name":"amphoe ban khai","country":"th","lat":12.782611,"lon":101.296389},{"id":2736087,"name":"ban pong hin","country":"th","lat":13.466639,"lon":101.392306},{"id":2724240,"name":"ban nam mao","country":"th","lat":12.848806,"lon":100.908611},{"id":2704079,"name":"ban charoen suk","country":"th","lat":12.659722,"lon":101.281389},{"id":2713910,"name":"ban khlong sai","country":"th","lat":12.678889,"lon":101.045},{"id":2739555,"name":"ban san pho kae","country":"th","lat":12.748611,"lon":100.937861},{"id":2717644,"name":"ban krachet","country":"th","lat":12.733333,"lon":101.483333},{"id":2728135,"name":"ban nong krachong","country":"th","lat":12.603861,"lon":100.955084},{"id":2721856,"name":"ban map phai","country":"th","lat":13.366334,"lon":101.086778},{"id":2712966,"name":"ban khlong","country":"th","lat":13.386334,"lon":101.380445},