callback({"markets":[{"id":2089244,"name":"buluma","country":"pg","lat":-5.5333333,"lon":150.3166667},{"id":2088634,"name":"benaule","country":"pg","lat":-5.5166667,"lon":150.3333333},{"id":2096138,"name":"nangwe","country":"pg","lat":-6.1666667,"lon":150.4},{"id":2101340,"name":"zitus","country":"pg","lat":-6.2166667,"lon":150.4333333},{"id":2095762,"name":"mosa","country":"pg","lat":-5.6333333,"lon":150.2833333},{"id":2094554,"name":"lulakevi","country":"pg","lat":-6.25,"lon":150.4333333},{"id":2088085,"name":"auruku","country":"pg","lat":-6.2,"lon":149.5666667},{"id":2099381,"name":"togolo","country":"pg","lat":-5.65,"lon":150.2},{"id":2087431,"name":"aiwo","country":"pg","lat":-6.1,"lon":149.5666667},{"id":2094678,"name":"mai","country":"pg","lat":-5.55,"lon":150.3},{"id":2093714,"name":"kulingai","country":"pg","lat":-5.5333333,"lon":150.1333333},{"id":2098433,"name":"simimla","country":"pg","lat":-6.0833333,"lon":149.6},{"id":2094167,"name":"lakungkung","country":"pg","lat":-6.0833333,"lon":149.5833333},{"id":2100276,"name":"wakis","country":"pg","lat":-6.2333333,"lon":150.2333333},{"id":2087539,"name":"ama","country":"pg","lat":-6.0833333,"lon":149.8},{"id":2097408,"name":"pomugu","country":"pg","lat":-6.1833333,"lon":149.6},{"id":2087978,"name":"asit","country":"pg","lat":-6.1833333,"lon":149.7},{"id":2095750,"name":"morokia","country":"pg","lat":-5.5666667,"lon":150.1666667},{"id":2092186,"name":"kalagen","country":"pg","lat":-6.2833333,"lon":150.25},{"id":2090414,"name":"gasmatta","country":"pg","lat":-6.2833333,"lon":150.3333333},{"id":2094571,"name":"luonglil","country":"pg","lat":-6.1333333,"lon":150.1166667},{"id":2097393,"name":"pomalal","country":"pg","lat":-6.1166667,"lon":149.75},{"id":2093013,"name":"kimbe","country":"pg","lat":-5.55,"lon":150.15},{"id":2088165,"name":"awat","country":"pg","lat":-6.1166667,"lon":149.7},{"id":2088042,"name":"audi","country":"pg","lat":-6.0166667,"lon":149.5},{"id":2090528,"name":"getmata","country":"pg","lat":-6.25,"lon":150.2833333},{"id":2099962,"name":"utkumbu","country":"pg","lat":-6.1333333,"lon":149.65},{"id":2097900,"name":"saihi","country":"pg","lat":-6.1333333,"lon":149.6833333},{"id":2092694,"name":"kaveng","country":"pg","lat":-6.2833333,"lon":149.8833333},{"id":2097081,"name":"papsa","country":"pg","lat":-6.1333333,"lon":149.5333333},{"id":2090712,"name":"gonga","country":"pg","lat":-5.5666667,"lon":150.2666667},{"id":2094818,"name":"malenglo","country":"pg","lat":-6.3,"lon":149.9},{"id":2094634,"name":"magien","country":"pg","lat":-6.25,"lon":149.55},{"id":2097421,"name":"pongual","country":"pg","lat":-6.15,"lon":149.75},{"id":2087518,"name":"aliwu","country":"pg","lat":-6.2,"lon":149.5833333},{"id":2097354,"name":"poanus","country":"pg","lat":-6.0666667,"lon":149.8833333},{"id":2096326,"name":"ngati","country":"pg","lat":-6.2333333,"lon":150.2166667},{"id":2099797,"name":"umbi","country":"pg","lat":-6.0166667,"lon":149.7333333},{"id":2092355,"name":"kandoka","country":"pg","lat":-5.5,"lon":149.8333333},{"id":2088635,"name":"benaule number 2","country":"pg","lat":-5.5,"lon":150.35},{"id":2089993,"name":"emuya","country":"pg","lat":-6.1333333,"lon":149.75},{"id":2087670,"name":"anato","country":"pg","lat":-6.2833333,"lon":150.2666667},{"id":2087711,"name":"angelek","country":"pg","lat":-6.1666667,"lon":149.5833333},{"id":2091020,"name":"hakhak","country":"pg","lat":-6.2,"lon":149.55},{"id":2097118,"name":"parwa","country":"pg","lat":-6.25,"lon":149.8333333},{"id":2101326,"name":"zebu","country":"pg","lat":-6.2333333,"lon":150.3166667},{"id":2094144,"name":"laiama","country":"pg","lat":-6.05,"lon":149.5666667},{"id":2097370,"name":"poi\u0027iek","country":"pg","lat":-6.2833333,"lon":149.7833333},{"id":2097525,"name":"pulpaleis","country":"pg","lat":-5.7666667,"lon":150.2833333},{"id":2098038,"name":"sankiap","country":"pg","lat":-6.1,"lon":149.7},{"id":2096520,"name":"numundo","country":"pg","lat":-5.5166667,"lon":150.0833333},{"id":2087962,"name":"asepsep","country":"pg","lat":-6.3166667,"lon":149.7833333},{"id":2087825,"name":"arat","country":"pg","lat":-6.2333333,"lon":149.65},{"id":2088189,"name":"ayuet","country":"pg","lat":-6.3,"lon":149.9666667},{"id":2091720,"name":"iok","country":"pg","lat":-5.8333333,"lon":150.2666667},{"id":2094764,"name":"maklongmerang","country":"pg","lat":-6.0666667,"lon":149.5666667},{"id":2097402,"name":"pomete","country":"pg","lat":-6.1833333,"lon":149.5333333},{"id":2099961,"name":"utkihu","country":"pg","lat":-6.0666667,"lon":149.8},{"id":2094237,"name":"lapanum","country":"pg","lat":-6.2666667,"lon":149.6},{"id":2098936,"name":"talangoni","country":"pg","lat":-5.5166667,"lon":149.7166667},{"id":2088040,"name":"au","country":"pg","lat":-6.1166667,"lon":149.6333333},{"id":2095230,"name":"maum","country":"pg","lat":-6.1,"lon":149.6333333},{"id":2096468,"name":"nuala","country":"pg","lat":-6.2666667,"lon":149.9},{"id":2091349,"name":"hulem","country":"pg","lat":-6.05,"lon":149.75},{"id":2092160,"name":"ka","country":"pg","lat":-6.1333333,"lon":149.6166667},{"id":2088176,"name":"awio","country":"pg","lat":-6.25,"lon":150.15},{"id":2098226,"name":"senemsi","country":"pg","lat":-6.1333333,"lon":149.5833333},{"id":2098358,"name":"sigilwa","country":"pg","lat":-6.2333333,"lon":150.3333333},{"id":2087795,"name":"apugi","country":"pg","lat":-6.2333333,"lon":149.55},{"id":2089463,"name":"dagi","country":"pg","lat":-5.5666667,"lon":150.2166667},{"id":2087481,"name":"akur","country":"pg","lat":-6.2833333,"lon":150.2833333},{"id":2087595,"name":"ambungi","country":"pg","lat":-6.3,"lon":149.8166667},{"id":2087610,"name":"amenpa","country":"pg","lat":-6.25,"lon":150.3333333},{"id":2088031,"name":"atua","country":"pg","lat":-6.3,"lon":150.0333333},{"id":2095445,"name":"mihak","country":"pg","lat":-6.1666667,"lon":149.6833333},{"id":2091324,"name":"hualil","country":"pg","lat":-6.0,"lon":149.5333333},{"id":2087963,"name":"asiam","country":"pg","lat":-6.1166667,"lon":149.7333333},{"id":2094277,"name":"lauhuring","country":"pg","lat":-6.1,"lon":149.5333333},{"id":2098064,"name":"sarakolok","country":"pg","lat":-5.6333333,"lon":150.2166667},{"id":2097127,"name":"passim","country":"pg","lat":-6.25,"lon":150.0},{"id":2092376,"name":"kanglo","country":"pg","lat":-6.2166667,"lon":149.55},{"id":2087513,"name":"alimbit","country":"pg","lat":-6.1833333,"lon":149.5166667},{"id":2097802,"name":"ruango","country":"pg","lat":-5.55,"lon":150.1666667},{"id":2092884,"name":"kesamola","country":"pg","lat":-6.0666667,"lon":149.5833333},{"id":2091548,"name":"i\u0027igi","country":"pg","lat":-6.0166667,"lon":149.5166667},{"id":2096049,"name":"namaklongklong","country":"pg","lat":-6.0833333,"lon":149.55},{"id":2088078,"name":"aure","country":"pg","lat":-6.2,"lon":149.6},{"id":2087466,"name":"akinum","country":"pg","lat":-6.2833333,"lon":149.7333333},{"id":2100254,"name":"waisisi","country":"pg","lat":-5.5166667,"lon":150.4333333},{"id":2094236,"name":"lapalam","country":"pg","lat":-6.1666667,"lon":149.6333333},{"id":2087469,"name":"akiwok","country":"pg","lat":-6.2833333,"lon":150.4},{"id":2092504,"name":"karedek","country":"pg","lat":-6.1833333,"lon":149.7833333},{"id":2087980,"name":"aslingpun","country":"pg","lat":-6.05,"lon":149.5166667},{"id":2097662,"name":"rangihi","country":"pg","lat":-5.55,"lon":149.5},{"id":2093750,"name":"kumbango number 2","country":"pg","lat":-5.6,"lon":150.2},{"id":2101023,"name":"yangaura","country":"pg","lat":-5.6833333,"lon":150.2666667},{"id":2087377,"name":"aiku","country":"pg","lat":-6.0333333,"lon":149.5},{"id":2089850,"name":"dulagoa","country":"pg","lat":-6.0333333,"lon":149.8},{"id":2088135,"name":"aviklo","country":"pg","lat":-6.2666667,"lon":149.55},{"id":2095998,"name":"nahavio","country":"pg","lat":-5.5833333,"lon":150.2166667},{"id":2087246,"name":"ablingi","country":"pg","lat":-6.3166667,"lon":150.05},{"id":2097745,"name":"rereng","country":"pg","lat":-6.2833333,"lon":149.65},{"id":2087449,"name":"akam","country":"pg","lat":-6.2666667,"lon":150.35},{"id":2094667,"name":"mai\u0027ieo","country":"pg","lat":-6.2833333,"lon":149.8333333},{"id":2098223,"name":"senekaul","country":"pg","lat":-6.1833333,"lon":149.8666667},{"id":2098347,"name":"sieigit","country":"pg","lat":-6.0166667,"lon":149.7833333},{"id":2087337,"name":"ahi","country":"pg","lat":-6.05,"lon":149.65},{"id":2088177,"name":"awirin","country":"pg","lat":-6.2833333,"lon":150.3166667}]});