callback({"markets":[{"id":534615,"name":"maixue","country":"cn","lat":31.327838,"lon":98.959652},{"id":647096,"name":"zande","country":"cn","lat":30.901,"lon":98.501},{"id":547253,"name":"ngopu","country":"cn","lat":31.2,"lon":98.5},{"id":638414,"name":"yeba","country":"cn","lat":30.787198,"lon":98.969606},{"id":651212,"name":"zhapen","country":"cn","lat":31.183994,"lon":98.80255},{"id":568542,"name":"seniga","country":"cn","lat":31.258194,"lon":99.140995},{"id":632136,"name":"yadizong","country":"cn","lat":31.326599,"lon":98.867251},{"id":551004,"name":"paiyuhsien","country":"cn","lat":31.216762,"lon":98.830637},{"id":420695,"name":"anque","country":"cn","lat":31.274145,"lon":98.722674},{"id":514612,"name":"langduo","country":"cn","lat":30.975262,"lon":98.945284},{"id":623581,"name":"xieba","country":"cn","lat":30.738095,"lon":99.114191},{"id":657588,"name":"zomdo","country":"cn","lat":31.122112,"lon":99.014991},{"id":459565,"name":"dongna","country":"cn","lat":31.070444,"lon":99.154532},{"id":549249,"name":"niyaxike","country":"cn","lat":31.399211,"lon":99.488358},{"id":531293,"name":"lungtai","country":"cn","lat":31.3,"lon":98.5},{"id":451053,"name":"dangduo","country":"cn","lat":31.294587,"lon":99.163395},{"id":587190,"name":"songdeng","country":"cn","lat":31.269291,"lon":99.189379},{"id":473183,"name":"gongbu","country":"cn","lat":31.314581,"lon":98.956338},{"id":424773,"name":"bajie","country":"cn","lat":31.247961,"lon":98.755486},{"id":511421,"name":"kongresuo","country":"cn","lat":31.035099,"lon":99.217928},{"id":563680,"name":"rejia","country":"cn","lat":31.386023,"lon":99.093388},{"id":461002,"name":"dongzha gongshe","country":"cn","lat":31.301,"lon":98.701},{"id":553785,"name":"pezho","country":"cn","lat":31.3,"lon":98.6},{"id":446773,"name":"cuola","country":"cn","lat":30.8938,"lon":98.804879},{"id":502713,"name":"jiasangka gongshe","country":"cn","lat":31.0,"lon":98.5},{"id":563763,"name":"rengda","country":"cn","lat":31.002,"lon":98.502},{"id":476975,"name":"guobie","country":"cn","lat":31.4071,"lon":99.3981},{"id":503582,"name":"jigang","country":"cn","lat":31.401,"lon":98.601},{"id":570025,"name":"shangcaha","country":"cn","lat":31.1342,"lon":99.151532},{"id":421464,"name":"ase","country":"cn","lat":31.133139,"lon":98.98579},{"id":433729,"name":"changgai","country":"cn","lat":30.578579,"lon":99.197824},{"id":647854,"name":"zhada","country":"cn","lat":31.49018,"lon":99.369073},{"id":538989,"name":"mengba","country":"cn","lat":30.855341,"lon":98.936765},{"id":547649,"name":"nieduo","country":"cn","lat":30.596237,"lon":99.177632},{"id":455335,"name":"degong","country":"cn","lat":31.315575,"lon":98.70113},{"id":476124,"name":"gugu","country":"cn","lat":31.174714,"lon":98.866849},{"id":520477,"name":"lielong","country":"cn","lat":30.676675,"lon":98.916047},{"id":451139,"name":"dangpa","country":"cn","lat":31.157147,"lon":98.823431},{"id":455376,"name":"deke","country":"cn","lat":31.401316,"lon":98.999765},{"id":611726,"name":"wucheng","country":"cn","lat":30.55,"lon":98.883333},{"id":429136,"name":"bianbuwa","country":"cn","lat":31.137592,"lon":98.919051},{"id":573350,"name":"shangyekang","country":"cn","lat":31.308904,"lon":99.057166},{"id":421562,"name":"ayi","country":"cn","lat":30.6,"lon":98.6},{"id":473791,"name":"gori","country":"cn","lat":31.1,"lon":98.6},{"id":604894,"name":"ubai","country":"cn","lat":31.4,"lon":98.7},{"id":473536,"name":"gongpa","country":"cn","lat":31.07533,"lon":98.871241},{"id":564228,"name":"ridoi","country":"cn","lat":31.1,"lon":98.5},{"id":449799,"name":"dalangduo","country":"cn","lat":31.489279,"lon":99.423635},{"id":472336,"name":"gedar","country":"cn","lat":31.4,"lon":98.6},{"id":630847,"name":"xueduo","country":"cn","lat":31.436722,"lon":99.247908},{"id":475876,"name":"gucai gongshe","country":"cn","lat":31.4,"lon":98.5},{"id":511247,"name":"komai","country":"cn","lat":30.6,"lon":98.9},{"id":568081,"name":"sanyan","country":"cn","lat":30.503,"lon":98.903},{"id":469177,"name":"gaigong","country":"cn","lat":31.414039,"lon":99.044029},{"id":455438,"name":"denai","country":"cn","lat":30.775244,"lon":99.037643},{"id":630805,"name":"xueba","country":"cn","lat":30.653715,"lon":99.193088},{"id":657003,"name":"zhuying","country":"cn","lat":31.177365,"lon":98.65506},{"id":611531,"name":"wose","country":"cn","lat":31.424789,"lon":98.851791},{"id":518024,"name":"lhakangsumdo","country":"cn","lat":31.133333,"lon":99.333333},{"id":541891,"name":"moyi","country":"cn","lat":30.690941,"lon":99.127228},{"id":475883,"name":"guce","country":"cn","lat":31.402,"lon":98.502},{"id":630069,"name":"xixi","country":"cn","lat":30.8,"lon":98.8},{"id":509098,"name":"kangongsi","country":"cn","lat":30.806402,"lon":98.98054},{"id":456489,"name":"diba","country":"cn","lat":31.401,"lon":98.501},{"id":421591,"name":"azhong","country":"cn","lat":30.8,"lon":98.6},{"id":421596,"name":"azhuo","country":"cn","lat":31.296351,"lon":98.822437},{"id":472587,"name":"gemu","country":"cn","lat":30.8,"lon":98.5},{"id":419609,"name":"aixi","country":"cn","lat":31.364876,"lon":99.022962},{"id":542803,"name":"muzha","country":"cn","lat":30.901,"lon":98.701},{"id":498057,"name":"huoba","country":"cn","lat":30.644245,"lon":99.170555},{"id":423199,"name":"baimeng","country":"cn","lat":31.458589,"lon":98.915791},{"id":564644,"name":"rongxu","country":"cn","lat":31.138255,"lon":98.87381},{"id":421033,"name":"anzi","country":"cn","lat":31.125289,"lon":99.364956},{"id":574758,"name":"shanyan","country":"cn","lat":30.622147,"lon":98.986477},{"id":642237,"name":"youba","country":"cn","lat":31.050472,"lon":98.813487},{"id":480105,"name":"haonieduo","country":"cn","lat":31.197269,"lon":99.474411},{"id":565099,"name":"saidong","country":"cn","lat":30.601,"lon":98.901},{"id":456710,"name":"dilong","country":"cn","lat":31.472289,"lon":99.011991},{"id":647811,"name":"zexue","country":"cn","lat":31.075386,"lon":98.744176},{"id":622691,"name":"xiayekang","country":"cn","lat":31.321657,"lon":99.086901},{"id":617432,"name":"xiangquduo","country":"cn","lat":31.185375,"lon":99.413455},{"id":455333,"name":"degen","country":"cn","lat":31.466689,"lon":98.829391},{"id":531770,"name":"luoge","country":"cn","lat":30.861186,"lon":98.868234},{"id":564488,"name":"ronggai","country":"cn","lat":31.120358,"lon":98.890713},{"id":647608,"name":"zengguo","country":"cn","lat":31.301,"lon":98.501},{"id":455380,"name":"delai","country":"cn","lat":31.040566,"lon":99.234913},{"id":535518,"name":"mamen","country":"cn","lat":30.942361,"lon":99.26376},{"id":446745,"name":"cuochang","country":"cn","lat":30.7,"lon":98.8},{"id":455302,"name":"deda","country":"cn","lat":31.082902,"lon":99.108089},{"id":532274,"name":"luomai","country":"cn","lat":30.733333,"lon":98.866667},{"id":510538,"name":"kerri","country":"cn","lat":30.702,"lon":98.802},{"id":614877,"name":"xaru","country":"cn","lat":30.7,"lon":98.6},{"id":642098,"name":"yongxian","country":"cn","lat":31.10017,"lon":99.028933},{"id":647108,"name":"zangdoi","country":"cn","lat":30.504,"lon":98.904},{"id":426790,"name":"barong","country":"cn","lat":31.042917,"lon":99.27526},{"id":509075,"name":"kangmeide","country":"cn","lat":31.228407,"lon":98.789293},{"id":587068,"name":"soiba","country":"cn","lat":31.102,"lon":98.602},{"id":564185,"name":"reya","country":"cn","lat":31.462922,"lon":99.254033},{"id":514337,"name":"lalong","country":"cn","lat":31.327444,"lon":99.194287},{"id":565247,"name":"sama","country":"cn","lat":30.593006,"lon":99.197968},{"id":609078,"name":"wanyai","country":"cn","lat":30.5,"lon":98.9},{"id":547996,"name":"ningba","country":"cn","lat":31.101,"lon":98.601},{"id":505506,"name":"jinnong","country":"cn","lat":31.111403,"lon":99.082775},{"id":623984,"name":"xietangcun","country":"cn","lat":30.975514,"lon":98.838339},{"id":508405,"name":"kagang","country":"cn","lat":31.2821,"lon":98.629208},{"id":647715,"name":"zengke","country":"cn","lat":31.482823,"lon":99.304251},{"id":520455,"name":"lieba","country":"cn","lat":30.623801,"lon":98.939724},{"id":517032,"name":"latuo qu","country":"cn","lat":30.5,"lon":98.5},{"id":482818,"name":"hepo","country":"cn","lat":31.389752,"lon":98.951297},{"id":647101,"name":"zangasi","country":"cn","lat":30.941237,"lon":99.248205},{"id":472342,"name":"gedexi","country":"cn","lat":31.498896,"lon":99.286066},{"id":630951,"name":"xuejia","country":"cn","lat":30.909226,"lon":99.283316},{"id":514396,"name":"lamei","country":"cn","lat":31.428831,"lon":99.154597},{"id":555564,"name":"polo gomba","country":"cn","lat":31.166667,"lon":98.533333},{"id":571981,"name":"shangniusa","country":"cn","lat":31.39017,"lon":99.165269},{"id":655570,"name":"zhuan","country":"cn","lat":31.349719,"lon":99.146704},{"id":535138,"name":"maku","country":"cn","lat":31.480542,"lon":99.080721},{"id":539653,"name":"miange","country":"cn","lat":31.085801,"lon":99.316289},{"id":458863,"name":"dongjiang","country":"cn","lat":30.838196,"lon":99.029549},{"id":576370,"name":"shenggedong","country":"cn","lat":31.054671,"lon":98.759919},{"id":549683,"name":"ogcang","country":"cn","lat":31.301,"lon":98.601},{"id":564398,"name":"rixiwa","country":"cn","lat":31.126324,"lon":98.730628},{"id":472760,"name":"genjiu","country":"cn","lat":31.001,"lon":98.501},{"id":575900,"name":"shedan","country":"cn","lat":31.050225,"lon":98.915349},{"id":605201,"name":"wae","country":"cn","lat":30.668381,"lon":99.145134},{"id":540654,"name":"mindo","country":"cn","lat":30.501,"lon":98.901},{"id":456742,"name":"dingba","country":"cn","lat":30.701,"lon":98.801},{"id":509141,"name":"kangsha","country":"cn","lat":30.790498,"lon":99.041046},{"id":564640,"name":"rongxuesi","country":"cn","lat":31.47963,"lon":99.174134},{"id":472989,"name":"gexue","country":"cn","lat":31.397251,"lon":98.905567}]});