callback({"markets":[{"id":2422069,"name":"kirip","country":"ru","lat":45.704444,"lon":45.756667},{"id":2407481,"name":"imeni molotova","country":"ru","lat":45.626389,"lon":46.351667},{"id":2433865,"name":"krasnyy frontovik","country":"ru","lat":46.435556,"lon":46.316944},{"id":2376855,"name":"bolshova shalda","country":"ru","lat":46.233056,"lon":45.567778},{"id":2457152,"name":"mekleta","country":"ru","lat":45.683903,"lon":45.843097},{"id":2367088,"name":"balyk","country":"ru","lat":45.879167,"lon":46.126389},{"id":2465155,"name":"naryno-boro","country":"ru","lat":45.671389,"lon":45.950833},{"id":2402505,"name":"gorodovikovo","country":"ru","lat":45.922222,"lon":46.165833},{"id":2364922,"name":"atsan-kuduk","country":"ru","lat":46.0666,"lon":46.3008},{"id":2389000,"name":"damba getsil","country":"ru","lat":45.510556,"lon":45.513056},{"id":2390532,"name":"desyatiletiye oktyabrya","country":"ru","lat":45.751944,"lon":46.185},{"id":2557826,"name":"vtoraya mekleta","country":"ru","lat":45.723333,"lon":45.883611},{"id":2407265,"name":"imeni chkalova","country":"ru","lat":45.9025,"lon":46.040278},{"id":2535971,"name":"teyegin-gerl","country":"ru","lat":46.1333,"lon":45.6503},{"id":2381012,"name":"budennogo","country":"ru","lat":45.578611,"lon":45.921389},{"id":2465001,"name":"narampa","country":"ru","lat":45.859444,"lon":45.511111},{"id":2534420,"name":"tavn-gashun","country":"ru","lat":46.0236,"lon":45.9237},{"id":2543445,"name":"ulan tsyrik","country":"ru","lat":45.736389,"lon":45.52},{"id":2379090,"name":"bor khuduk","country":"ru","lat":45.531111,"lon":45.609444},{"id":2358445,"name":"adyk","country":"ru","lat":45.801708,"lon":45.632039},{"id":2499675,"name":"pyatnadtsatlet gpu","country":"ru","lat":45.535278,"lon":45.979444},{"id":2513218,"name":"sharshun","country":"ru","lat":45.5925,"lon":45.690278},{"id":2433974,"name":"krasnyy konevod","country":"ru","lat":45.939167,"lon":46.307778},{"id":2379738,"name":"bor-tsarng","country":"ru","lat":46.424722,"lon":45.5125},{"id":2390703,"name":"devyatoye yanvarya","country":"ru","lat":46.391111,"lon":46.443056},{"id":2545964,"name":"ustin-boro","country":"ru","lat":45.688333,"lon":45.902778},{"id":2407314,"name":"imeni ilicha","country":"ru","lat":46.183889,"lon":46.414167},{"id":2407331,"name":"imeni kalinina","country":"ru","lat":46.164167,"lon":46.301667},{"id":2417796,"name":"khargata","country":"ru","lat":46.1758,"lon":45.8135},{"id":2531660,"name":"svobodnyy trud","country":"ru","lat":45.856944,"lon":46.226389},{"id":2407418,"name":"imeni kuybysheva","country":"ru","lat":46.331667,"lon":46.156667},{"id":2547125,"name":"utta","country":"ru","lat":46.3647,"lon":46.0066},{"id":2420590,"name":"khulkhuta","country":"ru","lat":46.3172,"lon":46.3763},{"id":2407536,"name":"imeni shiryeva","country":"ru","lat":46.226389,"lon":46.034167},{"id":2407241,"name":"imeni budennogo","country":"ru","lat":46.066667,"lon":46.4},{"id":2500872,"name":"rassvet","country":"ru","lat":46.4168,"lon":46.2356},{"id":2543446,"name":"ulan-tsyrik","country":"ru","lat":45.829722,"lon":45.664444},{"id":2541918,"name":"tyaryana byuryuk","country":"ru","lat":46.201667,"lon":45.813056}]});