callback({"markets":[{"id":2101066,"name":"yasingli","country":"pg","lat":-7.05,"lon":146.8166667},{"id":2097492,"name":"puahom yanga","country":"pg","lat":-6.6666667,"lon":147.0333333},{"id":2089197,"name":"bukaua","country":"pg","lat":-6.7333333,"lon":147.3666667},{"id":2089756,"name":"doli","country":"pg","lat":-7.0166667,"lon":146.8166667},{"id":2089340,"name":"buso","country":"pg","lat":-6.6666667,"lon":147.2166667},{"id":2092302,"name":"kamiaturn","country":"pg","lat":-7.1166667,"lon":147.0166667},{"id":2098016,"name":"sanaronong","country":"pg","lat":-6.5666667,"lon":147.45},{"id":2093956,"name":"kuwi","country":"pg","lat":-7.4833333,"lon":147.25},{"id":2094794,"name":"malangata","country":"pg","lat":-7.1333333,"lon":146.5833333},{"id":2089818,"name":"drong","country":"pg","lat":-7.0333333,"lon":146.8833333},{"id":2088715,"name":"biaweng","country":"pg","lat":-7.1166667,"lon":146.6666667},{"id":2096738,"name":"omili","country":"pg","lat":-6.7,"lon":147.0},{"id":2100156,"name":"wagang","country":"pg","lat":-6.7333333,"lon":147.0333333},{"id":2100209,"name":"waiganda","country":"pg","lat":-7.3166667,"lon":146.5333333},{"id":2092421,"name":"kapin 1","country":"pg","lat":-7.0166667,"lon":146.5166667},{"id":2100959,"name":"yalu","country":"pg","lat":-6.6,"lon":146.8666667},{"id":2091319,"name":"hote","country":"pg","lat":-7.05,"lon":146.9333333},{"id":2094464,"name":"logui","country":"pg","lat":-7.0666667,"lon":147.05},{"id":2089387,"name":"bwussi","country":"pg","lat":-6.9333333,"lon":146.9166667},{"id":2101332,"name":"zezaging","country":"pg","lat":-6.5666667,"lon":147.1666667},{"id":2098574,"name":"slate creek","country":"pg","lat":-7.2,"lon":146.55},{"id":2089907,"name":"edie creek","country":"pg","lat":-7.35,"lon":146.6666667},{"id":2095373,"name":"meri creek","country":"pg","lat":-7.3666667,"lon":146.6666667},{"id":2094024,"name":"kwasang","country":"pg","lat":-6.95,"lon":146.7166667},{"id":2097244,"name":"perakles","country":"pg","lat":-6.9166667,"lon":146.5833333},{"id":2094010,"name":"kwapsanek","country":"pg","lat":-6.5666667,"lon":147.0333333},{"id":2089125,"name":"buakup","country":"pg","lat":-7.0166667,"lon":147.0},{"id":2092764,"name":"keila","country":"pg","lat":-7.05,"lon":147.05},{"id":2097976,"name":"samberang","country":"pg","lat":-6.6,"lon":147.1666667},{"id":2089338,"name":"buso 1","country":"pg","lat":-7.4166667,"lon":147.1833333},{"id":2095970,"name":"nadzad","country":"pg","lat":-6.55,"lon":146.7},{"id":2095855,"name":"mundala","country":"pg","lat":-6.7333333,"lon":147.35},{"id":2094779,"name":"malahang mission","country":"pg","lat":-6.7,"lon":147.0333333},{"id":2095889,"name":"munum","country":"pg","lat":-6.5666667,"lon":146.85},{"id":2101041,"name":"yanta","country":"pg","lat":-6.9,"lon":146.55},{"id":2088304,"name":"baiune","country":"pg","lat":-7.1,"lon":146.6166667},{"id":2094117,"name":"labu","country":"pg","lat":-6.75,"lon":146.9666667},{"id":2089895,"name":"ebabang","country":"pg","lat":-6.5,"lon":147.4666667},{"id":2098029,"name":"sangas","country":"pg","lat":-7.1,"lon":146.65},{"id":2088265,"name":"baiawen","country":"pg","lat":-7.3833333,"lon":146.8},{"id":2097074,"name":"papekani","country":"pg","lat":-6.9166667,"lon":146.7666667},{"id":2096258,"name":"nemnem","country":"pg","lat":-7.3833333,"lon":146.7},{"id":2090252,"name":"gabmatzung","country":"pg","lat":-6.5833333,"lon":146.7666667},{"id":2092468,"name":"karakwa","country":"pg","lat":-7.3666667,"lon":146.8333333},{"id":2101328,"name":"zenag","country":"pg","lat":-6.95,"lon":146.5833333},{"id":2097981,"name":"sambio","country":"pg","lat":-7.05,"lon":146.5833333},{"id":2089237,"name":"bulowat","country":"pg","lat":-7.1,"lon":146.6333333},{"id":2095841,"name":"mumengtein","country":"pg","lat":-7.0,"lon":146.5666667},{"id":2097219,"name":"pelenkwa","country":"pg","lat":-7.1166667,"lon":146.5833333},{"id":2099403,"name":"tokanin","country":"pg","lat":-6.9333333,"lon":146.75},{"id":2101329,"name":"zengaren","country":"pg","lat":-6.5333333,"lon":147.4333333},{"id":2095847,"name":"mumum","country":"pg","lat":-6.6666667,"lon":147.1},{"id":2095942,"name":"musom","country":"pg","lat":-6.5666667,"lon":147.0},{"id":2094950,"name":"manki","country":"pg","lat":-7.1666667,"lon":146.5666667},{"id":2094335,"name":"leklu","country":"pg","lat":-7.1166667,"lon":146.6},{"id":2096099,"name":"namie","country":"pg","lat":-7.3166667,"lon":146.7},{"id":2089430,"name":"chivasing","country":"pg","lat":-6.5833333,"lon":146.5833333},{"id":2094044,"name":"kwembu","country":"pg","lat":-7.4,"lon":146.75},{"id":2094265,"name":"latep","country":"pg","lat":-7.15,"lon":146.6},{"id":2095955,"name":"nabak","country":"pg","lat":-6.65,"lon":147.0166667},{"id":2089182,"name":"buharu","country":"pg","lat":-6.7333333,"lon":147.3},{"id":2094125,"name":"lae","country":"pg","lat":-6.7333333,"lon":147.0},{"id":2098572,"name":"siyugei","country":"pg","lat":-6.9166667,"lon":146.75},{"id":2089186,"name":"buiane","country":"pg","lat":-7.3,"lon":146.9833333},{"id":2097288,"name":"pilimung","country":"pg","lat":-7.0833333,"lon":146.85},{"id":2093342,"name":"komiatum","country":"pg","lat":-7.15,"lon":147.0166667},{"id":2088925,"name":"boisi","country":"pg","lat":-7.15,"lon":147.05},{"id":2100032,"name":"vemop","country":"pg","lat":-7.0333333,"lon":146.85},{"id":2096722,"name":"omala","country":"pg","lat":-6.8166667,"lon":146.6166667},{"id":2088164,"name":"awasa-busama","country":"pg","lat":-6.9666667,"lon":146.9666667},{"id":2088527,"name":"basis 1","country":"pg","lat":-7.3,"lon":147.15},{"id":2087696,"name":"angabu","country":"pg","lat":-6.8666667,"lon":146.5666667},{"id":2097927,"name":"salamaua","country":"pg","lat":-7.0333333,"lon":147.0666667},{"id":2089358,"name":"butibum","country":"pg","lat":-6.7166667,"lon":147.0166667},{"id":2089298,"name":"bupu","country":"pg","lat":-6.85,"lon":146.6},{"id":2090447,"name":"gawan","country":"pg","lat":-6.5833333,"lon":147.0333333},{"id":2100183,"name":"wagu","country":"pg","lat":-6.85,"lon":146.8},{"id":2087534,"name":"aluki","country":"pg","lat":-6.6833333,"lon":147.1666667},{"id":2089217,"name":"bulantin","country":"pg","lat":-6.8833333,"lon":146.7666667},{"id":2099272,"name":"tikeling","country":"pg","lat":-6.6833333,"lon":147.1},{"id":2089422,"name":"chimbuluk","country":"pg","lat":-6.9,"lon":146.7666667},{"id":2090912,"name":"gwabadik","country":"pg","lat":-6.5833333,"lon":147.0},{"id":2096660,"name":"old bangalum","country":"pg","lat":-7.0166667,"lon":146.5666667},{"id":2088838,"name":"bitoi","country":"pg","lat":-7.25,"lon":147.1333333},{"id":2090254,"name":"gabsonkek","country":"pg","lat":-6.5666667,"lon":146.7666667},{"id":2096663,"name":"old biauwa","country":"pg","lat":-7.3833333,"lon":146.8333333},{"id":2088143,"name":"awadi","country":"pg","lat":-6.75,"lon":147.35},{"id":2097134,"name":"patep 1","country":"pg","lat":-6.9166667,"lon":146.6833333},{"id":2100988,"name":"yambo","country":"pg","lat":-6.7166667,"lon":147.4},{"id":2097984,"name":"sambue","country":"pg","lat":-6.5166667,"lon":147.0},{"id":2096319,"name":"new wandumi","country":"pg","lat":-7.35,"lon":146.7666667},{"id":2094795,"name":"malanpipi","country":"pg","lat":-6.55,"lon":147.1333333},{"id":2100157,"name":"waganluhu","country":"pg","lat":-6.6833333,"lon":147.2},{"id":2099195,"name":"telerang","country":"pg","lat":-6.5333333,"lon":146.5833333},{"id":2094471,"name":"lokanu villages","country":"pg","lat":-7.1166667,"lon":147.0666667},{"id":2098805,"name":"sunshine","country":"pg","lat":-7.0666667,"lon":146.6},{"id":2101145,"name":"yemli","country":"pg","lat":-7.05,"lon":146.8666667},{"id":2095562,"name":"missim","country":"pg","lat":-7.1166667,"lon":146.9166667},{"id":2094321,"name":"lega","country":"pg","lat":-6.9,"lon":146.85},{"id":2096502,"name":"numbut","country":"pg","lat":-6.5333333,"lon":147.3833333},{"id":2091033,"name":"hamaronong","country":"pg","lat":-6.5166667,"lon":147.4666667},{"id":2092784,"name":"kelkel","country":"pg","lat":-7.1333333,"lon":147.05},{"id":2090037,"name":"erap","country":"pg","lat":-6.5333333,"lon":146.7},{"id":2093582,"name":"kotkin","country":"pg","lat":-6.55,"lon":147.4333333},{"id":2101100,"name":"yauwipu","country":"pg","lat":-7.2333333,"lon":146.55},{"id":2096157,"name":"naragooma","country":"pg","lat":-6.6333333,"lon":146.6333333},{"id":2095837,"name":"mumeng 1","country":"pg","lat":-6.9833333,"lon":146.5833333},{"id":2088889,"name":"bogasu","country":"pg","lat":-7.1166667,"lon":146.95},{"id":2099595,"name":"tumnang","country":"pg","lat":-6.5,"lon":147.4333333},{"id":2087972,"name":"asini","country":"pg","lat":-7.0333333,"lon":147.0166667},{"id":2098190,"name":"selebop","country":"pg","lat":-7.1333333,"lon":146.8666667},{"id":2089251,"name":"bumayong","country":"pg","lat":-6.65,"lon":147.0},{"id":2089206,"name":"buko","country":"pg","lat":-6.7333333,"lon":147.0166667},{"id":2087684,"name":"andorora","country":"pg","lat":-7.2,"lon":146.5333333},{"id":2101227,"name":"yokua","country":"pg","lat":-7.3333333,"lon":146.5333333},{"id":2097137,"name":"patep number 2","country":"pg","lat":-6.8833333,"lon":146.6166667},{"id":2099483,"name":"totomea","country":"pg","lat":-7.3,"lon":146.5333333},{"id":2100238,"name":"waipali","country":"pg","lat":-7.25,"lon":146.9666667},{"id":2098469,"name":"singaua","country":"pg","lat":-6.7,"lon":147.1166667},{"id":2099266,"name":"tigeri","country":"pg","lat":-6.75,"lon":147.3333333},{"id":2100645,"name":"were were","country":"pg","lat":-7.4166667,"lon":146.8166667},{"id":2090305,"name":"galawo","country":"pg","lat":-7.0833333,"lon":146.5166667},{"id":2088858,"name":"bobadu","country":"pg","lat":-7.0666667,"lon":146.8333333},{"id":2095879,"name":"muniau","country":"pg","lat":-6.8333333,"lon":146.7833333},{"id":2097948,"name":"salus","country":"pg","lat":-7.2,"lon":147.1333333},{"id":2089342,"name":"busung","country":"pg","lat":-6.5333333,"lon":147.1333333},{"id":2094032,"name":"kwatomane","country":"pg","lat":-6.9833333,"lon":146.7},{"id":2094106,"name":"lababia","country":"pg","lat":-7.3,"lon":147.1333333},{"id":2092145,"name":"kaisinik","country":"pg","lat":-7.3666667,"lon":146.7666667},{"id":2089128,"name":"buansing","country":"pg","lat":-7.1166667,"lon":147.0833333},{"id":2089185,"name":"buiambun","country":"pg","lat":-7.15,"lon":147.0666667},{"id":2096325,"name":"ngasawapum","country":"pg","lat":-6.5666667,"lon":146.8166667},{"id":2100229,"name":"wain camp","country":"pg","lat":-7.0833333,"lon":146.6},{"id":2099686,"name":"ubaneng","country":"pg","lat":-6.5166667,"lon":147.3833333},{"id":2096801,"name":"oomsis","country":"pg","lat":-6.6833333,"lon":146.8},{"id":2088424,"name":"bangalum bridge","country":"pg","lat":-7.05,"lon":146.6},{"id":2087789,"name":"apo","country":"pg","lat":-6.7,"lon":147.1333333},{"id":2094482,"name":"lomalam","country":"pg","lat":-6.85,"lon":146.7833333},{"id":2096504,"name":"numenga","country":"pg","lat":-6.55,"lon":147.1666667},{"id":2088851,"name":"black cat","country":"pg","lat":-7.2833333,"lon":146.8166667},{"id":2096905,"name":"otibanda","country":"pg","lat":-7.3,"lon":146.5166667},{"id":2095665,"name":"momalili","country":"pg","lat":-6.5666667,"lon":147.1833333},{"id":2090784,"name":"guado","country":"pg","lat":-6.9666667,"lon":146.9333333},{"id":2099299,"name":"timne","country":"pg","lat":-6.8,"lon":146.65},{"id":2088684,"name":"biaboli","country":"pg","lat":-7.1333333,"lon":146.9},{"id":2089366,"name":"buwai","country":"pg","lat":-6.8166667,"lon":146.8166667},{"id":2093163,"name":"kobiak","country":"pg","lat":-7.3,"lon":146.6833333},{"id":2092618,"name":"katumani hamlet","country":"pg","lat":-7.0333333,"lon":146.7},{"id":2089480,"name":"dahu","country":"pg","lat":-7.05,"lon":146.8833333},{"id":2092424,"name":"kapin number 2","country":"pg","lat":-7.0333333,"lon":146.5},{"id":2097793,"name":"ros kar","country":"pg","lat":-7.0333333,"lon":146.6},{"id":2096321,"name":"new yanga","country":"pg","lat":-6.7166667,"lon":147.05},{"id":2094906,"name":"manga","country":"pg","lat":-6.95,"lon":146.7333333},{"id":2092205,"name":"kaletta","country":"pg","lat":-6.8833333,"lon":146.85},{"id":2092144,"name":"kaisia","country":"pg","lat":-6.5833333,"lon":147.15},{"id":2100593,"name":"wau","country":"pg","lat":-7.3333333,"lon":146.7166667},{"id":2094023,"name":"kwasang 2","country":"pg","lat":-6.9666667,"lon":146.7},{"id":2090249,"name":"gabensis","country":"pg","lat":-6.7166667,"lon":146.7666667},{"id":2100671,"name":"wideru","country":"pg","lat":-6.7333333,"lon":147.4666667},{"id":2096210,"name":"nauti","country":"pg","lat":-7.2666667,"lon":146.5666667},{"id":2089325,"name":"busama","country":"pg","lat":-7.05,"lon":147.0166667},{"id":2094385,"name":"letty","country":"pg","lat":-7.0166667,"lon":147.05},{"id":2090867,"name":"gurakor","country":"pg","lat":-6.8333333,"lon":146.6333333},{"id":2096301,"name":"new mari","country":"pg","lat":-6.65,"lon":146.6833333},{"id":2089181,"name":"bugwev","country":"pg","lat":-6.85,"lon":146.7666667},{"id":2097866,"name":"sagaiyo","country":"pg","lat":-6.9,"lon":146.75},{"id":2089627,"name":"dengalu","country":"pg","lat":-7.1666667,"lon":146.6833333},{"id":2097114,"name":"parorora","country":"pg","lat":-7.2166667,"lon":146.5166667},{"id":2098900,"name":"taiak","country":"pg","lat":-7.0833333,"lon":146.5333333},{"id":2100713,"name":"winima 1","country":"pg","lat":-7.4166667,"lon":146.7833333},{"id":2094000,"name":"kwamu","country":"pg","lat":-6.55,"lon":147.15},{"id":2090783,"name":"guabagusal","country":"pg","lat":-7.25,"lon":146.9833333},{"id":2089573,"name":"dauong","country":"pg","lat":-6.8666667,"lon":146.7833333},{"id":2101315,"name":"zalimpa","country":"pg","lat":-6.5,"lon":147.4833333},{"id":2089136,"name":"bubolo","country":"pg","lat":-7.2,"lon":146.65}]});