callback({"markets":[{"id":1653727,"name":"undrus","country":"kz","lat":45.066667,"lon":63.916667},{"id":1644865,"name":"imeni dzhambula","country":"kz","lat":44.866667,"lon":64.383333},{"id":1651426,"name":"segizzhigit","country":"kz","lat":44.766667,"lon":64.416667},{"id":1652771,"name":"tan","country":"kz","lat":45.075,"lon":64.415556},{"id":1648929,"name":"mikobayagash","country":"kz","lat":45.1,"lon":64.083333},{"id":1653570,"name":"tyupboget","country":"kz","lat":45.033333,"lon":63.833333},{"id":1644871,"name":"imeni engel\u0027sa","country":"kz","lat":45.266667,"lon":64.233333},{"id":1646789,"name":"kok-tyube","country":"kz","lat":45.033333,"lon":64.05},{"id":1643683,"name":"chervonnaya zemlya","country":"kz","lat":45.166667,"lon":64.15},{"id":1644059,"name":"doskazy","country":"kz","lat":45.266667,"lon":64.066667},{"id":1644850,"name":"imeni chkalova","country":"kz","lat":45.133333,"lon":64.116667},{"id":1655407,"name":"zhosaly","country":"kz","lat":45.487778,"lon":64.078056},{"id":1644841,"name":"imeni chapayeva","country":"kz","lat":45.166667,"lon":64.266667},{"id":1653286,"name":"tortkol\u0027","country":"kz","lat":45.25,"lon":64.3},{"id":1640883,"name":"adebiyet","country":"kz","lat":44.9,"lon":64.466667},{"id":1644230,"name":"dzhana-talap","country":"kz","lat":44.833333,"lon":64.233333},{"id":1645549,"name":"kara-bugut","country":"kz","lat":44.85,"lon":64.35},{"id":1654474,"name":"yenbek","country":"kz","lat":44.833333,"lon":64.383333},{"id":1642776,"name":"berlestyk","country":"kz","lat":45.083333,"lon":64.216667},{"id":1645899,"name":"karatemir","country":"kz","lat":45.2,"lon":64.1},{"id":1645036,"name":"imeni tret\u0027yego internatsionala","country":"kz","lat":45.2,"lon":64.066667},{"id":1641304,"name":"akzhar","country":"kz","lat":45.086111,"lon":64.075556},{"id":1641239,"name":"aktiv","country":"kz","lat":45.233333,"lon":64.366667},{"id":1648461,"name":"madan\u0027yat","country":"kz","lat":44.85,"lon":64.416667},{"id":1655053,"name":"zhanazhol","country":"kz","lat":45.166667,"lon":64.333333},{"id":1648519,"name":"maklakkol\u0027","country":"kz","lat":44.885556,"lon":64.289722}]});