callback({"markets":[{"id":131569,"name":"la guardia","country":"ar","lat":-31.640911,"lon":-60.627643},{"id":129339,"name":"cordona","country":"ar","lat":-31.972628,"lon":-60.919825},{"id":132365,"name":"los quebrachos","country":"ar","lat":-31.603099,"lon":-61.206878},{"id":130593,"name":"general alvear","country":"ar","lat":-31.945938,"lon":-60.669026},{"id":134904,"name":"santo tome","country":"ar","lat":-31.662739,"lon":-60.765303},{"id":134593,"name":"san jenaro","country":"ar","lat":-32.369574,"lon":-61.356808},{"id":133155,"name":"oro verde","country":"ar","lat":-31.825084,"lon":-60.517491},{"id":134483,"name":"san carlos centro","country":"ar","lat":-31.728636,"lon":-61.091922},{"id":135080,"name":"strobel","country":"ar","lat":-32.053856,"lon":-60.612331},{"id":132022,"name":"las tunas","country":"ar","lat":-31.571457,"lon":-60.995454},{"id":133153,"name":"orono","country":"ar","lat":-31.916383,"lon":-61.101234},{"id":129600,"name":"diaz","country":"ar","lat":-32.372372,"lon":-61.087565},{"id":130709,"name":"gessler","country":"ar","lat":-31.875559,"lon":-61.128142},{"id":127542,"name":"aldea salto","country":"ar","lat":-31.924817,"lon":-60.547335},{"id":134947,"name":"sauce viejo","country":"ar","lat":-31.771254,"lon":-60.83666},{"id":134782,"name":"santa clara de buena vista","country":"ar","lat":-31.763904,"lon":-61.319819},{"id":127829,"name":"arocena","country":"ar","lat":-32.078588,"lon":-60.976164},{"id":129392,"name":"coronel rodriguez","country":"ar","lat":-31.70078,"lon":-61.245761},{"id":128639,"name":"casalegno","country":"ar","lat":-32.262332,"lon":-61.126208},{"id":135534,"name":"valle maria","country":"ar","lat":-31.990902,"lon":-60.588005},{"id":128062,"name":"barrancas","country":"ar","lat":-32.234221,"lon":-60.980013},{"id":133846,"name":"puerto gaboto","country":"ar","lat":-32.435489,"lon":-60.814156},{"id":128719,"name":"centeno","country":"ar","lat":-32.296881,"lon":-61.411218},{"id":131828,"name":"las bandurrias","country":"ar","lat":-32.197302,"lon":-61.49213},{"id":127659,"name":"alto verde","country":"ar","lat":-31.662427,"lon":-60.699802},{"id":136005,"name":"wildermuth","country":"ar","lat":-31.944698,"lon":-61.401237},{"id":128064,"name":"barrancas viejo","country":"ar","lat":-32.220147,"lon":-60.960269},{"id":134554,"name":"san geronimo norte","country":"ar","lat":-31.550969,"lon":-61.077345},{"id":132884,"name":"monte vera","country":"ar","lat":-31.516702,"lon":-60.676769},{"id":132459,"name":"maciel","country":"ar","lat":-32.455742,"lon":-60.887362},{"id":134826,"name":"santa maria norte","country":"ar","lat":-31.501905,"lon":-61.13676},{"id":132641,"name":"matilde","country":"ar","lat":-31.791552,"lon":-60.979929},{"id":134514,"name":"san eugenio","country":"ar","lat":-32.074179,"lon":-61.113946},{"id":127519,"name":"aldea brasilera","country":"ar","lat":-31.890099,"lon":-60.589979},{"id":134409,"name":"salto","country":"ar","lat":-31.916667,"lon":-60.55},{"id":130504,"name":"franck","country":"ar","lat":-31.58642,"lon":-60.939041},{"id":135995,"name":"vuelta del paraguayo","country":"ar","lat":-31.644424,"lon":-60.677939},{"id":133808,"name":"puerto aragon","country":"ar","lat":-32.245513,"lon":-60.917555},{"id":134487,"name":"san carlos norte","country":"ar","lat":-31.673334,"lon":-61.074005},{"id":134918,"name":"sa pereira","country":"ar","lat":-31.570236,"lon":-61.376888},{"id":129053,"name":"colonia belgrano","country":"ar","lat":-31.91011,"lon":-61.401541},{"id":130547,"name":"galvez","country":"ar","lat":-32.029269,"lon":-61.22103},{"id":128137,"name":"belgrano","country":"ar","lat":-32.066667,"lon":-60.616667},{"id":129978,"name":"el piquete","country":"ar","lat":-31.566667,"lon":-60.716667},{"id":134494,"name":"san carlos sur","country":"ar","lat":-31.756919,"lon":-61.10119},{"id":127947,"name":"bajada grande","country":"ar","lat":-31.710816,"lon":-60.567541},{"id":129009,"name":"colastine norte","country":"ar","lat":-31.633297,"lon":-60.6048},{"id":134619,"name":"san jose del rincon","country":"ar","lat":-31.604258,"lon":-60.567611},{"id":134429,"name":"san agustin","country":"ar","lat":-31.684184,"lon":-60.94066},{"id":130230,"name":"estacion matilde","country":"ar","lat":-31.8,"lon":-60.983333},{"id":134803,"name":"santa fe","country":"ar","lat":-31.629484,"lon":-60.701036},{"id":134181,"name":"rigby","country":"ar","lat":-31.905432,"lon":-61.279858},{"id":132506,"name":"maltide","country":"ar","lat":-31.796103,"lon":-61.010664},{"id":129441,"name":"costa grande","country":"ar","lat":-32.15,"lon":-60.516667},{"id":127520,"name":"aldea brava","country":"ar","lat":-32.117935,"lon":-60.581421},{"id":127536,"name":"aldea protestante","country":"ar","lat":-32.025179,"lon":-60.561797},{"id":132600,"name":"mariano saavedra","country":"ar","lat":-31.668702,"lon":-61.348839},{"id":132832,"name":"monje","country":"ar","lat":-32.356919,"lon":-60.941928},{"id":128128,"name":"b. de irigoyen","country":"ar","lat":-32.168132,"lon":-61.157054},{"id":128970,"name":"clason","country":"ar","lat":-32.46142,"lon":-61.291064},{"id":134516,"name":"san fabian","country":"ar","lat":-32.136645,"lon":-60.983041},{"id":134594,"name":"san jeronimo del sauce","country":"ar","lat":-31.608436,"lon":-61.141638},{"id":129010,"name":"colastine sur","country":"ar","lat":-31.660855,"lon":-60.6009},{"id":133757,"name":"pueblo irigoyen","country":"ar","lat":-32.157814,"lon":-61.10956},{"id":133318,"name":"parana","country":"ar","lat":-31.731967,"lon":-60.523802},{"id":129599,"name":"diamante","country":"ar","lat":-32.066411,"lon":-60.638365},{"id":134550,"name":"san genaro norte","country":"ar","lat":-32.363941,"lon":-61.33677},{"id":129161,"name":"colonia matilde","country":"ar","lat":-31.816667,"lon":-61.0},{"id":134539,"name":"san francisco","country":"ar","lat":-31.96124,"lon":-60.635166},{"id":132183,"name":"loma alta","country":"ar","lat":-31.960566,"lon":-61.178031},{"id":131803,"name":"larrechea","country":"ar","lat":-31.93548,"lon":-61.046597}]});