callback({"markets":[{"id":2953538,"name":"eros","country":"us","lat":32.3922222,"lon":-92.4238889},{"id":2953586,"name":"ferriday","country":"us","lat":31.63,"lon":-91.5544444},{"id":2953630,"name":"forest oaks","country":"us","lat":32.4397222,"lon":-92.0808333},{"id":2953265,"name":"copenhagen","country":"us","lat":32.0236111,"lon":-92.0388889},{"id":2953618,"name":"fondale","country":"us","lat":32.3544444,"lon":-92.1077778},{"id":2953799,"name":"green terrace","country":"us","lat":32.4611111,"lon":-92.0872222},{"id":2954256,"name":"lincecum","country":"us","lat":31.6872222,"lon":-92.3925},{"id":2954954,"name":"rhymes","country":"us","lat":32.3788889,"lon":-91.8988889},{"id":2955264,"name":"steven","country":"us","lat":32.4961111,"lon":-92.1672222},{"id":2952797,"name":"bawcomville","country":"us","lat":32.4702778,"lon":-92.1672222},{"id":2954090,"name":"kelly","country":"us","lat":31.9805556,"lon":-92.1766667},{"id":2952705,"name":"antonia","country":"us","lat":31.5641667,"lon":-92.4091667},{"id":2953153,"name":"charmingdale","country":"us","lat":32.4063889,"lon":-92.1},{"id":2952643,"name":"aimwell","country":"us","lat":31.7833333,"lon":-91.9933333},{"id":2954552,"name":"mudville","country":"us","lat":31.7127778,"lon":-92.3961111},{"id":2953828,"name":"gulf crossing","country":"us","lat":32.2058333,"lon":-92.4730556},{"id":2953054,"name":"bushes","country":"us","lat":32.2172222,"lon":-91.6161111},{"id":2954268,"name":"little creek","country":"us","lat":31.7194444,"lon":-92.2941667},{"id":2952909,"name":"blankston","country":"us","lat":32.2419444,"lon":-92.1322222},{"id":2955568,"name":"wildsville","country":"us","lat":31.6155556,"lon":-91.7838889},{"id":2952713,"name":"archibald","country":"us","lat":32.3488889,"lon":-91.7772222},{"id":2954523,"name":"moro","country":"us","lat":31.6066667,"lon":-91.7097222},{"id":2953911,"name":"hickory valley","country":"us","lat":32.0227778,"lon":-92.4052778},{"id":2953952,"name":"holly ridge","country":"us","lat":32.4675,"lon":-91.6266667},{"id":2953262,"name":"cooters landing","country":"us","lat":31.9280556,"lon":-91.5116667},{"id":2953448,"name":"dunbarton","country":"us","lat":31.7266667,"lon":-91.6586111},{"id":2954292,"name":"logtown","country":"us","lat":32.335,"lon":-92.0886111},{"id":2955163,"name":"siegle","country":"us","lat":32.4894444,"lon":-92.175},{"id":2953591,"name":"filhiol","country":"us","lat":32.3416667,"lon":-92.1083333},{"id":2955595,"name":"wisner","country":"us","lat":31.9808333,"lon":-91.6555556},{"id":2954424,"name":"mclain","country":"us","lat":32.3680556,"lon":-92.1116667},{"id":2953009,"name":"brownell","country":"us","lat":32.1163889,"lon":-91.7419444},{"id":2954992,"name":"rochelle","country":"us","lat":31.79,"lon":-92.3694444},{"id":2953060,"name":"cadeville","country":"us","lat":32.4288889,"lon":-92.3388889},{"id":2955116,"name":"selma","country":"us","lat":31.7411111,"lon":-92.3869444},{"id":2954333,"name":"luna","country":"us","lat":32.325,"lon":-92.2219444},{"id":2954359,"name":"maitland landing","country":"us","lat":31.7580556,"lon":-91.6063889},{"id":2953312,"name":"crew lake","country":"us","lat":32.4880556,"lon":-91.8869444},{"id":2955625,"name":"young landing","country":"us","lat":31.7688889,"lon":-91.5591667},{"id":2954664,"name":"oak dale landing","country":"us","lat":31.8286111,"lon":-91.5680556},{"id":2953499,"name":"elkhorn","country":"us","lat":31.6163889,"lon":-91.6661111},{"id":2955499,"name":"warsaw landing","country":"us","lat":32.295,"lon":-91.5294444},{"id":2955408,"name":"u and i landing","country":"us","lat":31.7694444,"lon":-91.5611111},{"id":2954688,"name":"oakwood landing","country":"us","lat":32.0605556,"lon":-91.5747222},{"id":2953368,"name":"de loach","country":"us","lat":32.4483333,"lon":-92.1047222},{"id":2953637,"name":"fort necessity","country":"us","lat":32.0477778,"lon":-91.8177778},{"id":2955598,"name":"wood junction","country":"us","lat":32.3419444,"lon":-92.4113889},{"id":2953382,"name":"dehlco","country":"us","lat":32.3963889,"lon":-91.7694444},{"id":2955498,"name":"warsaw ferry","country":"us","lat":32.2975,"lon":-91.5269444},{"id":2954358,"name":"maitland","country":"us","lat":31.7569444,"lon":-91.6097222},{"id":2953034,"name":"buie","country":"us","lat":32.05,"lon":-91.8583333},{"id":2955285,"name":"summerville","country":"us","lat":31.7552778,"lon":-92.1622222},{"id":2953151,"name":"charlieville","country":"us","lat":32.3066667,"lon":-91.9191667},{"id":2952735,"name":"athlone","country":"us","lat":31.6102778,"lon":-91.7375},{"id":2954308,"name":"lorelein","country":"us","lat":32.0938889,"lon":-91.5527778},{"id":2955467,"name":"vixen","country":"us","lat":32.2341667,"lon":-92.2686111},{"id":2955219,"name":"southwinds","country":"us","lat":32.4783333,"lon":-92.0386111},{"id":2952714,"name":"archie","country":"us","lat":31.5797222,"lon":-91.9672222},{"id":2953731,"name":"girard","country":"us","lat":32.4816667,"lon":-91.8063889},{"id":2954970,"name":"rilla","country":"us","lat":32.4152778,"lon":-92.1008333},{"id":2953712,"name":"georgetown","country":"us","lat":31.7608333,"lon":-92.3844444},{"id":2953407,"name":"dickey landing","country":"us","lat":32.0888889,"lon":-91.5902778},{"id":2955567,"name":"wilds","country":"us","lat":32.4319444,"lon":-92.175},{"id":2954578,"name":"nebo","country":"us","lat":31.5886111,"lon":-92.1416667},{"id":2954258,"name":"lincoln park","country":"us","lat":32.4555556,"lon":-92.0869444},{"id":2955555,"name":"white sulphur springs","country":"us","lat":31.6013889,"lon":-92.2730556},{"id":2954989,"name":"robinson place","country":"us","lat":32.4461111,"lon":-92.0988889},{"id":2952763,"name":"ballina","country":"us","lat":31.6661111,"lon":-91.6791667},{"id":2955017,"name":"rosefield","country":"us","lat":31.8980556,"lon":-92.0072222},{"id":2954253,"name":"liddieville","country":"us","lat":32.1355556,"lon":-91.8455556},{"id":2954204,"name":"lavacco","country":"us","lat":31.5588889,"lon":-91.9888889},{"id":2954530,"name":"morville","country":"us","lat":31.5080556,"lon":-91.525},{"id":2955424,"name":"urania","country":"us","lat":31.8636111,"lon":-92.2958333},{"id":2952759,"name":"bakers","country":"us","lat":32.3411111,"lon":-91.5211111},{"id":2954068,"name":"jonesville","country":"us","lat":31.6263889,"lon":-91.8180556},{"id":2954558,"name":"murray junction","country":"us","lat":31.8958333,"lon":-92.4877778},{"id":2954612,"name":"nickel","country":"us","lat":31.8091667,"lon":-92.0538889},{"id":2954711,"name":"olympic landing","country":"us","lat":31.7577778,"lon":-91.5505556},{"id":2955388,"name":"trout","country":"us","lat":31.6955556,"lon":-92.1786111},{"id":2953302,"name":"craig landing","country":"us","lat":31.9763889,"lon":-91.6086111},{"id":2954367,"name":"mangham","country":"us","lat":32.3088889,"lon":-91.7747222},{"id":2953644,"name":"foules","country":"us","lat":31.8222222,"lon":-91.595},{"id":2953959,"name":"holum","country":"us","lat":31.9966667,"lon":-92.0833333},{"id":2953281,"name":"cotton plant","country":"us","lat":32.1058333,"lon":-92.2661111},{"id":2953820,"name":"griffin","country":"us","lat":32.0375,"lon":-91.5669444},{"id":2953175,"name":"chester","country":"us","lat":32.1113889,"lon":-92.3130556},{"id":2954368,"name":"manifest","country":"us","lat":31.71,"lon":-91.9619444},{"id":2952888,"name":"big a plenty landing","country":"us","lat":31.8941667,"lon":-91.5719444},{"id":2952787,"name":"baskin","country":"us","lat":32.2588889,"lon":-91.7475},{"id":2953668,"name":"frogmore","country":"us","lat":31.6030556,"lon":-91.6702778},{"id":2953309,"name":"crescent landing","country":"us","lat":31.8597222,"lon":-91.5697222},{"id":2953325,"name":"crowville","country":"us","lat":32.2405556,"lon":-91.59},{"id":2955634,"name":"zion","country":"us","lat":31.7827778,"lon":-92.4894444},{"id":2955086,"name":"sand spur","country":"us","lat":31.5794444,"lon":-92.4133333},{"id":2953793,"name":"grayson","country":"us","lat":32.0497222,"lon":-92.1091667},{"id":2955323,"name":"tansey","country":"us","lat":31.8263889,"lon":-92.3819444},{"id":2952838,"name":"belah","country":"us","lat":31.6458333,"lon":-92.1813889},{"id":2953216,"name":"cobb","country":"us","lat":32.4008333,"lon":-92.1186111},{"id":2955571,"name":"willetts","country":"us","lat":31.5083333,"lon":-91.5272222},{"id":2954966,"name":"ridgecrest","country":"us","lat":31.6027778,"lon":-91.5277778},{"id":2953332,"name":"curry","country":"us","lat":31.8622222,"lon":-92.44},{"id":2954471,"name":"millhaven","country":"us","lat":32.4966667,"lon":-91.9902778},{"id":2954393,"name":"martins landing","country":"us","lat":31.8341667,"lon":-91.5688889},{"id":2955485,"name":"wallace ridge","country":"us","lat":31.7094444,"lon":-91.8272222},{"id":2952831,"name":"bee bayou","country":"us","lat":32.4730556,"lon":-91.6955556},{"id":2953494,"name":"elam","country":"us","lat":31.9547222,"lon":-91.6566667},{"id":2954961,"name":"richwood","country":"us","lat":32.4486111,"lon":-92.0847222},{"id":2953072,"name":"camp hardtner","country":"us","lat":31.6311111,"lon":-92.3991667},{"id":2953930,"name":"hill","country":"us","lat":32.0827778,"lon":-92.4194444},{"id":2955321,"name":"tanglewood","country":"us","lat":32.4577778,"lon":-92.0616667},{"id":2954606,"name":"newport","country":"us","lat":32.0825,"lon":-92.3680556},{"id":2955492,"name":"walters","country":"us","lat":31.5472222,"lon":-91.9958333},{"id":2953807,"name":"greenville","country":"us","lat":31.7927778,"lon":-91.5791667},{"id":2954057,"name":"jigger","country":"us","lat":32.0347222,"lon":-91.7466667},{"id":2955596,"name":"womack","country":"us","lat":32.2380556,"lon":-92.4727778},{"id":2954544,"name":"mount moriah","country":"us","lat":32.2866667,"lon":-92.4133333},{"id":2955319,"name":"tama","country":"us","lat":32.3269444,"lon":-92.2555556},{"id":2954694,"name":"okaloosa","country":"us","lat":32.38,"lon":-92.3277778},{"id":2955119,"name":"seven runs crossing","country":"us","lat":32.1977778,"lon":-92.2669444},{"id":2955042,"name":"sacksonia","country":"us","lat":32.4663889,"lon":-91.6019444},{"id":2955636,"name":"zoar","country":"us","lat":32.1791667,"lon":-92.3794444},{"id":2954895,"name":"pulpwood spur","country":"us","lat":32.0777778,"lon":-92.1055556},{"id":2955528,"name":"west heights","country":"us","lat":32.4913889,"lon":-92.1766667},{"id":2954806,"name":"pino bayou village","country":"us","lat":32.4591667,"lon":-92.0786111},{"id":2954546,"name":"mount pleasant","country":"us","lat":32.1355556,"lon":-92.1805556},{"id":2953597,"name":"fishville","country":"us","lat":31.5213889,"lon":-92.3619444},{"id":2953580,"name":"fellowship","country":"us","lat":31.6344444,"lon":-92.195},{"id":2953725,"name":"gilbert","country":"us","lat":32.0491667,"lon":-91.6580556},{"id":2952691,"name":"anchor landing","country":"us","lat":31.8497222,"lon":-91.5697222},{"id":2953079,"name":"cane","country":"us","lat":31.6438889,"lon":-92.0194444},{"id":2955632,"name":"zenoria","country":"us","lat":31.7461111,"lon":-92.3366667},{"id":2953269,"name":"corey","country":"us","lat":32.2225,"lon":-92.11},{"id":2955487,"name":"waller landing","country":"us","lat":32.0413889,"lon":-91.6269444},{"id":2954884,"name":"prichard","country":"us","lat":31.7994444,"lon":-91.8775},{"id":2953990,"name":"hunter landing","country":"us","lat":31.7530556,"lon":-91.5830556},{"id":2954626,"name":"norris springs","country":"us","lat":31.8575,"lon":-91.7138889},{"id":2953603,"name":"flat creek","country":"us","lat":31.9711111,"lon":-92.3908333},{"id":2954016,"name":"indian village","country":"us","lat":32.4727778,"lon":-92.4116667},{"id":2955312,"name":"talbot landing","country":"us","lat":32.0888889,"lon":-91.5605556},{"id":2955225,"name":"spaulding","country":"us","lat":31.9475,"lon":-92.1825},{"id":2954899,"name":"quaid","country":"us","lat":31.6755556,"lon":-91.8125},{"id":2953755,"name":"good pine","country":"us","lat":31.6930556,"lon":-92.1619444},{"id":2955245,"name":"standard","country":"us","lat":31.9175,"lon":-92.22},{"id":2953165,"name":"chelly landing","country":"us","lat":32.1641667,"lon":-91.5677778},{"id":2955427,"name":"utility","country":"us","lat":31.6022222,"lon":-91.8886111},{"id":2954407,"name":"mayhew landing","country":"us","lat":31.7608333,"lon":-91.5894444},{"id":2955385,"name":"trinity","country":"us","lat":31.6319444,"lon":-91.8108333},{"id":2953906,"name":"hester","country":"us","lat":31.7388889,"lon":-92.3291667},{"id":2953015,"name":"brownsville","country":"us","lat":32.4869444,"lon":-92.1541667},{"id":2953467,"name":"east parkview","country":"us","lat":32.4936111,"lon":-92.0788889},{"id":2954113,"name":"kings oaks","country":"us","lat":32.4416667,"lon":-92.0930556},{"id":2953693,"name":"garden park","country":"us","lat":32.4686111,"lon":-92.0597222},{"id":2953177,"name":"chevey chase","country":"us","lat":31.6294444,"lon":-91.7655556},{"id":2954842,"name":"pollock","country":"us","lat":31.5255556,"lon":-92.4069444},{"id":2953894,"name":"hedgeland landing","country":"us","lat":31.8697222,"lon":-91.5808333},{"id":2954265,"name":"lismore","country":"us","lat":31.5155556,"lon":-91.7719444},{"id":2954052,"name":"jena","country":"us","lat":31.6830556,"lon":-92.1336111},{"id":2953951,"name":"holly grove","country":"us","lat":31.9277778,"lon":-91.7033333},{"id":2953110,"name":"cartwright","country":"us","lat":32.4677778,"lon":-92.4697222},{"id":2954065,"name":"jones landing","country":"us","lat":31.8825,"lon":-91.7783333},{"id":2954220,"name":"lee bayou","country":"us","lat":31.7630556,"lon":-91.5602778},{"id":2954952,"name":"rhinehart","country":"us","lat":31.6375,"lon":-92.0066667},{"id":2955511,"name":"webb quarters","country":"us","lat":31.6725,"lon":-92.1563889},{"id":2954237,"name":"lenwil","country":"us","lat":32.4372222,"lon":-92.2244444},{"id":2954118,"name":"kirks landing","country":"us","lat":31.8644444,"lon":-91.5736111},{"id":2953158,"name":"chatham","country":"us","lat":32.3061111,"lon":-92.4502778},{"id":2953519,"name":"eltringham landing","country":"us","lat":31.8077778,"lon":-91.5761111},{"id":2955059,"name":"saint genevieve","country":"us","lat":31.5263889,"lon":-91.5255556},{"id":2953890,"name":"hebert","country":"us","lat":32.1825,"lon":-91.9908333},{"id":2954014,"name":"indian landing","country":"us","lat":32.28,"lon":-91.5233333},{"id":2954931,"name":"red gum","country":"us","lat":31.68,"lon":-91.5341667},{"id":2954302,"name":"longview","country":"us","lat":32.2619444,"lon":-91.5780556},{"id":2953155,"name":"chase","country":"us","lat":32.0969444,"lon":-91.6988889},{"id":2952687,"name":"anabel","country":"us","lat":32.2930556,"lon":-92.2508333},{"id":2953836,"name":"guyton","country":"us","lat":32.4130556,"lon":-92.3772222},{"id":2953689,"name":"ganeyville","country":"us","lat":31.72,"lon":-92.2811111},{"id":2955253,"name":"start","country":"us","lat":32.4863889,"lon":-91.8591667},{"id":2955112,"name":"security","country":"us","lat":31.5341667,"lon":-91.8163889},{"id":2954763,"name":"peck","country":"us","lat":31.925,"lon":-91.6611111},{"id":2953328,"name":"cuba","country":"us","lat":32.2838889,"lon":-92.0966667},{"id":2953451,"name":"dunn","country":"us","lat":32.4641667,"lon":-91.5783333},{"id":2953198,"name":"clarks","country":"us","lat":32.0263889,"lon":-92.1388889},{"id":2954456,"name":"metropolis","country":"us","lat":31.9633333,"lon":-91.6911111},{"id":2952676,"name":"alphenia landing","country":"us","lat":31.8194444,"lon":-91.5705556},{"id":2955557,"name":"whitehall","country":"us","lat":31.6241667,"lon":-92.0416667},{"id":2953875,"name":"harris landing","country":"us","lat":32.1105556,"lon":-91.5872222},{"id":2953479,"name":"eden","country":"us","lat":31.6538889,"lon":-92.215},{"id":2955030,"name":"royal","country":"us","lat":31.9858333,"lon":-92.4480556},{"id":2955395,"name":"tullos","country":"us","lat":31.8191667,"lon":-92.3297222},{"id":2952769,"name":"banks springs","country":"us","lat":32.0819444,"lon":-92.0927778},{"id":2952975,"name":"breezy hill","country":"us","lat":31.6602778,"lon":-92.4366667},{"id":2954187,"name":"lapine","country":"us","lat":32.3894444,"lon":-92.2525},{"id":2953977,"name":"howcott","country":"us","lat":31.6561111,"lon":-92.3888889},{"id":2953236,"name":"columbia","country":"us","lat":32.105,"lon":-92.0777778},{"id":2954356,"name":"maidco","country":"us","lat":32.4011111,"lon":-92.1108333},{"id":2952869,"name":"bentley","country":"us","lat":31.5155556,"lon":-92.4880556},{"id":2953030,"name":"buckner","country":"us","lat":32.3008333,"lon":-91.9386111},{"id":2954926,"name":"rayville","country":"us","lat":32.4772222,"lon":-91.7547222},{"id":2955299,"name":"swampers","country":"us","lat":32.1908333,"lon":-91.5708333},{"id":2955110,"name":"searcy","country":"us","lat":31.705,"lon":-92.2280556},{"id":2955594,"name":"winnsboro","country":"us","lat":32.1630556,"lon":-91.7205556},{"id":2953784,"name":"grandstaff","country":"us","lat":31.7744444,"lon":-92.3627778},{"id":2954591,"name":"new light","country":"us","lat":32.2611111,"lon":-91.7836111},{"id":2953533,"name":"enterprise","country":"us","lat":31.9030556,"lon":-91.8830556},{"id":2953537,"name":"erco","country":"us","lat":32.4066667,"lon":-92.1069444},{"id":2954980,"name":"riverton","country":"us","lat":32.1605556,"lon":-92.0961111},{"id":2954233,"name":"leland","country":"us","lat":31.8230556,"lon":-91.7213889},{"id":2952892,"name":"big creek","country":"us","lat":32.2916667,"lon":-91.7630556},{"id":2952952,"name":"bosco","country":"us","lat":32.29,"lon":-92.0888889},{"id":2954683,"name":"oakley landing","country":"us","lat":32.0311111,"lon":-91.6197222},{"id":2954181,"name":"lamar","country":"us","lat":32.3105556,"lon":-91.5402778},{"id":2953203,"name":"clayton","country":"us","lat":31.7225,"lon":-91.5430556},{"id":2954397,"name":"mason","country":"us","lat":32.0694444,"lon":-91.8869444},{"id":2955527,"name":"west ferriday","country":"us","lat":31.6402778,"lon":-91.5730556},{"id":2955026,"name":"routon","country":"us","lat":31.7019444,"lon":-92.0525},{"id":2954661,"name":"ok landing","country":"us","lat":31.7694444,"lon":-91.5605556},{"id":2955286,"name":"summit","country":"us","lat":32.3980556,"lon":-92.1766667},{"id":2952904,"name":"blade","country":"us","lat":31.6541667,"lon":-92.0527778},{"id":2953393,"name":"denmark landing","country":"us","lat":31.8,"lon":-91.5775},{"id":2955307,"name":"sycamore","country":"us","lat":31.6125,"lon":-91.5341667},{"id":2955166,"name":"sikes","country":"us","lat":32.0808333,"lon":-92.4866667},{"id":2953412,"name":"dixie landing","country":"us","lat":32.0533333,"lon":-91.5805556},{"id":2955149,"name":"sherwood","country":"us","lat":31.8502778,"lon":-91.9477778},{"id":2953575,"name":"farmland","country":"us","lat":31.5527778,"lon":-92.3938889},{"id":2953264,"name":"copeland landing","country":"us","lat":31.835,"lon":-91.5708333},{"id":2955242,"name":"stacy","country":"us","lat":31.6025,"lon":-91.6902778},{"id":2955510,"name":"webb","country":"us","lat":31.7319444,"lon":-91.9461111},{"id":2955161,"name":"sicily island","country":"us","lat":31.8463889,"lon":-91.6561111},{"id":2955293,"name":"sunrise landing","country":"us","lat":32.285,"lon":-91.5266667},{"id":2955133,"name":"sharp town","country":"us","lat":31.5822222,"lon":-92.1136111},{"id":2953237,"name":"columbia heights","country":"us","lat":32.0911111,"lon":-92.0891667},{"id":2953459,"name":"duty","country":"us","lat":31.915,"lon":-91.9238889},{"id":2953335,"name":"cut off landing","country":"us","lat":31.9963889,"lon":-91.6097222},{"id":2954709,"name":"olla","country":"us","lat":31.9027778,"lon":-92.2430556},{"id":2955269,"name":"stones landing","country":"us","lat":32.0847222,"lon":-91.5669444},{"id":2953876,"name":"harrisonburg","country":"us","lat":31.7719444,"lon":-91.8213889},{"id":2952788,"name":"baskinton","country":"us","lat":32.3111111,"lon":-91.6805556},{"id":2953727,"name":"gilleyville","country":"us","lat":32.3027778,"lon":-91.8944444},{"id":2955003,"name":"rogers","country":"us","lat":31.5322222,"lon":-92.225},{"id":2953243,"name":"como","country":"us","lat":32.0986111,"lon":-91.6025},{"id":2953561,"name":"extension","country":"us","lat":31.9705556,"lon":-91.8058333},{"id":2952680,"name":"alto","country":"us","lat":32.3575,"lon":-91.8597222},{"id":2955291,"name":"sunnybrook farms","country":"us","lat":32.4388889,"lon":-92.205}]});