callback({"markets":[{"id":760590,"name":"mahlsdorf","country":"de","lat":52.516667,"lon":13.616667},{"id":741545,"name":"gorkow","country":"de","lat":53.483333,"lon":14.166667},{"id":748691,"name":"hohenfelde","country":"de","lat":53.133333,"lon":14.266667},{"id":755386,"name":"kolonie scholz","country":"de","lat":52.533333,"lon":13.933333},{"id":748875,"name":"hohenstein","country":"de","lat":52.566667,"lon":13.966667},{"id":772078,"name":"prenzlau","country":"de","lat":53.316667,"lon":13.866667},{"id":757158,"name":"ladeburg","country":"de","lat":52.7,"lon":13.583333},{"id":743351,"name":"gross sperrenwalde","country":"de","lat":53.266667,"lon":13.75},{"id":764997,"name":"neufeld","country":"de","lat":52.633333,"lon":14.266667},{"id":786678,"name":"vietmannsdorf","country":"de","lat":53.05,"lon":13.533333},{"id":746023,"name":"heckelberg","country":"de","lat":52.733333,"lon":13.85},{"id":739103,"name":"friedrichswalde","country":"de","lat":53.033333,"lon":13.716667},{"id":753136,"name":"kirchenfeld","country":"de","lat":53.266667,"lon":14.216667},{"id":2273110,"name":"orzechow","country":"pl","lat":52.886957,"lon":14.286473},{"id":755258,"name":"kolonie britz","country":"de","lat":52.883333,"lon":13.833333},{"id":751419,"name":"joachimsthal","country":"de","lat":52.966667,"lon":13.75},{"id":770595,"name":"parstein","country":"de","lat":52.933333,"lon":14.033333},{"id":738699,"name":"fredersdorfer fliess","country":"de","lat":52.516667,"lon":13.75},{"id":786284,"name":"utzdorf","country":"de","lat":52.75,"lon":13.533333},{"id":727124,"name":"berkenlatten","country":"de","lat":53.15,"lon":13.75},{"id":775475,"name":"rothehaus","country":"de","lat":53.366667,"lon":13.516667},{"id":731588,"name":"caselow","country":"de","lat":53.45,"lon":14.133333},{"id":792309,"name":"zerpenschleuse","country":"de","lat":52.866667,"lon":13.516667},{"id":2270828,"name":"nawodna","country":"pl","lat":53.010991,"lon":14.400966},{"id":2288296,"name":"widuchowa","country":"pl","lat":53.126586,"lon":14.392845},{"id":770739,"name":"peetzig","country":"de","lat":53.083333,"lon":13.916667},{"id":789304,"name":"werbellin","country":"de","lat":52.9,"lon":13.7},{"id":754668,"name":"klinkow","country":"de","lat":53.333333,"lon":13.816667},{"id":743208,"name":"gross pinnow","country":"de","lat":53.183333,"lon":14.283333},{"id":759188,"name":"lindenweg siedlung","country":"de","lat":53.183333,"lon":14.066667},{"id":761094,"name":"marienwerder","country":"de","lat":52.85,"lon":13.6},{"id":784108,"name":"torfhaus","country":"de","lat":52.516667,"lon":13.85},{"id":749280,"name":"holzendorf","country":"de","lat":53.383333,"lon":13.766667},{"id":765874,"name":"neuwustrow","country":"de","lat":52.766667,"lon":14.216667},{"id":765774,"name":"neu tucheband","country":"de","lat":52.55,"lon":14.483333},{"id":731977,"name":"croustillier","country":"de","lat":52.8,"lon":14.116667},{"id":780733,"name":"sophienthal","country":"de","lat":52.65,"lon":14.45},{"id":730643,"name":"buchenhain","country":"de","lat":53.316667,"lon":13.55},{"id":755278,"name":"kolonie forst-joachimsthal","country":"de","lat":53.0,"lon":13.666667},{"id":748825,"name":"hohenreinkendorf","country":"de","lat":53.233333,"lon":14.333333},{"id":769844,"name":"ortwiger graben","country":"de","lat":52.716667,"lon":14.383333},{"id":748720,"name":"hohengustow","country":"de","lat":53.25,"lon":13.983333},{"id":791190,"name":"woldegk","country":"de","lat":53.466667,"lon":13.583333},{"id":2276240,"name":"porzecze","country":"pl","lat":52.677371,"lon":14.485575},{"id":2283725,"name":"stowen","country":"pl","lat":53.41361,"lon":14.431682},{"id":775305,"name":"rosenow","country":"de","lat":53.266667,"lon":13.516667},{"id":2258811,"name":"kamieniec","country":"pl","lat":53.309965,"lon":14.438134},{"id":734811,"name":"eberswalde-finow","country":"de","lat":52.833333,"lon":13.783333},{"id":731573,"name":"carolinenthal","country":"de","lat":53.466667,"lon":13.733333},{"id":726274,"name":"batzlow","country":"de","lat":52.633333,"lon":14.116667},{"id":739071,"name":"friedrichslust","country":"de","lat":52.55,"lon":13.716667},{"id":745247,"name":"hardenbeck","country":"de","lat":53.266667,"lon":13.55},{"id":722971,"name":"alaunwerk","country":"de","lat":52.783333,"lon":13.983333},{"id":2275834,"name":"polesiny","country":"pl","lat":53.048369,"lon":14.4798},{"id":747104,"name":"hermersdorf","country":"de","lat":52.566667,"lon":14.183333},{"id":779370,"name":"seefeld","country":"de","lat":52.616667,"lon":13.683333},{"id":791413,"name":"wollenberg","country":"de","lat":52.733333,"lon":13.966667},{"id":771857,"name":"poratz","country":"de","lat":53.066667,"lon":13.783333},{"id":769845,"name":"ortwig","country":"de","lat":52.7,"lon":14.35},{"id":780180,"name":"sietzing","country":"de","lat":52.65,"lon":14.283333},{"id":2268556,"name":"marwice","country":"pl","lat":53.170834,"lon":14.416939},{"id":773554,"name":"reichenow","country":"de","lat":52.65,"lon":14.066667},{"id":766120,"name":"niederfelde","country":"de","lat":53.15,"lon":14.25},{"id":727757,"name":"biesenbrow","country":"de","lat":53.116667,"lon":14.016667},{"id":759215,"name":"lindhorst","country":"de","lat":53.45,"lon":13.766667},{"id":751181,"name":"jamickow","country":"de","lat":53.166667,"lon":14.183333},{"id":732198,"name":"damerow","country":"de","lat":53.45,"lon":13.983333},{"id":755932,"name":"krackow","country":"de","lat":53.35,"lon":14.266667},{"id":743752,"name":"gruntal","country":"de","lat":52.75,"lon":13.716667},{"id":743310,"name":"gross schonebeck","country":"de","lat":52.9,"lon":13.516667},{"id":751128,"name":"jagow","country":"de","lat":53.416667,"lon":13.783333},{"id":748704,"name":"hohenfinow","country":"de","lat":52.816667,"lon":13.933333},{"id":724233,"name":"amselhain","country":"de","lat":52.633333,"lon":13.716667},{"id":731884,"name":"cothen","country":"de","lat":52.8,"lon":13.933333},{"id":728217,"name":"blankenburg","country":"de","lat":53.216667,"lon":13.933333},{"id":727130,"name":"berkholz","country":"de","lat":53.05,"lon":14.2},{"id":730325,"name":"bruchmuhle","country":"de","lat":52.55,"lon":13.783333},{"id":752751,"name":"kerkow","country":"de","lat":53.05,"lon":14.0},{"id":2255995,"name":"gustebiese","country":"pl","lat":52.766848,"lon":14.322012},{"id":723100,"name":"alexanderhohe","country":"de","lat":53.3,"lon":13.9},{"id":722788,"name":"ahlimbswalde","country":"de","lat":53.05,"lon":13.716667},{"id":781705,"name":"steinfurth","country":"de","lat":52.866667,"lon":13.666667},{"id":739376,"name":"funkenhagen","country":"de","lat":53.3,"lon":13.5},{"id":781968,"name":"sternfelde","country":"de","lat":53.0,"lon":13.966667},{"id":739030,"name":"friedrichsfelde","country":"de","lat":53.1,"lon":13.85},{"id":738988,"name":"friedingen","country":"de","lat":53.266667,"lon":14.05},{"id":755321,"name":"kolonie kienitz","country":"de","lat":52.85,"lon":13.516667},{"id":789458,"name":"wesendahl","country":"de","lat":52.6,"lon":13.816667},{"id":746480,"name":"heinrichshof","country":"de","lat":53.2,"lon":14.3},{"id":792459,"name":"ziemkendorf","country":"de","lat":53.316667,"lon":14.016667},{"id":724294,"name":"an der trift","country":"de","lat":52.883333,"lon":14.016667},{"id":740245,"name":"gellmersdorf","country":"de","lat":52.966667,"lon":14.05},{"id":783065,"name":"sydowswiese","country":"de","lat":52.65,"lon":14.466667},{"id":723052,"name":"albrechtshof","country":"de","lat":53.333333,"lon":14.116667},{"id":729199,"name":"bornicke","country":"de","lat":52.666667,"lon":13.633333},{"id":752919,"name":"kiehnwerder","country":"de","lat":52.633333,"lon":14.3},{"id":765607,"name":"neuschonfeld","country":"de","lat":53.25,"lon":14.3},{"id":763474,"name":"muencheberg","country":"de","lat":52.5,"lon":14.133333},{"id":771164,"name":"pfingstberg","country":"de","lat":53.133333,"lon":13.866667},{"id":751148,"name":"jahnsfelde","country":"de","lat":52.516667,"lon":14.233333},{"id":778075,"name":"schmolln","country":"de","lat":53.3,"lon":14.1},{"id":732341,"name":"dargersdorf","country":"de","lat":53.066667,"lon":13.55},{"id":728469,"name":"blumenhagen","country":"de","lat":53.116667,"lon":14.3},{"id":724012,"name":"alt temmen","country":"de","lat":53.1,"lon":13.75},{"id":763219,"name":"moospfuhl","country":"de","lat":53.266667,"lon":14.15},{"id":752947,"name":"kienitz","country":"de","lat":52.666667,"lon":14.433333},{"id":740715,"name":"gielsdorf","country":"de","lat":52.616667,"lon":13.866667},{"id":765329,"name":"neulietzegoricke","country":"de","lat":52.766667,"lon":14.25},{"id":781979,"name":"sternthal","country":"de","lat":53.216667,"lon":13.616667},{"id":789338,"name":"werftpfuhl","country":"de","lat":52.666667,"lon":13.783333},{"id":747337,"name":"herzsprung","country":"de","lat":52.983333,"lon":13.983333},{"id":2253965,"name":"godkow","country":"pl","lat":52.909783,"lon":14.430252},{"id":735533,"name":"eickstedt","country":"de","lat":53.3,"lon":14.05},{"id":765047,"name":"neuglietzen","country":"de","lat":52.833333,"lon":14.116667},{"id":732197,"name":"damerow","country":"de","lat":53.4,"lon":13.65},{"id":764262,"name":"nechlin","country":"de","lat":53.45,"lon":13.883333},{"id":751172,"name":"jakobshagen","country":"de","lat":53.2,"lon":13.566667},{"id":782729,"name":"stutzkow","country":"de","lat":53.0,"lon":14.183333},{"id":780048,"name":"siedlung","country":"de","lat":52.516667,"lon":14.383333},{"id":744136,"name":"guterberg","country":"de","lat":53.466667,"lon":13.766667},{"id":765061,"name":"neugrimnitz","country":"de","lat":52.983333,"lon":13.833333},{"id":725677,"name":"bagemuhl","country":"de","lat":53.366667,"lon":14.2},{"id":730500,"name":"brunow","country":"de","lat":52.733333,"lon":13.866667},{"id":732440,"name":"dauer","country":"de","lat":53.383333,"lon":13.916667},{"id":754580,"name":"kleptow","country":"de","lat":53.366667,"lon":14.0},{"id":2290022,"name":"wolczkowo","country":"pl","lat":53.475816,"lon":14.445109},{"id":731659,"name":"chorin","country":"de","lat":52.916667,"lon":13.866667},{"id":772703,"name":"radewitz","country":"de","lat":53.3,"lon":14.15},{"id":775334,"name":"rosow","country":"de","lat":53.3,"lon":14.383333},{"id":738628,"name":"frauenhagen","country":"de","lat":53.083333,"lon":14.033333},{"id":756544,"name":"kruge-gersdorf","country":"de","lat":52.766667,"lon":13.883333},{"id":727154,"name":"berlin-biesdorf","country":"de","lat":52.516667,"lon":13.55},{"id":742085,"name":"grauenhagen","country":"de","lat":53.4,"lon":13.55},{"id":778720,"name":"schulzenaue","country":"de","lat":52.716667,"lon":13.65},{"id":748079,"name":"hirschfelde","country":"de","lat":52.633333,"lon":13.8},{"id":728015,"name":"birkholzaue","country":"de","lat":52.633333,"lon":13.6},{"id":782419,"name":"strausberg","country":"de","lat":52.583333,"lon":13.883333},{"id":781970,"name":"sternhagen","country":"de","lat":53.25,"lon":13.8},{"id":723560,"name":"altenhof","country":"de","lat":52.916667,"lon":13.716667},{"id":723754,"name":"altglietzen","country":"de","lat":52.833333,"lon":14.083333},{"id":723862,"name":"altmadewitz","country":"de","lat":52.75,"lon":14.166667},{"id":747388,"name":"hessenhagen","country":"de","lat":53.116667,"lon":13.8},{"id":783066,"name":"sydow","country":"de","lat":52.733333,"lon":13.716667},{"id":783414,"name":"templin","country":"de","lat":53.116667,"lon":13.5},{"id":762894,"name":"moglin","country":"de","lat":52.666667,"lon":14.1},{"id":722856,"name":"ahrensnest","country":"de","lat":53.116667,"lon":13.6},{"id":788452,"name":"weggun","country":"de","lat":53.333333,"lon":13.566667},{"id":761839,"name":"mellenau","country":"de","lat":53.3,"lon":13.533333},{"id":727195,"name":"berlin-wartenberg","country":"de","lat":52.566667,"lon":13.516667},{"id":764934,"name":"neuentempel","country":"de","lat":52.5,"lon":14.316667},{"id":765786,"name":"neu-vogelsdorf","country":"de","lat":52.516667,"lon":13.766667},{"id":761873,"name":"melzow","country":"de","lat":53.183333,"lon":13.9},{"id":770799,"name":"penkun","country":"de","lat":53.3,"lon":14.25},{"id":765262,"name":"neukleinow","country":"de","lat":53.25,"lon":14.016667},{"id":727178,"name":"berlin-kaulsdorf","country":"de","lat":52.5,"lon":13.583333},{"id":758086,"name":"lebehn","country":"de","lat":53.366667,"lon":14.316667},{"id":780532,"name":"solikante","country":"de","lat":52.666667,"lon":14.333333},{"id":731676,"name":"christianenhof","country":"de","lat":53.366667,"lon":13.666667},{"id":738270,"name":"flieth","country":"de","lat":53.166667,"lon":13.816667},{"id":2270155,"name":"moryn","country":"pl","lat":52.858153,"lon":14.399095},{"id":783906,"name":"tiefensee","country":"de","lat":52.683333,"lon":13.85},{"id":727996,"name":"birkenstein","country":"de","lat":52.516667,"lon":13.65},{"id":766196,"name":"niederheide","country":"de","lat":52.516667,"lon":13.683333},{"id":2248405,"name":"cedynia","country":"pl","lat":52.877658,"lon":14.20314},{"id":755360,"name":"kolonie neuhonow","country":"de","lat":52.583333,"lon":13.733333},{"id":2244075,"name":"alt rudnitz","country":"pl","lat":52.83442,"lon":14.190398},{"id":731269,"name":"buschdorf","country":"de","lat":52.6,"lon":14.433333},{"id":737532,"name":"fahrenholz","country":"de","lat":53.45,"lon":13.75},{"id":741140,"name":"gneisenau","country":"de","lat":53.433333,"lon":13.7},{"id":761396,"name":"mathildenhof","country":"de","lat":53.266667,"lon":13.566667},{"id":754693,"name":"klobbicke","country":"de","lat":52.766667,"lon":13.8},{"id":724254,"name":"amtsfreiheit","country":"de","lat":52.566667,"lon":13.733333},{"id":732256,"name":"danewitz","country":"de","lat":52.733333,"lon":13.666667},{"id":761925,"name":"menkin","country":"de","lat":53.416667,"lon":14.2},{"id":784599,"name":"tuchen","country":"de","lat":52.75,"lon":13.783333},{"id":783221,"name":"tantow","country":"de","lat":53.266667,"lon":14.333333},{"id":762435,"name":"milmersdorf","country":"de","lat":53.116667,"lon":13.65},{"id":2275246,"name":"pniewo","country":"pl","lat":53.220201,"lon":14.484147},{"id":784290,"name":"trebenow","country":"de","lat":53.45,"lon":13.85},{"id":2245562,"name":"bielin","country":"pl","lat":52.826654,"lon":14.454259},{"id":2282875,"name":"staffelde","country":"pl","lat":53.270019,"lon":14.431702},{"id":744070,"name":"gusow","country":"de","lat":52.566667,"lon":14.35},{"id":764036,"name":"nadrensee","country":"de","lat":53.333333,"lon":14.35},{"id":729047,"name":"boock","country":"de","lat":53.483333,"lon":14.266667},{"id":765545,"name":"neurochlitz","country":"de","lat":53.283333,"lon":14.4},{"id":761688,"name":"mehrin-graben","country":"de","lat":52.683333,"lon":14.366667},{"id":748928,"name":"hohenwutzen","country":"de","lat":52.85,"lon":14.116667},{"id":727183,"name":"berlin-marzahn","country":"de","lat":52.55,"lon":13.55},{"id":739843,"name":"garzau","country":"de","lat":52.533333,"lon":13.95},{"id":732105,"name":"dahlwitz-hoppegarten","country":"de","lat":52.516667,"lon":13.666667},{"id":723851,"name":"altlietzegoricker loose","country":"de","lat":52.8,"lon":14.216667},{"id":2283666,"name":"stoki","country":"pl","lat":52.949004,"lon":14.34384},{"id":727161,"name":"berlin-falkenberg","country":"de","lat":52.566667,"lon":13.533333},{"id":739416,"name":"furstenau","country":"de","lat":53.333333,"lon":13.533333},{"id":730210,"name":"broichsdorf","country":"de","lat":52.816667,"lon":13.95},{"id":777874,"name":"schmagerow","country":"de","lat":53.433333,"lon":14.3},{"id":724048,"name":"altwustrow","country":"de","lat":52.766667,"lon":14.2},{"id":726264,"name":"battinsthal","country":"de","lat":53.333333,"lon":14.25},{"id":2251417,"name":"doluje mierzyn","country":"pl","lat":53.433333,"lon":14.4},{"id":724018,"name":"alttornow","country":"de","lat":52.783333,"lon":14.05},{"id":743159,"name":"gross neuendorf","country":"de","lat":52.7,"lon":14.416667},{"id":790351,"name":"wilhelmsaue","country":"de","lat":52.666667,"lon":14.35},{"id":777081,"name":"schapow","country":"de","lat":53.35,"lon":13.716667},{"id":782420,"name":"strausberg-vorstadt","country":"de","lat":52.533333,"lon":13.85},{"id":736919,"name":"ernsthof","country":"de","lat":52.6,"lon":14.016667},{"id":725509,"name":"bad freienwalde","country":"de","lat":52.783333,"lon":14.033333},{"id":780847,"name":"spechthausen","country":"de","lat":52.816667,"lon":13.783333},{"id":727223,"name":"bernau","country":"de","lat":52.666667,"lon":13.583333},{"id":773535,"name":"reichenberg","country":"de","lat":52.616667,"lon":14.116667},{"id":727762,"name":"biesenthal","country":"de","lat":52.766667,"lon":13.633333},{"id":789451,"name":"weselitz","country":"de","lat":53.266667,"lon":13.966667},{"id":766125,"name":"niederfinow","country":"de","lat":52.833333,"lon":13.933333},{"id":755322,"name":"kolonie klein dolln","country":"de","lat":53.0,"lon":13.5},{"id":740760,"name":"gieshof-mehrin-graben","country":"de","lat":52.716667,"lon":14.316667},{"id":774275,"name":"richterswalde","country":"de","lat":52.533333,"lon":13.9},{"id":746649,"name":"hellersdorf","country":"de","lat":52.533333,"lon":13.6},{"id":723840,"name":"altlandsberg-sud","country":"de","lat":52.55,"lon":13.75},{"id":737537,"name":"fahrenwalde","country":"de","lat":53.433333,"lon":14.066667},{"id":778386,"name":"schoneberg","country":"de","lat":53.0,"lon":14.133333},{"id":746472,"name":"heinrichsdorf","country":"de","lat":52.733333,"lon":14.233333},{"id":722650,"name":"adlig reetz","country":"de","lat":52.783333,"lon":14.15},{"id":760034,"name":"luckow","country":"de","lat":53.233333,"lon":14.216667},{"id":780597,"name":"sommerfelde","country":"de","lat":52.833333,"lon":13.866667},{"id":741737,"name":"gottesgabe","country":"de","lat":52.633333,"lon":14.183333},{"id":756605,"name":"krummenpfahl","country":"de","lat":52.783333,"lon":13.933333},{"id":727163,"name":"berlin-friedrichsfelde","country":"de","lat":52.516667,"lon":13.516667},{"id":755279,"name":"kolonie fredersdorf","country":"de","lat":52.5,"lon":13.716667},{"id":726195,"name":"barwinkel","country":"de","lat":52.616667,"lon":14.266667},{"id":777446,"name":"schiffmuhle","country":"de","lat":52.816667,"lon":14.05},{"id":740579,"name":"gerswalde","country":"de","lat":53.166667,"lon":13.766667},{"id":748692,"name":"hohenfelde","country":"de","lat":53.466667,"lon":14.316667},{"id":783408,"name":"tempelfelde","country":"de","lat":52.716667,"lon":13.716667},{"id":764855,"name":"neuenhagen","country":"de","lat":52.533333,"lon":13.683333},{"id":788148,"name":"warnitz","country":"de","lat":53.2,"lon":13.883333},{"id":747817,"name":"hinrichshagen","country":"de","lat":53.45,"lon":13.516667},{"id":742219,"name":"grenz","country":"de","lat":53.333333,"lon":14.05},{"id":790982,"name":"wittenhof","country":"de","lat":53.35,"lon":13.916667},{"id":2268600,"name":"marzkowo","country":"pl","lat":53.1,"lon":14.416667},{"id":742158,"name":"greiffenberg","country":"de","lat":53.083333,"lon":13.95},{"id":732298,"name":"dannenberg","country":"de","lat":52.783333,"lon":13.95},{"id":738872,"name":"freudenfeld","country":"de","lat":53.25,"lon":14.366667},{"id":792541,"name":"zinndorf","country":"de","lat":52.5,"lon":13.916667},{"id":760200,"name":"luisenthal","country":"de","lat":53.266667,"lon":13.816667},{"id":723055,"name":"albrechtsthal","country":"de","lat":53.083333,"lon":13.583333},{"id":2244800,"name":"barnislaw","country":"pl","lat":53.362682,"lon":14.411686},{"id":2274422,"name":"piasek","country":"pl","lat":52.978141,"lon":14.209783},{"id":789374,"name":"werneuchen","country":"de","lat":52.633333,"lon":13.733333},{"id":761698,"name":"meichow","country":"de","lat":53.183333,"lon":13.983333},{"id":790495,"name":"willmine","country":"de","lat":53.116667,"lon":13.766667},{"id":778894,"name":"schwaneberg","country":"de","lat":53.316667,"lon":14.116667},{"id":2279373,"name":"rurka","country":"pl","lat":52.992301,"lon":14.485507},{"id":763624,"name":"muhlhof","country":"de","lat":53.316667,"lon":13.8},{"id":770748,"name":"pehlitz","country":"de","lat":52.916667,"lon":13.983333},{"id":778495,"name":"schonow","country":"de","lat":52.683333,"lon":13.533333},{"id":755286,"name":"kolonie gladowshohe","country":"de","lat":52.55,"lon":13.95},{"id":731928,"name":"cremzow","country":"de","lat":53.366667,"lon":14.033333},{"id":783509,"name":"teufelsberg","country":"de","lat":52.866667,"lon":14.0},{"id":771009,"name":"petznick","country":"de","lat":53.166667,"lon":13.616667},{"id":2246489,"name":"book","country":"pl","lat":53.496467,"lon":14.355843},{"id":790414,"name":"wilkendorf","country":"de","lat":52.6,"lon":13.916667},{"id":755243,"name":"kolonie bernau sud","country":"de","lat":52.666667,"lon":13.55},{"id":765751,"name":"neutemmen","country":"de","lat":53.083333,"lon":13.783333},{"id":754787,"name":"klosterwalde","country":"de","lat":53.166667,"lon":13.566667},{"id":2280807,"name":"siadlo gorne","country":"pl","lat":53.350181,"lon":14.475093},{"id":758858,"name":"lichtenberg","country":"de","lat":53.383333,"lon":13.5},{"id":765347,"name":"neuluckow","country":"de","lat":53.25,"lon":14.216667},{"id":787914,"name":"wallmow","country":"de","lat":53.35,"lon":14.083333},{"id":774978,"name":"roggow","country":"de","lat":53.483333,"lon":14.05},{"id":742692,"name":"gross dolln","country":"de","lat":52.983333,"lon":13.516667},{"id":764941,"name":"neuenzoll","country":"de","lat":52.883333,"lon":14.116667},{"id":755352,"name":"kolonie neu bernau","country":"de","lat":52.683333,"lon":13.616667},{"id":726262,"name":"battin","country":"de","lat":53.35,"lon":14.166667},{"id":737880,"name":"fergitz","country":"de","lat":53.183333,"lon":13.833333},{"id":2277045,"name":"przyjezierze","country":"pl","lat":52.871106,"lon":14.387772},{"id":739885,"name":"gatow","country":"de","lat":53.116667,"lon":14.333333},{"id":791671,"name":"wrechen","country":"de","lat":53.383333,"lon":13.533333},{"id":740364,"name":"georginenau","country":"de","lat":53.416667,"lon":13.583333},{"id":762258,"name":"meyenburg","country":"de","lat":53.05,"lon":14.233333},{"id":762195,"name":"metzdorf","country":"de","lat":52.65,"lon":14.166667},{"id":727787,"name":"bietikow","country":"de","lat":53.266667,"lon":13.95},{"id":739505,"name":"gabow","country":"de","lat":52.816667,"lon":14.083333},{"id":728127,"name":"bismark","country":"de","lat":53.45,"lon":14.316667},{"id":771607,"name":"plowen","country":"de","lat":53.466667,"lon":14.266667},{"id":738235,"name":"flemmsdorf","country":"de","lat":53.033333,"lon":14.166667},{"id":792126,"name":"zechin","country":"de","lat":52.616667,"lon":14.466667},{"id":743764,"name":"grunz","country":"de","lat":53.283333,"lon":14.133333},{"id":752783,"name":"kerstenbruch","country":"de","lat":52.733333,"lon":14.266667},{"id":779339,"name":"seeberg","country":"de","lat":52.55,"lon":13.683333},{"id":723801,"name":"althuttendorf","country":"de","lat":52.966667,"lon":13.8},{"id":729922,"name":"breitzig","country":"de","lat":53.483333,"lon":13.9},{"id":759916,"name":"louisfelde","country":"de","lat":53.483333,"lon":13.8},{"id":2291186,"name":"zabnica","country":"pl","lat":53.283152,"lon":14.495924},{"id":2255158,"name":"greifenhagen","country":"pl","lat":53.253865,"lon":14.490097},{"id":731172,"name":"burgwall","country":"de","lat":52.666667,"lon":14.183333},{"id":777929,"name":"schmarsow","country":"de","lat":53.466667,"lon":13.933333},{"id":738944,"name":"friedefeld","country":"de","lat":53.316667,"lon":14.2},{"id":765551,"name":"neurosow","country":"de","lat":53.316667,"lon":14.4},{"id":779745,"name":"senftenhutte","country":"de","lat":52.933333,"lon":13.85},{"id":2244047,"name":"alt kustrinchen","country":"pl","lat":52.816667,"lon":14.166667},{"id":789221,"name":"wendtshof","country":"de","lat":52.816667,"lon":14.016667},{"id":791585,"name":"worin","country":"de","lat":52.516667,"lon":14.266667},{"id":728742,"name":"bogensee","country":"de","lat":52.766667,"lon":13.516667},{"id":786578,"name":"vevais","country":"de","lat":52.7,"lon":14.133333},{"id":747175,"name":"herrenstein","country":"de","lat":53.166667,"lon":13.7},{"id":779057,"name":"schwedt/oder","country":"de","lat":53.066667,"lon":14.3},{"id":2267460,"name":"lukowice","country":"pl","lat":52.909904,"lon":14.295893},{"id":791504,"name":"wolsickendorf","country":"de","lat":52.733333,"lon":13.933333},{"id":790390,"name":"wilhelmshohe","country":"de","lat":53.483333,"lon":13.55},{"id":792285,"name":"zepernick","country":"de","lat":52.65,"lon":13.55},{"id":732444,"name":"dauerthal","country":"de","lat":53.366667,"lon":13.966667},{"id":734883,"name":"eckard siedlung","country":"de","lat":52.866667,"lon":13.716667},{"id":789113,"name":"welsow","country":"de","lat":53.066667,"lon":14.0},{"id":775453,"name":"rotes luch","country":"de","lat":52.516667,"lon":14.033333},{"id":728481,"name":"blumenthal","country":"de","lat":52.65,"lon":13.916667},{"id":2264303,"name":"krzywin","country":"pl","lat":53.089312,"lon":14.459874},{"id":728397,"name":"blindow","country":"de","lat":53.366667,"lon":13.883333},{"id":742218,"name":"grenzdorf","country":"de","lat":53.45,"lon":14.35},{"id":760731,"name":"malchow","country":"de","lat":53.416667,"lon":13.916667},{"id":766306,"name":"niederlandin","country":"de","lat":53.083333,"lon":14.083333},{"id":2277700,"name":"radostow","country":"pl","lat":52.867512,"lon":14.228502},{"id":774079,"name":"retzin","country":"de","lat":53.416667,"lon":14.283333},{"id":782355,"name":"stramehl","country":"de","lat":53.416667,"lon":14.066667},{"id":734810,"name":"eberswalde","country":"de","lat":52.833333,"lon":13.833333},{"id":730913,"name":"bulowssiege","country":"de","lat":53.4,"lon":13.616667},{"id":764582,"name":"neubarnim","country":"de","lat":52.7,"lon":14.3},{"id":2279650,"name":"rynica","country":"pl","lat":53.0577,"lon":14.425726},{"id":758618,"name":"leopoldsthal","country":"de","lat":53.15,"lon":14.0},{"id":740382,"name":"geranienhof","country":"de","lat":52.7,"lon":14.4},{"id":747229,"name":"herrnhof","country":"de","lat":52.7,"lon":14.2},{"id":770633,"name":"passow","country":"de","lat":53.15,"lon":14.1},{"id":783785,"name":"thoringswerder","country":"de","lat":52.716667,"lon":14.216667},{"id":756545,"name":"kruge","country":"de","lat":52.75,"lon":13.883333},{"id":748745,"name":"hohenholz","country":"de","lat":53.35,"lon":14.316667},{"id":781914,"name":"stendell","country":"de","lat":53.15,"lon":14.166667},{"id":752304,"name":"kasekow","country":"de","lat":53.216667,"lon":14.216667},{"id":788422,"name":"weesow","country":"de","lat":52.65,"lon":13.716667},{"id":761691,"name":"mehrow","country":"de","lat":52.566667,"lon":13.616667},{"id":2273954,"name":"pargowo","country":"pl","lat":53.281702,"lon":14.432427},{"id":2277743,"name":"radun","country":"pl","lat":52.994656,"lon":14.245289},{"id":739761,"name":"gardziec","country":"de","lat":53.2,"lon":14.383333},{"id":723848,"name":"altlewin","country":"de","lat":52.7,"lon":14.266667},{"id":783252,"name":"tassdorf","country":"de","lat":52.5,"lon":13.783333},{"id":2283575,"name":"stettin polchow","country":"pl","lat":53.495833,"lon":14.480255},{"id":2273722,"name":"pacholeta","country":"pl","lat":53.160871,"lon":14.485598},{"id":724246,"name":"amt friedrichsaue","country":"de","lat":52.6,"lon":14.466667},{"id":764837,"name":"neuenfeld","country":"de","lat":53.433333,"lon":14.016667},{"id":743609,"name":"grumsin","country":"de","lat":53.0,"lon":13.85},{"id":734101,"name":"dreesch","country":"de","lat":53.3,"lon":13.966667},{"id":725878,"name":"bandelow","country":"de","lat":53.416667,"lon":13.85},{"id":732203,"name":"damitzow","country":"de","lat":53.283333,"lon":14.333333},{"id":764772,"name":"neueiche","country":"de","lat":52.55,"lon":13.583333},{"id":2268429,"name":"marienhof","country":"pl","lat":53.15,"lon":14.4},{"id":748841,"name":"hohensaaten","country":"de","lat":52.866667,"lon":14.15},{"id":790366,"name":"wilhelmsfelde","country":"de","lat":52.983333,"lon":14.033333},{"id":2283143,"name":"stare lysogorki","country":"pl","lat":52.786141,"lon":14.285417},{"id":2264803,"name":"kurzycko","country":"pl","lat":52.759601,"lon":14.46755},{"id":745157,"name":"hanne","country":"de","lat":52.533333,"lon":13.916667},{"id":2267061,"name":"lubiechow dolny","country":"pl","lat":52.911956,"lon":14.20459},{"id":759157,"name":"lindenhagen","country":"de","lat":53.233333,"lon":13.766667},{"id":764838,"name":"neuenfeld","country":"de","lat":53.35,"lon":14.35},{"id":736045,"name":"ellingen","country":"de","lat":53.35,"lon":13.833333},{"id":764863,"name":"neuenhauser","country":"de","lat":52.583333,"lon":14.35},{"id":759182,"name":"lindensee","country":"de","lat":53.25,"lon":13.633333},{"id":784219,"name":"trappenfelde","country":"de","lat":52.583333,"lon":13.65},{"id":791459,"name":"wollschow","country":"de","lat":53.4,"lon":14.2},{"id":764199,"name":"naugarten","country":"de","lat":53.316667,"lon":13.666667},{"id":780672,"name":"sonnenberg","country":"de","lat":53.4,"lon":14.316667},{"id":765514,"name":"neuranft","country":"de","lat":52.8,"lon":14.15},{"id":747170,"name":"herrensee","country":"de","lat":52.533333,"lon":13.883333},{"id":775486,"name":"rothemuhle","country":"de","lat":53.216667,"lon":14.033333},{"id":2276762,"name":"przeclaw","country":"pl","lat":53.374276,"lon":14.471559},{"id":779432,"name":"seelubbe","country":"de","lat":53.266667,"lon":13.9},{"id":739113,"name":"friedrich-wilhelm-hof","country":"de","lat":52.716667,"lon":13.733333},{"id":738051,"name":"finowfurt","country":"de","lat":52.85,"lon":13.683333},{"id":731640,"name":"charlottenhohe","country":"de","lat":53.266667,"lon":13.8},{"id":731566,"name":"carmzow","country":"de","lat":53.383333,"lon":14.05},{"id":728832,"name":"boitzenburg","country":"de","lat":53.266667,"lon":13.6},{"id":742380,"name":"grimme","country":"de","lat":53.433333,"lon":14.15},{"id":728889,"name":"bolkendorf","country":"de","lat":52.95,"lon":14.0},{"id":791104,"name":"woddow","country":"de","lat":53.383333,"lon":14.183333},{"id":791417,"name":"wollenthin","country":"de","lat":53.316667,"lon":13.916667},{"id":765770,"name":"neutrebbin","country":"de","lat":52.666667,"lon":14.233333},{"id":743990,"name":"gunterberg","country":"de","lat":53.1,"lon":13.966667},{"id":2271066,"name":"neu zarnow","country":"pl","lat":53.195289,"lon":14.4875},{"id":741707,"name":"gotschendorf","country":"de","lat":53.1,"lon":13.666667},{"id":2253554,"name":"glambeck","country":"pl","lat":53.477988,"lon":14.48288},{"id":765384,"name":"neumeichow","country":"de","lat":53.2,"lon":13.983333},{"id":772074,"name":"prenden","country":"de","lat":52.8,"lon":13.55},{"id":2287860,"name":"warzymice","country":"pl","lat":53.384964,"lon":14.462591},{"id":2285088,"name":"szczecin gumience","country":"pl","lat":53.419045,"lon":14.482947},{"id":770244,"name":"ottenhagen","country":"de","lat":53.416667,"lon":13.65},{"id":743023,"name":"gross kolpin","country":"de","lat":53.116667,"lon":13.666667},{"id":723952,"name":"altrosenthal","country":"de","lat":52.55,"lon":14.283333},{"id":788932,"name":"weisse taube","country":"de","lat":52.533333,"lon":13.516667},{"id":2285097,"name":"szczecinska","country":"pl","lat":53.487409,"lon":14.38614},{"id":789831,"name":"wetzenow","country":"de","lat":53.466667,"lon":14.083333},{"id":787780,"name":"waldsieversdorf","country":"de","lat":52.55,"lon":14.066667},{"id":790142,"name":"wiesengrund","country":"de","lat":52.533333,"lon":13.733333},{"id":735946,"name":"elisenhof","country":"de","lat":52.5,"lon":14.183333},{"id":724047,"name":"altwriezen","country":"de","lat":52.733333,"lon":14.2},{"id":723747,"name":"altgaul","country":"de","lat":52.733333,"lon":14.1},{"id":2292598,"name":"zelichow","country":"pl","lat":52.851933,"lon":14.292875},{"id":733462,"name":"dobberzin","country":"de","lat":53.016667,"lon":14.033333},{"id":790379,"name":"wilhelmshayn","country":"de","lat":53.383333,"lon":13.633333},{"id":759451,"name":"lobetal","country":"de","lat":52.733333,"lon":13.583333},{"id":743417,"name":"gross vater","country":"de","lat":53.0,"lon":13.55},{"id":760090,"name":"ludwigsburg","country":"de","lat":53.35,"lon":13.983333},{"id":772654,"name":"radebruck","country":"de","lat":52.566667,"lon":13.766667},{"id":745670,"name":"hassleben","country":"de","lat":53.216667,"lon":13.7},{"id":738953,"name":"friedenfelde","country":"de","lat":53.133333,"lon":13.733333},{"id":723936,"name":"altranft","country":"de","lat":52.766667,"lon":14.083333},{"id":788187,"name":"warthe","country":"de","lat":53.216667,"lon":13.5},{"id":748683,"name":"hoheneiche","country":"de","lat":52.566667,"lon":13.583333},{"id":771755,"name":"polssen","country":"de","lat":53.166667,"lon":13.983333},{"id":756691,"name":"kuckucksheim","country":"de","lat":53.116667,"lon":13.516667},{"id":756391,"name":"krochlendorff","country":"de","lat":53.283333,"lon":13.7},{"id":786651,"name":"vierraden","country":"de","lat":53.1,"lon":14.3},{"id":754130,"name":"klein neuendorf","country":"de","lat":52.666667,"lon":14.316667},{"id":748770,"name":"hohenlandin","country":"de","lat":53.083333,"lon":14.116667},{"id":765017,"name":"neufriedland","country":"de","lat":52.65,"lon":14.233333},{"id":755353,"name":"kolonie neu buch","country":"de","lat":52.633333,"lon":13.516667},{"id":778352,"name":"schonbruck","country":"de","lat":52.666667,"lon":13.533333},{"id":757080,"name":"kyritz","country":"de","lat":53.366667,"lon":14.35},{"id":2260458,"name":"klosow","country":"pl","lat":52.742211,"lon":14.463949},{"id":740961,"name":"glasow","country":"de","lat":53.383333,"lon":14.266667},{"id":757166,"name":"ladenthin","country":"de","lat":53.366667,"lon":14.383333},{"id":731985,"name":"crussow","country":"de","lat":53.0,"lon":14.083333},{"id":2250008,"name":"czelin","country":"pl","lat":52.736957,"lon":14.37971},{"id":769685,"name":"oltschlott","country":"de","lat":53.466667,"lon":13.5},{"id":739848,"name":"garzin","country":"de","lat":52.55,"lon":13.983333},{"id":759277,"name":"linow","country":"de","lat":53.383333,"lon":13.95},{"id":738867,"name":"freudenberg","country":"de","lat":52.7,"lon":13.816667},{"id":757063,"name":"kutzerow","country":"de","lat":53.433333,"lon":13.766667},{"id":780676,"name":"sonnenburg","country":"de","lat":52.75,"lon":14.033333},{"id":735403,"name":"eichenbrandt","country":"de","lat":52.633333,"lon":13.85},{"id":763895,"name":"murow","country":"de","lat":53.05,"lon":14.033333},{"id":2271186,"name":"nieder wutzow","country":"pl","lat":52.850966,"lon":14.144565},{"id":2289249,"name":"witnica","country":"pl","lat":52.867573,"lon":14.476358},{"id":749710,"name":"hornshagen","country":"de","lat":53.466667,"lon":13.683333},{"id":728576,"name":"bockenberg","country":"de","lat":53.133333,"lon":13.766667},{"id":765169,"name":"neuhof","country":"de","lat":53.266667,"lon":14.2},{"id":765326,"name":"neulewin","country":"de","lat":52.716667,"lon":14.283333},{"id":737617,"name":"falkenwalde","country":"de","lat":53.266667,"lon":14.0},{"id":764766,"name":"neuehuette","country":"de","lat":52.866667,"lon":13.85},{"id":2271172,"name":"nieder kranig","country":"pl","lat":53.031342,"lon":14.314221},{"id":784301,"name":"trebnitz","country":"de","lat":52.533333,"lon":14.216667},{"id":728907,"name":"bollersdorf","country":"de","lat":52.583333,"lon":14.05},{"id":781588,"name":"steinbeck","country":"de","lat":52.716667,"lon":13.916667},{"id":770950,"name":"petershagen","country":"de","lat":52.516667,"lon":13.783333},{"id":735090,"name":"egarsee","country":"de","lat":53.216667,"lon":13.55},{"id":2272497,"name":"ognica","country":"pl","lat":53.081838,"lon":14.370085},{"id":775106,"name":"rollberg","country":"de","lat":53.316667,"lon":14.066667},{"id":762101,"name":"mescherin","country":"de","lat":53.25,"lon":14.433333},{"id":754871,"name":"knehden","country":"de","lat":53.15,"lon":13.533333},{"id":771774,"name":"pomellen","country":"de","lat":53.35,"lon":14.383333},{"id":2257975,"name":"jelenin","country":"pl","lat":52.907791,"lon":14.485691},{"id":782741,"name":"suckow","country":"de","lat":53.166667,"lon":13.85},{"id":726513,"name":"beerbaum","country":"de","lat":52.733333,"lon":13.8},{"id":770583,"name":"parmen","country":"de","lat":53.35,"lon":13.583333},{"id":723942,"name":"altreetz","country":"de","lat":52.766667,"lon":14.166667},{"id":727773,"name":"biesow","country":"de","lat":52.683333,"lon":13.933333},{"id":2245563,"name":"bielinek","country":"pl","lat":52.939976,"lon":14.147826},{"id":755381,"name":"kolonie rontgental","country":"de","lat":52.65,"lon":13.533333},{"id":782625,"name":"struwenberg","country":"de","lat":52.833333,"lon":13.916667},{"id":725133,"name":"augustenfelde","country":"de","lat":52.983333,"lon":14.0},{"id":728451,"name":"blumberg","country":"de","lat":52.6,"lon":13.616667},{"id":723740,"name":"altgalow","country":"de","lat":53.0,"lon":14.166667},{"id":789306,"name":"werbelow","country":"de","lat":53.466667,"lon":13.866667},{"id":782442,"name":"strehlow","country":"de","lat":53.233333,"lon":13.833333},{"id":784114,"name":"torgelow","country":"de","lat":52.75,"lon":13.966667},{"id":781492,"name":"stegelitz","country":"de","lat":53.133333,"lon":13.85},{"id":778525,"name":"schonwerder","country":"de","lat":53.366667,"lon":13.85},{"id":723834,"name":"altkunkendorf","country":"de","lat":53.016667,"lon":13.883333},{"id":775267,"name":"rosenbeck","country":"de","lat":52.883333,"lon":13.633333},{"id":753395,"name":"klara-zetkin-siedlung","country":"de","lat":52.7,"lon":13.866667},{"id":759641,"name":"lohme","country":"de","lat":52.633333,"lon":13.666667},{"id":780728,"name":"sophienstadt","country":"de","lat":52.816667,"lon":13.583333},{"id":2269855,"name":"moczyly","country":"pl","lat":53.323006,"lon":14.465852},{"id":763152,"name":"moorhof","country":"de","lat":52.8,"lon":13.95},{"id":726511,"name":"beenz","country":"de","lat":53.25,"lon":13.733333},{"id":2249711,"name":"czachow","country":"pl","lat":52.912077,"lon":14.265581},{"id":742569,"name":"grossbarnim","country":"de","lat":52.683333,"lon":14.266667},{"id":728550,"name":"bochowslos","country":"de","lat":52.716667,"lon":14.183333},{"id":765303,"name":"neukustrinchen","country":"de","lat":52.8,"lon":14.166667},{"id":2291313,"name":"zackerick","country":"pl","lat":52.804981,"lon":14.248369},{"id":792164,"name":"zehnebeck","country":"de","lat":53.216667,"lon":14.05},{"id":743629,"name":"grunberg","country":"de","lat":53.35,"lon":14.15},{"id":773624,"name":"reiersdorf","country":"de","lat":53.05,"lon":13.65},{"id":748705,"name":"hohenfliess","country":"de","lat":52.55,"lon":13.833333},{"id":760112,"name":"ludwigshohe","country":"de","lat":53.3,"lon":14.083333},{"id":733608,"name":"dolgelin","country":"de","lat":52.5,"lon":14.416667},{"id":765175,"name":"neuhohenschonhausen","country":"de","lat":52.55,"lon":13.5},{"id":757727,"name":"langsow","country":"de","lat":52.566667,"lon":14.4},{"id":756833,"name":"kuhz","country":"de","lat":53.233333,"lon":13.666667},{"id":748859,"name":"hohenselchow","country":"de","lat":53.2,"lon":14.283333},{"id":779813,"name":"serwest","country":"de","lat":52.95,"lon":13.933333},{"id":726389,"name":"beauregard","country":"de","lat":52.733333,"lon":14.216667},{"id":728453,"name":"blumberg-elisenau","country":"de","lat":52.65,"lon":13.616667},{"id":792797,"name":"zusedom","country":"de","lat":53.45,"lon":14.016667},{"id":755301,"name":"kolonie herrenhorst","country":"de","lat":52.55,"lon":13.9},{"id":772663,"name":"radekow","country":"de","lat":53.3,"lon":14.35},{"id":756733,"name":"kuhdamm","country":"de","lat":53.316667,"lon":13.833333},{"id":763071,"name":"monchsheim","country":"de","lat":52.5,"lon":13.65},{"id":723821,"name":"altkietz","country":"de","lat":52.716667,"lon":14.15},{"id":2262298,"name":"konigsberg in neumark","country":"pl","lat":52.962681,"lon":14.433514},{"id":775944,"name":"rummelsburg","country":"de","lat":52.5,"lon":13.516667},{"id":787292,"name":"vossberg","country":"de","lat":52.633333,"lon":14.383333},{"id":737877,"name":"ferdinandshof","country":"de","lat":53.25,"lon":13.75},{"id":738700,"name":"fredersdorf","country":"de","lat":52.5,"lon":13.733333},{"id":760726,"name":"malche","country":"de","lat":52.8,"lon":14.0},{"id":792365,"name":"zichow","country":"de","lat":53.183333,"lon":14.033333},{"id":792010,"name":"zackericker loose","country":"de","lat":52.783333,"lon":14.216667},{"id":788089,"name":"warbende","country":"de","lat":53.35,"lon":13.533333},{"id":774584,"name":"ringenwalde","country":"de","lat":52.616667,"lon":14.133333},{"id":758932,"name":"liebenhof","country":"de","lat":52.55,"lon":14.016667},{"id":758673,"name":"letschin","country":"de","lat":52.633333,"lon":14.366667},{"id":722787,"name":"ahlimbsmuhle","country":"de","lat":53.083333,"lon":13.616667},{"id":739432,"name":"furstenhagen","country":"de","lat":53.333333,"lon":13.5},{"id":781428,"name":"stecherschleuse","country":"de","lat":52.85,"lon":13.916667},{"id":730189,"name":"brodowin","country":"de","lat":52.916667,"lon":13.95},{"id":734148,"name":"drei kronen","country":"de","lat":52.65,"lon":14.3},{"id":730195,"name":"broellin","country":"de","lat":53.466667,"lon":14.05},{"id":2287919,"name":"wawelnica","country":"pl","lat":53.451178,"lon":14.412501},{"id":779149,"name":"schweizerhaus","country":"de","lat":52.566667,"lon":14.083333},{"id":727041,"name":"bergholz","country":"de","lat":53.45,"lon":14.166667},{"id":738568,"name":"frankfurter vorstadt","country":"de","lat":52.716667,"lon":14.133333},{"id":738590,"name":"franzenshof","country":"de","lat":52.716667,"lon":14.05},{"id":726210,"name":"basedow","country":"de","lat":53.333333,"lon":13.8},{"id":2246054,"name":"boblin","country":"pl","lat":53.395834,"lon":14.392392},{"id":764786,"name":"neue muhle","country":"de","lat":52.533333,"lon":13.833333},{"id":757765,"name":"lanke","country":"de","lat":52.766667,"lon":13.566667},{"id":777921,"name":"schmargendorf","country":"de","lat":52.983333,"lon":13.95},{"id":777588,"name":"schlagenthin","country":"de","lat":52.516667,"lon":14.083333},{"id":734204,"name":"drense","country":"de","lat":53.316667,"lon":13.983333},{"id":758715,"name":"leuenberg","country":"de","lat":52.7,"lon":13.883333},{"id":723026,"name":"albertshof","country":"de","lat":52.7,"lon":13.666667},{"id":768725,"name":"obersdorf","country":"de","lat":52.533333,"lon":14.166667},{"id":747456,"name":"hetzdorf","country":"de","lat":53.433333,"lon":13.716667},{"id":732504,"name":"dedelow","country":"de","lat":53.366667,"lon":13.783333},{"id":758882,"name":"lichtenhain","country":"de","lat":53.233333,"lon":13.6},{"id":781495,"name":"stegemannshof","country":"de","lat":53.333333,"lon":13.916667},{"id":758828,"name":"libbesicke","country":"de","lat":53.066667,"lon":13.666667},{"id":749063,"name":"hollander","country":"de","lat":52.5,"lon":13.683333},{"id":762409,"name":"mildenitz","country":"de","lat":53.466667,"lon":13.65},{"id":771972,"name":"potzlow","country":"de","lat":53.216667,"lon":13.85},{"id":777777,"name":"schliesskenberg","country":"de","lat":52.683333,"lon":14.25},{"id":765033,"name":"neugaul","country":"de","lat":52.75,"lon":14.133333},{"id":773453,"name":"rehfeldt","country":"de","lat":52.633333,"lon":14.433333},{"id":781826,"name":"steinrode","country":"de","lat":53.283333,"lon":13.516667},{"id":754351,"name":"klein sperrenwalde","country":"de","lat":53.283333,"lon":13.733333},{"id":723734,"name":"altfriedland","country":"de","lat":52.633333,"lon":14.216667},{"id":770581,"name":"parlow-glambeck","country":"de","lat":53.033333,"lon":13.766667},{"id":745530,"name":"haselberg","country":"de","lat":52.7,"lon":14.033333},{"id":731550,"name":"carlsfelde","country":"de","lat":53.483333,"lon":13.583333},{"id":2267057,"name":"lubicz","country":"pl","lat":53.123189,"lon":14.482699},{"id":765554,"name":"neurudnitz","country":"de","lat":52.8,"lon":14.183333},{"id":745342,"name":"harnekop","country":"de","lat":52.683333,"lon":14.016667},{"id":758465,"name":"lemmersdorf","country":"de","lat":53.45,"lon":13.7},{"id":759955,"name":"lubbenow","country":"de","lat":53.45,"lon":13.8},{"id":2278464,"name":"rogaczewo","country":"pl","lat":52.766667,"lon":14.45},{"id":727157,"name":"berlin-buch","country":"de","lat":52.65,"lon":13.5},{"id":765355,"name":"neumadewitz","country":"de","lat":52.733333,"lon":14.166667},{"id":727985,"name":"birkenhohe","country":"de","lat":52.65,"lon":13.6},{"id":737879,"name":"ferdinandshorst","country":"de","lat":53.366667,"lon":13.633333},{"id":730132,"name":"britz","country":"de","lat":52.883333,"lon":13.8},{"id":730307,"name":"bruchhagen","country":"de","lat":53.083333,"lon":13.966667},{"id":731527,"name":"canzow","country":"de","lat":53.466667,"lon":13.55},{"id":774699,"name":"rittgarten","country":"de","lat":53.383333,"lon":13.716667},{"id":782063,"name":"stiern","country":"de","lat":53.15,"lon":13.716667},{"id":758861,"name":"lichtenberg","country":"de","lat":52.516667,"lon":13.5},{"id":2252989,"name":"gadno","country":"pl","lat":52.854892,"lon":14.420743},{"id":789885,"name":"wichmannsdorf","country":"de","lat":53.25,"lon":13.65},{"id":773451,"name":"rehfelde","country":"de","lat":52.516667,"lon":13.9},{"id":761826,"name":"melchow","country":"de","lat":52.783333,"lon":13.716667},{"id":2249933,"name":"czartoryja","country":"pl","lat":52.946648,"lon":14.493115},{"id":735504,"name":"eichwerder","country":"de","lat":52.716667,"lon":14.2},{"id":731351,"name":"bussow","country":"de","lat":53.3,"lon":14.283333},{"id":726231,"name":"basta","country":"de","lat":52.6,"lon":14.4},{"id":770677,"name":"paulshof","country":"de","lat":52.583333,"lon":13.7},{"id":764724,"name":"neudorfchen","country":"de","lat":52.8,"lon":13.516667},{"id":745573,"name":"hasenholz","country":"de","lat":52.566667,"lon":14.016667},{"id":744362,"name":"hackenow","country":"de","lat":52.533333,"lon":14.466667},{"id":777715,"name":"schlepkow","country":"de","lat":53.433333,"lon":13.65},{"id":749483,"name":"honow","country":"de","lat":52.55,"lon":13.633333},{"id":780616,"name":"sommersdorf","country":"de","lat":53.283333,"lon":14.183333},{"id":746600,"name":"helenenau","country":"de","lat":52.633333,"lon":13.633333},{"id":772285,"name":"protzel","country":"de","lat":52.633333,"lon":13.983333},{"id":2264240,"name":"krzymow","country":"pl","lat":52.979075,"lon":14.328441},{"id":773089,"name":"rathsdorf","country":"de","lat":52.75,"lon":14.1},{"id":756297,"name":"krewitz","country":"de","lat":53.3,"lon":13.566667},{"id":779180,"name":"schwennenz","country":"de","lat":53.4,"lon":14.366667},{"id":756412,"name":"krohnhorst","country":"de","lat":53.166667,"lon":13.666667},{"id":765028,"name":"neugarten","country":"de","lat":53.4,"lon":13.5},{"id":737763,"name":"felchow","country":"de","lat":53.033333,"lon":14.116667},{"id":739446,"name":"furstenwerder","country":"de","lat":53.4,"lon":13.6},{"id":744082,"name":"gustebieser loose","country":"de","lat":52.75,"lon":14.3},{"id":738052,"name":"finow mark","country":"de","lat":52.833333,"lon":13.7},{"id":728376,"name":"bliesdorf","country":"de","lat":52.7,"lon":14.15},{"id":725141,"name":"augustfelde","country":"de","lat":53.4,"lon":13.7},{"id":726403,"name":"bebersee","country":"de","lat":53.016667,"lon":13.583333},{"id":742848,"name":"gross fredenwalde","country":"de","lat":53.133333,"lon":13.8},{"id":736419,"name":"engelsburg","country":"de","lat":53.133333,"lon":13.6},{"id":736726,"name":"erdmannswalde","country":"de","lat":53.133333,"lon":13.7},{"id":788442,"name":"wegendorf","country":"de","lat":52.6,"lon":13.75},{"id":724262,"name":"amt wollup","country":"de","lat":52.616667,"lon":14.416667},{"id":731939,"name":"criewen","country":"de","lat":53.016667,"lon":14.233333},{"id":760457,"name":"lutzlow","country":"de","lat":53.25,"lon":14.05},{"id":735468,"name":"eichhorst","country":"de","lat":52.9,"lon":13.633333},{"id":722847,"name":"ahrensfelde","country":"de","lat":52.583333,"lon":13.583333},{"id":791884,"name":"wuschewier","country":"de","lat":52.65,"lon":14.266667},{"id":775836,"name":"rudolfshohe","country":"de","lat":52.616667,"lon":13.75},{"id":775123,"name":"rollwitz","country":"de","lat":53.466667,"lon":13.983333},{"id":727745,"name":"biesdorf","country":"de","lat":52.716667,"lon":14.066667},{"id":775833,"name":"rudnitz","country":"de","lat":52.716667,"lon":13.616667},{"id":2292084,"name":"zaton dolny","country":"pl","lat":52.983333,"lon":14.25},{"id":791696,"name":"wuhlgarten","country":"de","lat":52.516667,"lon":13.566667},{"id":784207,"name":"trampe","country":"de","lat":52.783333,"lon":13.833333},{"id":741975,"name":"grambow","country":"de","lat":53.416667,"lon":14.333333},{"id":782287,"name":"storkow","country":"de","lat":53.316667,"lon":14.283333},{"id":2254989,"name":"grabowo","country":"pl","lat":53.009783,"lon":14.341425},{"id":776403,"name":"salzow","country":"de","lat":53.433333,"lon":14.25},{"id":739824,"name":"gartenstadt","country":"de","lat":52.6,"lon":13.9},{"id":765764,"name":"neutornow","country":"de","lat":52.816667,"lon":14.066667},{"id":752165,"name":"karlsbiese","country":"de","lat":52.733333,"lon":14.283333},{"id":733640,"name":"dollner siedlung","country":"de","lat":52.916667,"lon":13.516667},{"id":788191,"name":"wartin","country":"de","lat":53.25,"lon":14.15},{"id":2268303,"name":"mantel","country":"pl","lat":52.915218,"lon":14.354981},{"id":2244885,"name":"barwalde in neumark","country":"pl","lat":52.785218,"lon":14.495002},{"id":747631,"name":"hildebrandshagen","country":"de","lat":53.416667,"lon":13.616667},{"id":765832,"name":"neuwerbig","country":"de","lat":52.55,"lon":14.4},{"id":772220,"name":"pritzhagen","country":"de","lat":52.583333,"lon":14.1},{"id":2288672,"name":"wierzchlas","country":"pl","lat":52.826891,"lon":14.498551},{"id":741387,"name":"gollin","country":"de","lat":53.05,"lon":13.616667},{"id":724332,"name":"angermunde","country":"de","lat":53.033333,"lon":14.0},{"id":753428,"name":"klaushagen","country":"de","lat":53.233333,"lon":13.583333},{"id":791436,"name":"wollin","country":"de","lat":53.316667,"lon":14.216667},{"id":759008,"name":"lienken","country":"de","lat":53.466667,"lon":14.366667},{"id":740007,"name":"geesow","country":"de","lat":53.25,"lon":14.383333},{"id":747316,"name":"herzhorn","country":"de","lat":52.65,"lon":14.033333},{"id":775217,"name":"ropersdorf","country":"de","lat":53.283333,"lon":13.85},{"id":765550,"name":"neu rosenthal","country":"de","lat":52.616667,"lon":14.3},{"id":775396,"name":"rossow","country":"de","lat":53.466667,"lon":14.133333},{"id":769223,"name":"oderberg","country":"de","lat":52.866667,"lon":14.05},{"id":771488,"name":"platkow","country":"de","lat":52.583333,"lon":14.316667},{"id":2251415,"name":"dolsko","country":"pl","lat":52.89949,"lon":14.375635},{"id":781857,"name":"steintoch","country":"de","lat":52.616667,"lon":14.366667},{"id":2283155,"name":"stare objezierze","country":"pl","lat":52.873429,"lon":14.336353},{"id":753389,"name":"klandorf","country":"de","lat":52.883333,"lon":13.566667},{"id":759530,"name":"locknuz","country":"de","lat":53.45,"lon":14.216667},{"id":729502,"name":"bralitz","country":"de","lat":52.833333,"lon":14.0},{"id":778012,"name":"schmiedeberg","country":"de","lat":53.15,"lon":13.95},{"id":2266624,"name":"lisie pole","country":"pl","lat":53.027719,"lon":14.444022},{"id":749484,"name":"honow-sud","country":"de","lat":52.533333,"lon":13.633333},{"id":765332,"name":"neu lindenberg","country":"de","lat":52.6,"lon":13.55},{"id":2260866,"name":"kolbaskowo","country":"pl","lat":53.335869,"lon":14.439131},{"id":765084,"name":"neuhardenberg","country":"de","lat":52.6,"lon":14.25},{"id":723099,"name":"alexanderhof","country":"de","lat":53.3,"lon":13.916667},{"id":724249,"name":"amt kienitz","country":"de","lat":52.683333,"lon":14.4},{"id":771998,"name":"pradikow","country":"de","lat":52.633333,"lon":14.016667},{"id":754725,"name":"klosterdorf","country":"de","lat":52.583333,"lon":13.95},{"id":763109,"name":"monplaisir","country":"de","lat":53.066667,"lon":14.266667},{"id":744096,"name":"gustow","country":"de","lat":53.333333,"lon":13.783333},{"id":781972,"name":"sternkrug","country":"de","lat":52.733333,"lon":13.95},{"id":791430,"name":"wolletz","country":"de","lat":53.033333,"lon":13.883333},{"id":781964,"name":"sternebeck","country":"de","lat":52.666667,"lon":13.983333},{"id":2256437,"name":"hohenkranig","country":"pl","lat":53.017573,"lon":14.313316},{"id":765328,"name":"neu-lienken","country":"de","lat":53.45,"lon":14.366667},{"id":2254181,"name":"golice","country":"pl","lat":52.861836,"lon":14.261837},{"id":2247350,"name":"brusenfelde","country":"pl","lat":53.156794,"lon":14.436053},{"id":730538,"name":"brussow","country":"de","lat":53.4,"lon":14.133333},{"id":765939,"name":"nieden","country":"de","lat":53.433333,"lon":13.916667},{"id":2259961,"name":"klasztorne","country":"pl","lat":52.95,"lon":14.05},{"id":790534,"name":"wilsickow","country":"de","lat":53.483333,"lon":13.866667}]});