callback({"markets":[{"id":543109,"name":"nairi","country":"cn","lat":31.301,"lon":91.501},{"id":613559,"name":"wumaido","country":"cn","lat":30.501,"lon":91.701},{"id":480273,"name":"hare","country":"cn","lat":31.301,"lon":91.901},{"id":437016,"name":"chelong","country":"cn","lat":30.8,"lon":92.1},{"id":432162,"name":"caqupagdo","country":"cn","lat":31.2,"lon":92.2},{"id":532271,"name":"luoma gongshe","country":"cn","lat":31.201,"lon":91.801},{"id":610988,"name":"wenni","country":"cn","lat":31.2,"lon":92.1},{"id":542908,"name":"nabug","country":"cn","lat":31.001,"lon":92.101},{"id":549745,"name":"omatege","country":"cn","lat":31.401,"lon":91.901},{"id":564273,"name":"rikuo","country":"cn","lat":30.9,"lon":91.7},{"id":542909,"name":"nabu gongshe","country":"cn","lat":31.0,"lon":92.1},{"id":642560,"name":"youpu gongshe","country":"cn","lat":30.9,"lon":91.8},{"id":641532,"name":"yoiqag","country":"cn","lat":30.701,"lon":92.001},{"id":499557,"name":"jamka","country":"cn","lat":31.101,"lon":91.801},{"id":473782,"name":"gonyer","country":"cn","lat":30.6,"lon":91.5},{"id":564947,"name":"ruomoduo","country":"cn","lat":30.601,"lon":91.801},{"id":537220,"name":"maryong","country":"cn","lat":30.6,"lon":91.8},{"id":527124,"name":"lobzhakang","country":"cn","lat":30.6,"lon":91.9},{"id":512920,"name":"kulungpu","country":"cn","lat":31.3,"lon":92.3},{"id":463124,"name":"enni gongshe","country":"cn","lat":31.233333,"lon":92.1},{"id":446427,"name":"conyag","country":"cn","lat":31.1,"lon":91.8},{"id":478249,"name":"gyando","country":"cn","lat":30.7,"lon":92.1},{"id":563946,"name":"renmao gongshe","country":"cn","lat":31.402,"lon":92.002},{"id":500030,"name":"jiahong","country":"cn","lat":31.101,"lon":92.001},{"id":469172,"name":"gaidingogma","country":"cn","lat":30.7,"lon":92.0},{"id":457839,"name":"dongbodo","country":"cn","lat":30.7,"lon":92.3},{"id":564322,"name":"ringmo","country":"cn","lat":31.404,"lon":92.004},{"id":521968,"name":"lindi","country":"cn","lat":30.966667,"lon":92.466667},{"id":593483,"name":"tangmolungba","country":"cn","lat":30.803,"lon":91.603},{"id":510300,"name":"kena","country":"cn","lat":30.802,"lon":91.602},{"id":433066,"name":"chalukong","country":"cn","lat":31.166667,"lon":91.6},{"id":644695,"name":"yugta","country":"cn","lat":31.002,"lon":91.802},{"id":473128,"name":"golug","country":"cn","lat":30.8,"lon":91.65},{"id":543189,"name":"nakajue","country":"cn","lat":31.001,"lon":91.601},{"id":476854,"name":"gulu qu","country":"cn","lat":30.8,"lon":91.6},{"id":630544,"name":"xomongna","country":"cn","lat":31.002,"lon":91.602},{"id":537192,"name":"markudo","country":"cn","lat":31.001,"lon":91.801},{"id":450984,"name":"danda","country":"cn","lat":30.8,"lon":91.5},{"id":656536,"name":"zhuolongkongma","country":"cn","lat":31.133333,"lon":92.383333},{"id":599601,"name":"togru","country":"cn","lat":31.202,"lon":91.702},{"id":562819,"name":"quchangseng","country":"cn","lat":31.201,"lon":91.701},{"id":566151,"name":"sangle","country":"cn","lat":30.7,"lon":91.566667},{"id":431242,"name":"cangqen","country":"cn","lat":31.3,"lon":91.5},{"id":448362,"name":"dagsar","country":"cn","lat":31.202,"lon":92.202},{"id":563301,"name":"qutulong","country":"cn","lat":31.3,"lon":91.6},{"id":445094,"name":"chukayatang","country":"cn","lat":31.35,"lon":91.89},{"id":641659,"name":"yongduo","country":"cn","lat":31.0,"lon":91.7},{"id":480262,"name":"hara","country":"cn","lat":31.3,"lon":91.9},{"id":543187,"name":"nakagyog","country":"cn","lat":31.0,"lon":91.6},{"id":478281,"name":"gyarubtang","country":"cn","lat":31.333333,"lon":91.833333},{"id":511440,"name":"kongtog","country":"cn","lat":31.0,"lon":91.8},{"id":647104,"name":"zangbi","country":"cn","lat":30.701,"lon":92.301},{"id":448359,"name":"dagring","country":"cn","lat":31.283333,"lon":92.233333},{"id":565040,"name":"sacig","country":"cn","lat":30.901,"lon":91.601},{"id":642565,"name":"youpu","country":"cn","lat":30.901,"lon":91.801},{"id":443775,"name":"cholungkongma","country":"cn","lat":31.1,"lon":92.3},{"id":461507,"name":"dozig","country":"cn","lat":31.4,"lon":92.2},{"id":478203,"name":"gyahong","country":"cn","lat":31.1,"lon":92.0},{"id":564566,"name":"rongqen","country":"cn","lat":31.1,"lon":92.1},{"id":611545,"name":"wotuo gongshe","country":"cn","lat":31.4,"lon":92.4},{"id":559430,"name":"qigekug","country":"cn","lat":31.4,"lon":92.3},{"id":565061,"name":"sagar","country":"cn","lat":31.401,"lon":92.201},{"id":566073,"name":"sangdi","country":"cn","lat":30.7,"lon":91.6},{"id":611547,"name":"wotuo","country":"cn","lat":31.401,"lon":92.401},{"id":566147,"name":"sanglai gongshe","country":"cn","lat":30.7,"lon":91.5}]});