callback({"markets":[{"id":2921898,"name":"reilly heights","country":"us","lat":39.1097222,"lon":-123.5147222},{"id":2919702,"name":"glenblair","country":"us","lat":39.4577778,"lon":-123.7241667},{"id":2919829,"name":"gualala","country":"us","lat":38.7658333,"lon":-123.5269444},{"id":2917910,"name":"albion","country":"us","lat":39.2236111,"lon":-123.7675},{"id":2918679,"name":"caspar","country":"us","lat":39.3636111,"lon":-123.8147222},{"id":2919542,"name":"flumeville","country":"us","lat":38.9294444,"lon":-123.7086111},{"id":2919951,"name":"heeser addition","country":"us","lat":39.4152778,"lon":-123.7697222},{"id":2920740,"name":"manchester","country":"us","lat":38.9702778,"lon":-123.6869444},{"id":2921277,"name":"northspur","country":"us","lat":39.4227778,"lon":-123.5508333},{"id":2920864,"name":"melbourne","country":"us","lat":39.2833333,"lon":-123.6497222},{"id":2918828,"name":"cleone","country":"us","lat":39.49,"lon":-123.7844444},{"id":2920586,"name":"little river","country":"us","lat":39.2708333,"lon":-123.7872222},{"id":2920174,"name":"irmulco","country":"us","lat":39.4222222,"lon":-123.5163889},{"id":2920873,"name":"mendocino","country":"us","lat":39.3077778,"lon":-123.7983333},{"id":2919572,"name":"fort bragg","country":"us","lat":39.4458333,"lon":-123.8041667},{"id":2919824,"name":"grove","country":"us","lat":39.4369444,"lon":-123.6583333},{"id":2923034,"name":"wanhala","country":"us","lat":39.4708333,"lon":-123.5438889},{"id":2919376,"name":"elk","country":"us","lat":39.1302778,"lon":-123.7166667},{"id":2919646,"name":"gallaway","country":"us","lat":38.8691667,"lon":-123.6522222},{"id":2923133,"name":"whiskey springs","country":"us","lat":39.3633333,"lon":-123.6655556},{"id":2920191,"name":"iverson indian rancheria","country":"us","lat":38.9355556,"lon":-123.6825},{"id":2920762,"name":"marble place","country":"us","lat":39.4583333,"lon":-123.5713889},{"id":2921887,"name":"redwood lodge","country":"us","lat":39.4411111,"lon":-123.6894444},{"id":2923149,"name":"whitesboro","country":"us","lat":39.2147222,"lon":-123.7633333},{"id":2921161,"name":"navarro","country":"us","lat":39.1519444,"lon":-123.5408333},{"id":2918884,"name":"comptche","country":"us","lat":39.265,"lon":-123.59},{"id":2921290,"name":"noyo","country":"us","lat":39.4283333,"lon":-123.8022222},{"id":2917980,"name":"anchor bay","country":"us","lat":38.8027778,"lon":-123.5766667},{"id":2919517,"name":"fish rock","country":"us","lat":38.805,"lon":-123.5841667},{"id":2921692,"name":"point arena","country":"us","lat":38.9088889,"lon":-123.6919444},{"id":2922562,"name":"stronetta","country":"us","lat":38.9472222,"lon":-123.7013889}]});