callback({"markets":[{"id":157105,"name":"minerva","country":"au","lat":-23.966667,"lon":148.116667},{"id":154250,"name":"fernlees","country":"au","lat":-23.866667,"lon":148.116667},{"id":154067,"name":"emerald","country":"au","lat":-23.522961,"lon":148.157837},{"id":159663,"name":"springsure","country":"au","lat":-24.11478,"lon":148.088486},{"id":161604,"name":"yamala","country":"au","lat":-23.583333,"lon":148.366667},{"id":161317,"name":"withersfield","country":"au","lat":-23.566667,"lon":147.566667},{"id":154549,"name":"gindie","country":"au","lat":-23.733333,"lon":148.133333},{"id":161230,"name":"willows","country":"au","lat":-23.74365,"lon":147.542542},{"id":151024,"name":"anakie","country":"au","lat":-23.55,"lon":147.75}]});