callback({"markets":[{"id":299851,"name":"gangorras","country":"br","lat":-16.9,"lon":-42.616667},{"id":306551,"name":"minas novas","country":"br","lat":-17.25,"lon":-42.6},{"id":291343,"name":"botumirim","country":"br","lat":-16.866667,"lon":-43.016667},{"id":304519,"name":"leme do prado","country":"br","lat":-17.083333,"lon":-42.666667},{"id":306416,"name":"mendonca","country":"br","lat":-17.483333,"lon":-42.783333},{"id":301718,"name":"itacambira","country":"br","lat":-17.066667,"lon":-43.3},{"id":303389,"name":"josenopolis","country":"br","lat":-16.566667,"lon":-42.533333},{"id":300316,"name":"grao mogol","country":"br","lat":-16.566667,"lon":-42.9},{"id":296153,"name":"cristalia","country":"br","lat":-16.716667,"lon":-42.866667},{"id":315851,"name":"sao caetano","country":"br","lat":-17.483333,"lon":-42.716667},{"id":326575,"name":"terra branca","country":"br","lat":-17.316667,"lon":-43.2},{"id":327395,"name":"turmalina","country":"br","lat":-17.283333,"lon":-42.75},{"id":299328,"name":"folha larga","country":"br","lat":-17.066667,"lon":-42.983333},{"id":310078,"name":"peixe cru","country":"br","lat":-17.116667,"lon":-42.95},{"id":294697,"name":"chapada","country":"br","lat":-17.116667,"lon":-42.533333},{"id":290409,"name":"bem posta","country":"br","lat":-17.416667,"lon":-42.516667},{"id":311715,"name":"porto desejado","country":"br","lat":-17.033333,"lon":-42.8},{"id":292323,"name":"caicara","country":"br","lat":-17.25,"lon":-43.033333},{"id":290250,"name":"belarmino ferreira","country":"br","lat":-16.883333,"lon":-43.2}]});