callback({"markets":[{"id":2436497,"name":"kubanskaya pervaya","country":"ru","lat":44.604722,"lon":39.713611},{"id":2381960,"name":"burakovskiy","country":"ru","lat":45.456992,"lon":39.599048},{"id":2393903,"name":"dukmasov","country":"ru","lat":45.006292,"lon":39.91473},{"id":2426835,"name":"komsomolskaya","country":"ru","lat":44.67787,"lon":39.680049},{"id":2523213,"name":"sovkhoznyy","country":"ru","lat":44.5443,"lon":40.1528},{"id":2540878,"name":"tulskaya","country":"ru","lat":44.513611,"lon":40.178889},{"id":2546219,"name":"ust-labinskaya","country":"ru","lat":45.214355,"lon":39.690334},{"id":2483712,"name":"pako-nogorokovskiy","country":"ru","lat":44.933333,"lon":40.333333},{"id":2429671,"name":"koshelev","country":"ru","lat":44.811667,"lon":40.242222},{"id":2473656,"name":"novolabinskaya","country":"ru","lat":45.109557,"lon":39.893993},{"id":2465334,"name":"natsman vtoray","country":"ru","lat":44.791667,"lon":39.596667},{"id":2456376,"name":"maykop-poltavskiy","country":"ru","lat":44.802778,"lon":39.767778},{"id":2497028,"name":"prirechnyy","country":"ru","lat":44.5696,"lon":40.0893},{"id":2531657,"name":"svobodnyy trud","country":"ru","lat":44.980278,"lon":40.290278},{"id":2515936,"name":"shirokiy liman","country":"ru","lat":45.265,"lon":40.316667},{"id":2502729,"name":"rodniki","country":"ru","lat":44.739453,"lon":39.914097},{"id":2511252,"name":"sergeyevka","country":"ru","lat":44.688889,"lon":39.913333},{"id":2413183,"name":"kapustin","country":"ru","lat":44.898217,"lon":39.923959},{"id":2434249,"name":"krasnyy partizan","country":"ru","lat":45.099444,"lon":40.4375},{"id":2498425,"name":"pshekhskaya","country":"ru","lat":44.695966,"lon":39.79665},{"id":2383447,"name":"bzhedukhov","country":"ru","lat":44.541389,"lon":39.820278},{"id":2516832,"name":"shovgenovskiy","country":"ru","lat":45.010278,"lon":40.225},{"id":2441859,"name":"lantratov","country":"ru","lat":44.909623,"lon":39.925546},{"id":2425629,"name":"kollektiv","country":"ru","lat":45.204722,"lon":39.768889},{"id":2401289,"name":"goncharov","country":"ru","lat":44.983333,"lon":40.15},{"id":2474629,"name":"novo-rudenkov","country":"ru","lat":45.006944,"lon":40.075},{"id":2554253,"name":"vimovets","country":"ru","lat":45.30804,"lon":39.895854},{"id":2453928,"name":"mamatsev","country":"ru","lat":44.943197,"lon":39.990742},{"id":2496634,"name":"prichitovyy","country":"ru","lat":44.639167,"lon":40.198056},{"id":2487702,"name":"peschany","country":"ru","lat":45.257222,"lon":40.365},{"id":2392182,"name":"dondukovskaya","country":"ru","lat":44.881897,"lon":40.362708},{"id":2517969,"name":"sidorov","country":"ru","lat":45.035854,"lon":39.839082},{"id":2473670,"name":"novo-leninskiy","country":"ru","lat":44.833056,"lon":39.566667},{"id":2511460,"name":"sergiyevskoye","country":"ru","lat":44.801111,"lon":40.348611},{"id":2493314,"name":"polovnev","country":"ru","lat":44.75,"lon":40.3},{"id":2422980,"name":"kiyevskiy","country":"ru","lat":45.109167,"lon":39.803056},{"id":2557120,"name":"vostochnaya","country":"ru","lat":45.364868,"lon":39.779414},{"id":2523813,"name":"spivakov","country":"ru","lat":44.933056,"lon":39.966667},{"id":2498053,"name":"protochnyy","country":"ru","lat":44.865978,"lon":39.770164},{"id":2533536,"name":"tarasov","country":"ru","lat":44.808056,"lon":40.360278},{"id":2511319,"name":"sergeyev","country":"ru","lat":44.795556,"lon":39.559167},{"id":2488452,"name":"petrovka","country":"ru","lat":44.689167,"lon":39.865556},{"id":2453004,"name":"malyy dukmasov","country":"ru","lat":44.948346,"lon":39.874727},{"id":2521401,"name":"sokolov","country":"ru","lat":45.022778,"lon":40.368056},{"id":2370071,"name":"belorechenskaya","country":"ru","lat":44.767329,"lon":39.874236},{"id":2476739,"name":"novyy ayryum","country":"ru","lat":44.909167,"lon":40.179444},{"id":2426845,"name":"komsomolskiy","country":"ru","lat":44.901111,"lon":40.423333},{"id":2539689,"name":"truzhennik","country":"ru","lat":44.75,"lon":40.1},{"id":2530132,"name":"sultanov","country":"ru","lat":45.075556,"lon":39.758056},{"id":2456375,"name":"maykop","country":"ru","lat":44.607778,"lon":40.105833},{"id":2496509,"name":"preobrazhenskoye","country":"ru","lat":45.086039,"lon":39.627222},{"id":2511227,"name":"sergeyerskiy","country":"ru","lat":45.24,"lon":40.403889},{"id":2506475,"name":"sadovoye","country":"ru","lat":45.000838,"lon":39.698747},{"id":2570636,"name":"zheleznyy","country":"ru","lat":45.296948,"lon":39.560754},{"id":2566136,"name":"yuzhnyy","country":"ru","lat":44.721107,"lon":39.879184},{"id":2516529,"name":"shmatkov","country":"ru","lat":44.775833,"lon":39.633056},{"id":2434129,"name":"krasnyy most","country":"ru","lat":44.5422,"lon":40.107},{"id":2458659,"name":"mikhaylov","country":"ru","lat":44.973611,"lon":40.153333},{"id":2569344,"name":"zaytsev","country":"ru","lat":45.053333,"lon":39.579444},{"id":2474635,"name":"novorusov","country":"ru","lat":44.985556,"lon":40.145833},{"id":2411350,"name":"kalininskiy","country":"ru","lat":45.2,"lon":40.066667},{"id":2541841,"name":"tverskaya","country":"ru","lat":44.6084,"lon":39.6169},{"id":2458990,"name":"mikoyanovskiy","country":"ru","lat":45.483056,"lon":39.549722},{"id":2436306,"name":"kryuchkova balka","country":"ru","lat":45.433056,"lon":39.649722},{"id":2480947,"name":"orlov","country":"ru","lat":44.823056,"lon":40.367778},{"id":2449594,"name":"makhoshevskaya","country":"ru","lat":44.553611,"lon":40.446667},{"id":2510329,"name":"semenov","country":"ru","lat":45.221435,"lon":39.926447},{"id":2524579,"name":"stanichnaya","country":"ru","lat":45.446667,"lon":39.500556},{"id":2562199,"name":"yegerukhay","country":"ru","lat":44.9975,"lon":40.392222},{"id":2477256,"name":"novyy kavkaz","country":"ru","lat":44.733333,"lon":40.266667},{"id":2542369,"name":"tyunin","country":"ru","lat":45.149722,"lon":39.85},{"id":2425594,"name":"kolkhoznyy","country":"ru","lat":44.747778,"lon":40.302778},{"id":2541624,"name":"tuseyevo","country":"ru","lat":44.793056,"lon":39.811667},{"id":2459352,"name":"minim","country":"ru","lat":44.825833,"lon":40.331944},{"id":2535711,"name":"ternovyy","country":"ru","lat":44.682222,"lon":40.147778},{"id":2478446,"name":"obraztsov","country":"ru","lat":44.883056,"lon":40.191667},{"id":2397934,"name":"gabukay","country":"ru","lat":44.925304,"lon":39.5642},{"id":2465070,"name":"narkomzemovskiy","country":"ru","lat":44.733333,"lon":40.4},{"id":2397420,"name":"fokin pervyy","country":"ru","lat":45.013539,"lon":39.518258},{"id":2473051,"name":"novogorbokonevskiy","country":"ru","lat":44.744167,"lon":39.830556},{"id":2520397,"name":"smolchev-malinovskiy","country":"ru","lat":44.863333,"lon":40.429167},{"id":2417593,"name":"khapachev","country":"ru","lat":45.089167,"lon":40.236944},{"id":2477423,"name":"novyy","country":"ru","lat":44.934444,"lon":40.175278},{"id":2421570,"name":"kilimetov","country":"ru","lat":44.951111,"lon":40.1075},{"id":2360237,"name":"aleksandrovskiy","country":"ru","lat":44.768333,"lon":40.414444},{"id":2397266,"name":"finogenovskiy","country":"ru","lat":45.245833,"lon":40.004722},{"id":2383618,"name":"chakalov","country":"ru","lat":44.958348,"lon":39.966706},{"id":2562710,"name":"yelenovskoye","country":"ru","lat":45.081002,"lon":39.758662},{"id":2405246,"name":"guriyskaya","country":"ru","lat":44.651944,"lon":39.616944},{"id":2557449,"name":"vozdvizhenskaya","country":"ru","lat":45.124444,"lon":40.157222},{"id":2493881,"name":"pomorskiy","country":"ru","lat":44.874167,"lon":39.932778},{"id":2391734,"name":"dolgogusevskiy","country":"ru","lat":44.802398,"lon":39.788379},{"id":2391886,"name":"dolinov","country":"ru","lat":45.273889,"lon":40.117778},{"id":2411696,"name":"kalmykov","country":"ru","lat":44.680833,"lon":40.192778},{"id":2376929,"name":"bolshoy brodovoy","country":"ru","lat":44.97148,"lon":39.875494},{"id":2410464,"name":"kabardinskiy","country":"ru","lat":44.5502,"lon":39.5092},{"id":2394016,"name":"dunayskiy","country":"ru","lat":44.568889,"lon":39.8075},{"id":2473104,"name":"novoguriyskiy","country":"ru","lat":44.780551,"lon":39.656428},{"id":2502762,"name":"rodnikov","country":"ru","lat":45.226944,"lon":40.442778},{"id":2568407,"name":"zarevo","country":"ru","lat":44.990556,"lon":40.084444},{"id":2501130,"name":"rayazanskaya","country":"ru","lat":44.955279,"lon":39.588938},{"id":2569220,"name":"zaychanskiy","country":"ru","lat":45.267222,"lon":40.094722},{"id":2557680,"name":"vpered","country":"ru","lat":44.5421,"lon":39.7021},{"id":2498715,"name":"pulkherov","country":"ru","lat":45.121389,"lon":39.746667},{"id":2421211,"name":"khvorostyanka","country":"ru","lat":44.704167,"lon":39.631944},{"id":2485120,"name":"pasternakov","country":"ru","lat":44.833333,"lon":40.483333},{"id":2378955,"name":"borisov","country":"ru","lat":45.189444,"lon":40.436389},{"id":2436936,"name":"kudryavyy dub","country":"ru","lat":44.583333,"lon":39.659444},{"id":2453539,"name":"malyy kamluk","country":"ru","lat":44.838333,"lon":39.554722},{"id":2536897,"name":"tkachev","country":"ru","lat":44.724722,"lon":40.199444},{"id":2473206,"name":"novoivanovskay","country":"ru","lat":45.359722,"lon":40.3825},{"id":2372277,"name":"bezvodyy","country":"ru","lat":44.966667,"lon":40.033333},{"id":2424406,"name":"kobbyyev","country":"ru","lat":44.761667,"lon":39.611944},{"id":2479360,"name":"oktyabrskiy","country":"ru","lat":44.5797,"lon":40.0793},{"id":2453649,"name":"malyy","country":"ru","lat":44.935278,"lon":40.014444},{"id":2396741,"name":"feldfebelskiy","country":"ru","lat":45.099444,"lon":39.696389},{"id":2474838,"name":"novo-selovskoye","country":"ru","lat":45.267466,"lon":39.93541},{"id":2443348,"name":"leninskiy pervyy","country":"ru","lat":45.260556,"lon":40.058056},{"id":2542810,"name":"udobnyy","country":"ru","lat":44.5508,"lon":40.1583},{"id":2460756,"name":"mokronazarov","country":"ru","lat":44.982284,"lon":39.957411},{"id":2562473,"name":"yekaterinovskiy","country":"ru","lat":44.763056,"lon":40.353333},{"id":2529931,"name":"sukhoy log","country":"ru","lat":45.421944,"lon":40.093056},{"id":2436487,"name":"kuban","country":"ru","lat":45.3539,"lon":40.4105},{"id":2557152,"name":"vostochnyy sad","country":"ru","lat":44.627222,"lon":40.148889},{"id":2363813,"name":"arkhipovskoye","country":"ru","lat":45.007946,"lon":39.854623},{"id":2554871,"name":"vladislavskiy","country":"ru","lat":44.760278,"lon":40.4175},{"id":2398474,"name":"ganzhinskiy","country":"ru","lat":44.904205,"lon":39.681243},{"id":2510230,"name":"semeno-makarovskiy","country":"ru","lat":44.913611,"lon":40.185833},{"id":2543620,"name":"ulskiy","country":"ru","lat":44.74297,"lon":40.185446},{"id":2394400,"name":"dvenadtsatyy","country":"ru","lat":44.807778,"lon":39.607778},{"id":2403050,"name":"goverda","country":"ru","lat":44.6137,"lon":40.0252},{"id":2426866,"name":"komsomolskiy","country":"ru","lat":44.929909,"lon":39.710736},{"id":2528086,"name":"stepnoy","country":"ru","lat":44.847879,"lon":39.931985},{"id":2496637,"name":"prichtovskiy","country":"ru","lat":44.529444,"lon":40.147778},{"id":2482888,"name":"ovsyannikov","country":"ru","lat":45.166667,"lon":39.883056},{"id":2444011,"name":"lesogorskaya","country":"ru","lat":44.546944,"lon":39.540833},{"id":2447341,"name":"lukashev","country":"ru","lat":44.793284,"lon":39.777218},{"id":2472678,"name":"novobeysugskaya","country":"ru","lat":45.47195,"lon":39.88614},{"id":2414840,"name":"kartsev","country":"ru","lat":44.746944,"lon":40.356944},{"id":2545645,"name":"uspenskiy","country":"ru","lat":44.920833,"lon":39.960556},{"id":2475646,"name":"novo-vozdvizhenskiy","country":"ru","lat":45.1925,"lon":40.378889},{"id":2416627,"name":"kelermesskaya","country":"ru","lat":44.790743,"lon":40.131635},{"id":2434087,"name":"krasnyy lug","country":"ru","lat":44.716667,"lon":40.35},{"id":2360738,"name":"alexandrovsk","country":"ru","lat":45.251667,"lon":40.086111},{"id":2466104,"name":"nekrasovskaya","country":"ru","lat":45.144681,"lon":39.748678},{"id":2364813,"name":"atapin kalininskiy","country":"ru","lat":45.198889,"lon":40.052778},{"id":2410815,"name":"kaganovicheskiy","country":"ru","lat":45.466667,"lon":40.494444},{"id":2385723,"name":"chernigovskaya","country":"ru","lat":44.701669,"lon":39.66775},{"id":2466883,"name":"neyelenskiy","country":"ru","lat":45.283203,"lon":39.964936},{"id":2410738,"name":"kadukhin","country":"ru","lat":45.187499,"lon":39.809517},{"id":2421518,"name":"kikvidze","country":"ru","lat":45.383333,"lon":40.366667},{"id":2512374,"name":"shakhan","country":"ru","lat":44.681389,"lon":39.921944},{"id":2516365,"name":"shkolny","country":"ru","lat":44.914578,"lon":39.856981},{"id":2490225,"name":"plodopitomnik","country":"ru","lat":44.930278,"lon":40.359167},{"id":2543436,"name":"ulanov","country":"ru","lat":44.933056,"lon":39.983056},{"id":2433032,"name":"krasnoselovka","country":"ru","lat":45.100556,"lon":40.035556},{"id":2456377,"name":"maykopskiy","country":"ru","lat":44.740833,"lon":40.469722},{"id":2516450,"name":"shlyakhov","country":"ru","lat":44.910556,"lon":39.920278},{"id":2446990,"name":"luchezarnyy","country":"ru","lat":44.981389,"lon":40.453611},{"id":2511836,"name":"severny","country":"ru","lat":45.034836,"lon":39.600997},{"id":2475966,"name":"novoyekaterinovka","country":"ru","lat":45.243776,"lon":39.936488},{"id":2399397,"name":"giaginskaja","country":"ru","lat":44.862084,"lon":40.07195},{"id":2467595,"name":"nikolenko","country":"ru","lat":44.549722,"lon":39.566667},{"id":2535019,"name":"temirgofewskaja","country":"ru","lat":45.114137,"lon":40.280269},{"id":2498464,"name":"pshizo","country":"ru","lat":45.09,"lon":40.110833},{"id":2367531,"name":"barbashev","country":"ru","lat":44.795,"lon":39.625556},{"id":2453984,"name":"mamkheg","country":"ru","lat":45.016667,"lon":40.216667},{"id":2515042,"name":"shevchenko","country":"ru","lat":44.898378,"lon":39.521574},{"id":2458730,"name":"mikhaylovskiy","country":"ru","lat":44.789444,"lon":40.362778},{"id":2428397,"name":"korennaya balka","country":"ru","lat":44.588056,"lon":39.818056},{"id":2485050,"name":"pashkov","country":"ru","lat":44.783333,"lon":40.05},{"id":2498066,"name":"protopopova","country":"ru","lat":44.529444,"lon":39.712778},{"id":2556651,"name":"voropayev","country":"ru","lat":45.087778,"lon":39.731389},{"id":2363519,"name":"argatov","country":"ru","lat":45.32837,"lon":39.633537},{"id":2426584,"name":"komintern","country":"ru","lat":44.703333,"lon":40.195556},{"id":2416176,"name":"kazanskaya","country":"ru","lat":45.4106,"lon":40.4361},{"id":2365737,"name":"babayevskiy","country":"ru","lat":44.916667,"lon":39.933056},{"id":2529927,"name":"sukhoy kut","country":"ru","lat":45.125278,"lon":40.201111},{"id":2406276,"name":"ignatyevskiy","country":"ru","lat":44.842222,"lon":40.4575},{"id":2433908,"name":"krasnyy-khleborob","country":"ru","lat":44.873889,"lon":40.302778},{"id":2439307,"name":"kurskiy","country":"ru","lat":44.779722,"lon":40.368889},{"id":2408022,"name":"ioganson","country":"ru","lat":44.835278,"lon":39.590556},{"id":2433909,"name":"krasnyy khleborob","country":"ru","lat":44.883889,"lon":40.220833},{"id":2478950,"name":"ogonek","country":"ru","lat":45.175022,"lon":39.692547},{"id":2391082,"name":"dmitriyevkiy","country":"ru","lat":44.94,"lon":40.364722},{"id":2510655,"name":"semnadtsat let oktyabrya","country":"ru","lat":44.63,"lon":40.1971},{"id":2472488,"name":"novoalekseyevskoye","country":"ru","lat":44.952547,"lon":39.865252},{"id":2568548,"name":"zarya sotsializma","country":"ru","lat":45.366667,"lon":39.616667},{"id":2465765,"name":"nechayevskiy","country":"ru","lat":44.883056,"lon":40.396111},{"id":2390179,"name":"denisovo","country":"ru","lat":44.509167,"lon":39.826944},{"id":2370264,"name":"beloye","country":"ru","lat":45.048318,"lon":39.651426},{"id":2382480,"name":"buryachnyy","country":"ru","lat":44.716667,"lon":40.233333},{"id":2378143,"name":"bolshoy komluk","country":"ru","lat":44.860556,"lon":39.557778},{"id":2502711,"name":"rodnichki","country":"ru","lat":44.9175,"lon":40.165},{"id":2440386,"name":"kuzhorskaya","country":"ru","lat":44.675122,"lon":40.310318},{"id":2504341,"name":"rudakov","country":"ru","lat":44.883056,"lon":39.926667},{"id":2489080,"name":"pikalin","country":"ru","lat":44.951123,"lon":39.990094},{"id":2491144,"name":"podgorny","country":"ru","lat":44.775316,"lon":39.962236},{"id":2456771,"name":"medovy","country":"ru","lat":44.9025,"lon":39.977778},{"id":2484464,"name":"papenkov","country":"ru","lat":45.073946,"lon":39.587228},{"id":2415269,"name":"kasinov","country":"ru","lat":44.73,"lon":40.096667},{"id":2499158,"name":"pustoslov","country":"ru","lat":45.137573,"lon":39.717631},{"id":2472486,"name":"novo-alekseyevskoye","country":"ru","lat":45.149722,"lon":39.516667},{"id":2502198,"name":"reshetnikov","country":"ru","lat":44.716944,"lon":39.846667},{"id":2562825,"name":"yelinskiy","country":"ru","lat":44.554722,"lon":39.559722},{"id":2474310,"name":"novopekhovskiy","country":"ru","lat":45.3386,"lon":40.3317},{"id":2415209,"name":"kashpari","country":"ru","lat":44.799722,"lon":39.566667},{"id":2418714,"name":"khlebny rynok","country":"ru","lat":45.181667,"lon":39.721667},{"id":2431991,"name":"krasina","country":"ru","lat":44.908889,"lon":40.033611},{"id":2488538,"name":"petrov","country":"ru","lat":44.933221,"lon":39.505164},{"id":2364812,"name":"atapin","country":"ru","lat":45.203611,"lon":40.047778},{"id":2442959,"name":"legezin","country":"ru","lat":44.7525,"lon":40.292222},{"id":2567942,"name":"zapadnyy","country":"ru","lat":44.6223,"lon":40.0835},{"id":2467560,"name":"nikolayevskoye","country":"ru","lat":45.127801,"lon":39.572456},{"id":2443535,"name":"leontyevskoye","country":"ru","lat":44.899344,"lon":39.776934},{"id":2511957,"name":"severo-vostochnyye sady","country":"ru","lat":44.6344,"lon":40.1394},{"id":2435675,"name":"kruglyy","country":"ru","lat":44.711667,"lon":40.168611},{"id":2501372,"name":"razdorskiy","country":"ru","lat":45.264444,"lon":40.118889},{"id":2470923,"name":"noskov","country":"ru","lat":44.983056,"lon":39.5},{"id":2365228,"name":"aviatsiya","country":"ru","lat":45.026418,"lon":39.549128},{"id":2469722,"name":"nizhniy nazarov","country":"ru","lat":44.983056,"lon":39.7},{"id":2511774,"name":"severin","country":"ru","lat":45.3463,"lon":40.2053},{"id":2488318,"name":"petropavlovskaya","country":"ru","lat":45.081894,"lon":40.451253},{"id":2370178,"name":"belov","country":"ru","lat":44.683333,"lon":40.133333},{"id":2357912,"name":"abazov","country":"ru","lat":44.6313,"lon":39.9137},{"id":2483540,"name":"padukin","country":"ru","lat":45.0925,"lon":39.716667},{"id":2548111,"name":"vannovskoye","country":"ru","lat":45.321667,"lon":40.2325},{"id":2537763,"name":"topekhin","country":"ru","lat":44.930278,"lon":40.066944},{"id":2445838,"name":"lodin","country":"ru","lat":44.957028,"lon":39.991966},{"id":2395118,"name":"dzherokay","country":"ru","lat":44.985278,"lon":40.315833},{"id":2508161,"name":"saratovskiy","country":"ru","lat":45.098096,"lon":39.761965},{"id":2386291,"name":"chernyshevskiy","country":"ru","lat":45.045556,"lon":40.045},{"id":2502775,"name":"rodnikovyy","country":"ru","lat":44.6775,"lon":40.004444},{"id":2411271,"name":"kalinin","country":"ru","lat":44.708056,"lon":40.138333},{"id":2531631,"name":"svobodnyy","country":"ru","lat":45.186324,"lon":39.588923},{"id":2566611,"name":"zadunayskiy","country":"ru","lat":44.969722,"lon":40.158611},{"id":2497409,"name":"progress","country":"ru","lat":44.868889,"lon":40.1875},{"id":2398637,"name":"garnatskiy","country":"ru","lat":44.515833,"lon":39.543056},{"id":2514801,"name":"sheremet yevskoye","country":"ru","lat":45.321944,"lon":40.196944},{"id":2526841,"name":"starozelenyy","country":"ru","lat":44.728889,"lon":39.604444},{"id":2549864,"name":"verbin","country":"ru","lat":45.01246,"lon":39.872305},{"id":2521778,"name":"solomenny","country":"ru","lat":44.898889,"lon":39.840833},{"id":2383494,"name":"chabanov","country":"ru","lat":44.859436,"lon":39.615265},{"id":2417163,"name":"khachemziy","country":"ru","lat":44.951111,"lon":40.310556},{"id":2530135,"name":"sultanskaya karaulka","country":"ru","lat":44.5714,"lon":40.3733},{"id":2392483,"name":"doroshenko","country":"ru","lat":44.999167,"lon":40.149167},{"id":2556583,"name":"vorontsovo-doshkovskoye","country":"ru","lat":44.910833,"lon":39.869167},{"id":2405182,"name":"gunkin","country":"ru","lat":45.196667,"lon":39.971111},{"id":2394557,"name":"dvubratskiy","country":"ru","lat":45.238879,"lon":39.804994},{"id":2359423,"name":"akredasov","country":"ru","lat":44.6357,"lon":39.5018},{"id":2420763,"name":"khutora pervoye maya","country":"ru","lat":45.166667,"lon":39.833056},{"id":2415005,"name":"kasatkin","country":"ru","lat":44.933056,"lon":40.013056},{"id":2538659,"name":"tretiy internatsional","country":"ru","lat":44.880278,"lon":39.563056},{"id":2390350,"name":"derevskiy","country":"ru","lat":44.834167,"lon":40.469722},{"id":2511939,"name":"severo-kubanskoye","country":"ru","lat":45.3275,"lon":40.3},{"id":2555104,"name":"vodnyy","country":"ru","lat":45.182781,"lon":39.569795},{"id":2523832,"name":"spokoynyy","country":"ru","lat":44.5542,"lon":40.0605},{"id":2393904,"name":"dukmasov","country":"ru","lat":44.95,"lon":39.866667},{"id":2559335,"name":"vysotnyy","country":"ru","lat":44.952576,"lon":39.685334},{"id":2400927,"name":"golovkov","country":"ru","lat":45.021134,"lon":39.584645},{"id":2503787,"name":"rovnyy","country":"ru","lat":44.933611,"lon":40.119444},{"id":2504663,"name":"rusalkovskiy","country":"ru","lat":44.866667,"lon":40.45},{"id":2495780,"name":"potin","country":"ru","lat":44.961667,"lon":39.870833},{"id":2402692,"name":"gorskiy","country":"ru","lat":45.360556,"lon":40.065278},{"id":2404500,"name":"grushovy","country":"ru","lat":44.765843,"lon":39.978168},{"id":2516363,"name":"shkolnoye","country":"ru","lat":44.899888,"lon":39.852487},{"id":2480667,"name":"orekhov","country":"ru","lat":44.985176,"lon":39.947438},{"id":2432456,"name":"krasnaya ulka","country":"ru","lat":44.694444,"lon":40.177778},{"id":2573126,"name":"zubov","country":"ru","lat":45.261944,"lon":40.073333},{"id":2536018,"name":"tiflisskaya","country":"ru","lat":45.363333,"lon":40.19},{"id":2524087,"name":"sredniy dukmasov","country":"ru","lat":44.958861,"lon":39.881114},{"id":2494378,"name":"popovskoye","country":"ru","lat":44.75,"lon":39.866667},{"id":2572613,"name":"znamya truda","country":"ru","lat":44.821944,"lon":40.448611},{"id":2359761,"name":"alabin","country":"ru","lat":44.7,"lon":39.566667},{"id":2549654,"name":"velikoye","country":"ru","lat":44.934018,"lon":39.754993},{"id":2421623,"name":"kim","country":"ru","lat":44.539167,"lon":39.704167},{"id":2452968,"name":"malyy brodovoy","country":"ru","lat":44.990285,"lon":39.872229},{"id":2563824,"name":"yerik","country":"ru","lat":44.584722,"lon":39.7025},{"id":2521120,"name":"soglasny","country":"ru","lat":45.234351,"lon":39.97612},{"id":2422456,"name":"kiselev","country":"ru","lat":45.067778,"lon":39.771667},{"id":2399380,"name":"geymanovskaya","country":"ru","lat":45.266389,"lon":40.211389},{"id":2380253,"name":"bratskiy","country":"ru","lat":45.026667,"lon":39.84},{"id":2497695,"name":"proletarskiy","country":"ru","lat":44.6183,"lon":40.1804},{"id":2385192,"name":"cheremushkin","country":"ru","lat":44.791944,"lon":40.050556},{"id":2434492,"name":"krasnyy zelenchuk","country":"ru","lat":45.276389,"lon":40.335},{"id":2472570,"name":"novo-armyanskiy","country":"ru","lat":45.272778,"lon":40.346667},{"id":2404405,"name":"groznyy","country":"ru","lat":44.5604,"lon":40.135},{"id":2556384,"name":"voronezhskaya","country":"ru","lat":45.211305,"lon":39.567058},{"id":2418427,"name":"khersonskiy","country":"ru","lat":45.219247,"lon":39.97075},{"id":2525569,"name":"staroarmyanskiy","country":"ru","lat":45.265,"lon":40.367778},{"id":2506296,"name":"sablutskiy","country":"ru","lat":44.778889,"lon":39.701667},{"id":2505593,"name":"rybalko","country":"ru","lat":44.733889,"lon":40.351389},{"id":2542959,"name":"uglovoy","country":"ru","lat":44.790833,"lon":39.619167},{"id":2436500,"name":"kubanskaya vtoraya","country":"ru","lat":44.613333,"lon":39.784444},{"id":2497502,"name":"prokhorovka","country":"ru","lat":44.704167,"lon":39.898333},{"id":2444830,"name":"limanskiy","country":"ru","lat":45.269444,"lon":40.131944},{"id":2561278,"name":"yaroslavskaya","country":"ru","lat":44.610556,"lon":40.464167},{"id":2549327,"name":"vechnoye","country":"ru","lat":44.938333,"lon":39.739444},{"id":2550528,"name":"verkhne-nazarov","country":"ru","lat":45.007793,"lon":39.750474},{"id":2472471,"name":"novoalekseyevskiy","country":"ru","lat":44.928611,"lon":40.370833},{"id":2410516,"name":"kabykhabl","country":"ru","lat":45.0475,"lon":40.180278},{"id":2372036,"name":"beysuzhok vtoroy","country":"ru","lat":45.484858,"lon":39.706913},{"id":2360423,"name":"alekseyevo","country":"ru","lat":45.211111,"lon":40.178889},{"id":2566587,"name":"zadorozhnyy","country":"ru","lat":45.178333,"lon":39.6025},{"id":2383446,"name":"bzhedugkhabl","country":"ru","lat":44.976373,"lon":39.704844},{"id":2495814,"name":"potomstvenny","country":"ru","lat":44.866667,"lon":39.933056},{"id":2468806,"name":"nizhnevedeneyevskiy","country":"ru","lat":44.882905,"lon":39.659068},{"id":2522792,"name":"sosnov","country":"ru","lat":44.970278,"lon":39.97},{"id":2496640,"name":"prichtovyy","country":"ru","lat":45.1975,"lon":40.183056},{"id":2443945,"name":"lesnoy","country":"ru","lat":44.5413,"lon":39.8192},{"id":2399199,"name":"georgiyevskiy","country":"ru","lat":44.768056,"lon":40.408333},{"id":2460968,"name":"molchevskiy","country":"ru","lat":44.742778,"lon":40.184722},{"id":2401281,"name":"goncharka","country":"ru","lat":44.806852,"lon":39.956957},{"id":2523034,"name":"sovetskiy","country":"ru","lat":44.670833,"lon":40.096111},{"id":2450093,"name":"malanovskiy","country":"ru","lat":44.882222,"lon":40.411111},{"id":2433859,"name":"krasnyy fars","country":"ru","lat":44.917222,"lon":40.356111},{"id":2558066,"name":"vtoroy","country":"ru","lat":45.249167,"lon":40.065},{"id":2396158,"name":"farsovyy","country":"ru","lat":44.735,"lon":40.373333},{"id":2388596,"name":"chuykova","country":"ru","lat":45.423611,"lon":40.030556},{"id":2535138,"name":"tenginskaya","country":"ru","lat":45.093611,"lon":40.010556},{"id":2487543,"name":"pervyy","country":"ru","lat":45.3419,"lon":40.47},{"id":2451683,"name":"malosldorov","country":"ru","lat":45.125278,"lon":39.728333},{"id":2480953,"name":"orlov","country":"ru","lat":45.230556,"lon":39.975556},{"id":2562429,"name":"yekaterinoslavskiy","country":"ru","lat":45.3432,"lon":40.1657},{"id":2532359,"name":"tabachnyy","country":"ru","lat":44.5578,"lon":40.0949},{"id":2422299,"name":"kirpilskaya","country":"ru","lat":45.374688,"lon":39.699017},{"id":2383792,"name":"chanskaja","country":"ru","lat":44.67702,"lon":39.961599},{"id":2555684,"name":"volny","country":"ru","lat":45.176944,"lon":40.436667},{"id":2536205,"name":"tikhonov","country":"ru","lat":44.966799,"lon":39.953033},{"id":2451743,"name":"malov","country":"ru","lat":44.612222,"lon":40.179444},{"id":2404482,"name":"grushevyy","country":"ru","lat":44.754167,"lon":39.810556},{"id":2480980,"name":"orlovskiy","country":"ru","lat":45.243333,"lon":40.489722},{"id":2394693,"name":"dyakov","country":"ru","lat":44.6634,"lon":40.153},{"id":2418177,"name":"khatukay","country":"ru","lat":45.190742,"lon":39.663205},{"id":2430454,"name":"kosyakin","country":"ru","lat":44.549722,"lon":39.533056},{"id":2535717,"name":"ternukov","country":"ru","lat":45.033056,"lon":39.85},{"id":2474004,"name":"novonikolayevka","country":"ru","lat":45.301111,"lon":40.033333},{"id":2381637,"name":"bulavimov","country":"ru","lat":44.7025,"lon":40.202222},{"id":2524221,"name":"sredniy","country":"ru","lat":45.201667,"lon":40.131389},{"id":2395001,"name":"dzhambochi","country":"ru","lat":45.084915,"lon":39.859121},{"id":2431475,"name":"kozlopolyanskiy","country":"ru","lat":44.761944,"lon":40.306667},{"id":2444524,"name":"leyboabazov","country":"ru","lat":44.983889,"lon":40.16},{"id":2474966,"name":"novosevastopolskoye","country":"ru","lat":45.06132,"lon":39.706496},{"id":2399906,"name":"glivenko","country":"ru","lat":44.904734,"lon":39.639433},{"id":2374250,"name":"bogursukov","country":"ru","lat":45.041189,"lon":39.704302},{"id":2411254,"name":"kalinina","country":"ru","lat":44.501389,"lon":39.7225},{"id":2372712,"name":"biryukov","country":"ru","lat":44.995556,"lon":39.938056},{"id":2443832,"name":"lesnichestvo","country":"ru","lat":45.079167,"lon":40.105278},{"id":2398886,"name":"gavrilovskiy","country":"ru","lat":44.957222,"lon":40.179722},{"id":2474969,"name":"novo-severskiy","country":"ru","lat":44.95,"lon":40.05},{"id":2535763,"name":"tersko-kalambetskiy","country":"ru","lat":45.325833,"lon":40.116667},{"id":2403340,"name":"grazhdanskiy","country":"ru","lat":44.694444,"lon":40.145556},{"id":2506924,"name":"sakva","country":"ru","lat":44.790556,"lon":39.776389},{"id":2501271,"name":"razdolnaya","country":"ru","lat":45.378276,"lon":39.556374},{"id":2554822,"name":"vladimirovskoye","country":"ru","lat":44.751667,"lon":40.1925},{"id":2443388,"name":"lenintal","country":"ru","lat":45.411111,"lon":40.034722},{"id":2550044,"name":"verevkin","country":"ru","lat":45.209722,"lon":40.356111},{"id":2572350,"name":"zissermanovskiy","country":"ru","lat":45.281944,"lon":40.181389},{"id":2374440,"name":"bolgov","country":"ru","lat":45.231521,"lon":39.898889},{"id":2519188,"name":"skobelevskaya","country":"ru","lat":45.192778,"lon":40.425278},{"id":2367226,"name":"banokov vtoroy","country":"ru","lat":44.900556,"lon":40.187222},{"id":2402940,"name":"gosplemkonyushnyaya","country":"ru","lat":44.6088,"lon":40.0322},{"id":2458839,"name":"mikhelsonovskiy","country":"ru","lat":44.765,"lon":40.310278},{"id":2432833,"name":"krasnogvardeyskoye","country":"ru","lat":45.099969,"lon":39.544536},{"id":2412910,"name":"kanevetskiy","country":"ru","lat":44.797319,"lon":39.661529},{"id":2413330,"name":"karachentseva","country":"ru","lat":44.501667,"lon":39.574167},{"id":2511878,"name":"severnyy","country":"ru","lat":44.6539,"lon":40.1273},{"id":2407285,"name":"imeni dvenadtsotogo oktyabrya","country":"ru","lat":44.727222,"lon":39.513056},{"id":2535069,"name":"temnosov","country":"ru","lat":44.546944,"lon":39.678056},{"id":2422148,"name":"kirov","country":"ru","lat":45.088889,"lon":40.269722},{"id":2559190,"name":"vysokiy","country":"ru","lat":44.949444,"lon":40.009444},{"id":2392940,"name":"druzhba","country":"ru","lat":44.925556,"lon":40.376944},{"id":2530357,"name":"suponin","country":"ru","lat":44.770556,"lon":39.703889},{"id":2486188,"name":"pentyukhov","country":"ru","lat":44.950634,"lon":39.963861},{"id":2414465,"name":"karmirastkh","country":"ru","lat":44.6141,"lon":40.2327},{"id":2391537,"name":"doguzhiyev","country":"ru","lat":45.127061,"lon":39.75586},{"id":2391401,"name":"dobrovolskiy","country":"ru","lat":45.422875,"lon":39.97664},{"id":2459512,"name":"mirnyy","country":"ru","lat":44.5462,"lon":39.9575},{"id":2571807,"name":"zhuravlev","country":"ru","lat":45.236944,"lon":40.449444},{"id":2535712,"name":"ternovyy","country":"ru","lat":44.620278,"lon":39.843333},{"id":2361521,"name":"amosov","country":"ru","lat":45.001925,"lon":39.87279},{"id":2374024,"name":"bogornolov","country":"ru","lat":45.009444,"lon":39.7475},{"id":2516192,"name":"shishkinskiy","country":"ru","lat":44.781944,"lon":40.352778},{"id":2443474,"name":"leonovka","country":"ru","lat":45.316944,"lon":40.077778},{"id":2538558,"name":"trekhrechnyy","country":"ru","lat":44.6602,"lon":40.3975},{"id":2472817,"name":"novochisibiyev","country":"ru","lat":44.884722,"lon":39.615556},{"id":2445282,"name":"lisetskiy","country":"ru","lat":44.980556,"lon":39.890833},{"id":2469203,"name":"nizhniy ayryum","country":"ru","lat":44.902222,"lon":40.182222},{"id":2372032,"name":"beysuzhek pervy","country":"ru","lat":45.483056,"lon":39.799722},{"id":2387628,"name":"chokhrak","country":"ru","lat":44.933889,"lon":40.377778},{"id":2395975,"name":"fadeyevka","country":"ru","lat":44.6399,"lon":39.8675},{"id":2555662,"name":"volno-veselyy","country":"ru","lat":44.908056,"lon":40.256944},{"id":2393038,"name":"druzhnyy","country":"ru","lat":44.725649,"lon":39.778255},{"id":2441527,"name":"ladoshskaja","country":"ru","lat":45.309018,"lon":39.938031},{"id":2521410,"name":"sokolskiy","country":"ru","lat":45.35,"lon":39.583056},{"id":2493042,"name":"politotdel","country":"ru","lat":44.948056,"lon":40.344444},{"id":2550769,"name":"verkhnevedeneyevskiy","country":"ru","lat":44.833333,"lon":39.785556},{"id":2463526,"name":"mushkin","country":"ru","lat":45.121944,"lon":39.875833},{"id":2434212,"name":"krasnyy pakhar","country":"ru","lat":44.737778,"lon":40.299167},{"id":2516953,"name":"shturbino","country":"ru","lat":45.062517,"lon":39.910751},{"id":2566104,"name":"yuzhnyye sady","country":"ru","lat":44.566667,"lon":40.1},{"id":2487484,"name":"pervyy chumakov","country":"ru","lat":45.057462,"lon":39.504524},{"id":2400799,"name":"golovatskiy","country":"ru","lat":45.104167,"lon":39.748889},{"id":2533056,"name":"tambovskiy","country":"ru","lat":44.753333,"lon":40.412778},{"id":2397710,"name":"frolov","country":"ru","lat":45.231944,"lon":39.910556},{"id":2498298,"name":"prusskiy","country":"ru","lat":44.716667,"lon":40.216667},{"id":2418147,"name":"khatazhukay","country":"ru","lat":45.068056,"lon":40.194722},{"id":2499605,"name":"pyatikhatskiy","country":"ru","lat":45.253889,"lon":40.028056},{"id":2409302,"name":"ivanov","country":"ru","lat":44.718889,"lon":39.858056},{"id":2443929,"name":"lesnoy","country":"ru","lat":44.796944,"lon":40.184722},{"id":2409521,"name":"ivanovskoye","country":"ru","lat":45.091944,"lon":39.546944},{"id":2391243,"name":"dneprovskiy","country":"ru","lat":44.755556,"lon":40.301667},{"id":2383449,"name":"bzheduzhovskaya","country":"ru","lat":44.839523,"lon":39.683295},{"id":2567150,"name":"zakharov","country":"ru","lat":44.558611,"lon":39.531944},{"id":2361848,"name":"andreyev","country":"ru","lat":45.166667,"lon":39.816667},{"id":2445030,"name":"lipki","country":"ru","lat":44.636944,"lon":39.848333},{"id":2516362,"name":"shkolnokiyevskiy","country":"ru","lat":45.216667,"lon":39.95},{"id":2498461,"name":"pshicho","country":"ru","lat":45.064167,"lon":40.18},{"id":2365441,"name":"ayryumskiy","country":"ru","lat":44.733333,"lon":40.225},{"id":2523697,"name":"spesivy","country":"ru","lat":44.755278,"lon":39.634722},{"id":2549897,"name":"verbovyy","country":"ru","lat":45.2375,"lon":40.485833},{"id":2513622,"name":"shcheglov","country":"ru","lat":44.790278,"lon":40.344722},{"id":2510344,"name":"semenovskaya","country":"ru","lat":45.325556,"lon":40.043611},{"id":2380288,"name":"bratstvo","country":"ru","lat":44.716667,"lon":40.133333},{"id":2544018,"name":"ulyap","country":"ru","lat":45.053831,"lon":39.946554},{"id":2502660,"name":"rodionov","country":"ru","lat":45.316667,"lon":39.5}]});