callback({"markets":[{"id":2912335,"name":"long island","country":"us","lat":54.9169444,"lon":-132.6791667},{"id":2912628,"name":"waterfall","country":"us","lat":55.2972222,"lon":-133.2405556},{"id":2912110,"name":"craig","country":"us","lat":55.4763889,"lon":-133.1483333},{"id":2912235,"name":"hydaburg","country":"us","lat":55.2080556,"lon":-132.8266667},{"id":2912473,"name":"polk inlet","country":"us","lat":55.3497222,"lon":-132.5458333}]});