callback({"markets":[{"id":131003,"name":"huyamampa","country":"ar","lat":-27.381787,"lon":-64.291835},{"id":128391,"name":"callejon bajada","country":"ar","lat":-27.138151,"lon":-63.648075},{"id":128805,"name":"chanar pozo","country":"ar","lat":-26.966667,"lon":-63.683333},{"id":134053,"name":"quita punco","country":"ar","lat":-27.448158,"lon":-64.387},{"id":130944,"name":"hoyo cerco","country":"ar","lat":-26.633333,"lon":-63.65},{"id":130991,"name":"humaita","country":"ar","lat":-27.103523,"lon":-64.467598},{"id":131766,"name":"la puerta","country":"ar","lat":-26.719415,"lon":-64.176198},{"id":134863,"name":"santa rosa","country":"ar","lat":-26.5,"lon":-63.65},{"id":132997,"name":"negra muerta","country":"ar","lat":-27.483869,"lon":-64.104428},{"id":134013,"name":"quebrachal","country":"ar","lat":-26.983333,"lon":-63.65},{"id":135125,"name":"tablada del boqueron","country":"ar","lat":-27.168382,"lon":-63.630445},{"id":133245,"name":"palos quemados","country":"ar","lat":-27.200737,"lon":-64.271078},{"id":135100,"name":"suncho pujio","country":"ar","lat":-27.038509,"lon":-64.404787},{"id":133694,"name":"pozo hondo","country":"ar","lat":-27.16607,"lon":-64.49},{"id":127434,"name":"agua azul","country":"ar","lat":-26.522706,"lon":-64.152571},{"id":127811,"name":"ardiles","country":"ar","lat":-27.410176,"lon":-64.497586},{"id":133697,"name":"pozo limpio","country":"ar","lat":-26.810905,"lon":-63.56494},{"id":129472,"name":"cruz grande","country":"ar","lat":-26.7,"lon":-63.666667},{"id":131383,"name":"la aurora","country":"ar","lat":-27.494575,"lon":-64.233465},{"id":134713,"name":"san pablo","country":"ar","lat":-27.465746,"lon":-63.679258},{"id":134198,"name":"rincon","country":"ar","lat":-26.716667,"lon":-64.333333},{"id":134629,"name":"san jose","country":"ar","lat":-26.848645,"lon":-63.549363},{"id":135855,"name":"villa nueva","country":"ar","lat":-26.55,"lon":-63.666667},{"id":128771,"name":"chacras","country":"ar","lat":-26.675805,"lon":-64.117912},{"id":134169,"name":"retiro","country":"ar","lat":-27.074895,"lon":-64.420641},{"id":131878,"name":"las delicias","country":"ar","lat":-26.679635,"lon":-64.007365},{"id":135027,"name":"simbol canada","country":"ar","lat":-27.433333,"lon":-64.166667},{"id":127649,"name":"alto pozo","country":"ar","lat":-27.366667,"lon":-64.466667},{"id":132368,"name":"los ralos","country":"ar","lat":-27.084264,"lon":-64.460287},{"id":131570,"name":"la guardia","country":"ar","lat":-27.19245,"lon":-63.694259},{"id":127389,"name":"abra grande","country":"ar","lat":-27.292999,"lon":-64.376798},{"id":131517,"name":"la esperanza","country":"ar","lat":-26.5712,"lon":-64.170926},{"id":127964,"name":"bajo hondo","country":"ar","lat":-27.210214,"lon":-64.475469},{"id":134897,"name":"santos lugares","country":"ar","lat":-26.689666,"lon":-63.55872},{"id":134992,"name":"sesteadero","country":"ar","lat":-26.666667,"lon":-64.2},{"id":128664,"name":"caspi corral","country":"ar","lat":-27.382416,"lon":-63.529418},{"id":128217,"name":"bobadal","country":"ar","lat":-26.71881,"lon":-64.395762},{"id":127593,"name":"alli veremos","country":"ar","lat":-27.389051,"lon":-64.135633},{"id":133319,"name":"parana","country":"ar","lat":-27.043945,"lon":-64.463425},{"id":130102,"name":"el uclar","country":"ar","lat":-27.116667,"lon":-64.416667},{"id":134988,"name":"sepulturas","country":"ar","lat":-27.433333,"lon":-63.7},{"id":132688,"name":"media flor","country":"ar","lat":-27.416667,"lon":-64.333333},{"id":134731,"name":"san pedro","country":"ar","lat":-27.097201,"lon":-64.267262},{"id":133038,"name":"noqueoj","country":"ar","lat":-26.824937,"lon":-63.509825},{"id":133690,"name":"pozo grande","country":"ar","lat":-26.759567,"lon":-63.575947},{"id":130340,"name":"esteros","country":"ar","lat":-26.631397,"lon":-63.660365},{"id":135516,"name":"uturungo","country":"ar","lat":-26.857032,"lon":-64.406349}]});