callback({"markets":[{"id":535243,"name":"malianquan","country":"cn","lat":38.583333,"lon":102.883333},{"id":582679,"name":"shuangcike","country":"cn","lat":38.7,"lon":103.25},{"id":602428,"name":"tuchingshan","country":"cn","lat":39.2,"lon":102.65},{"id":633343,"name":"yangfang","country":"cn","lat":38.816667,"lon":102.85},{"id":580279,"name":"shiliujing","country":"cn","lat":38.966667,"lon":102.9},{"id":568336,"name":"sartai","country":"cn","lat":39.3,"lon":102.7},{"id":619600,"name":"xiaojingzi","country":"cn","lat":38.8,"lon":102.8},{"id":497712,"name":"hungaopu","country":"cn","lat":39.083333,"lon":103.066667},{"id":634618,"name":"yanglu","country":"cn","lat":38.666667,"lon":103.166667},{"id":632059,"name":"yabrai yanchang","country":"cn","lat":39.377778,"lon":102.859167},{"id":497866,"name":"hungliuyuan","country":"cn","lat":38.871944,"lon":103.311667},{"id":449419,"name":"dajiaozi","country":"cn","lat":39.183333,"lon":103.183333},{"id":513067,"name":"kunghutung","country":"cn","lat":39.416944,"lon":102.773889},{"id":497905,"name":"hungshakangching","country":"cn","lat":39.0325,"lon":102.5},{"id":541065,"name":"minqin","country":"cn","lat":38.626389,"lon":103.088333},{"id":636227,"name":"yanjingzi","country":"cn","lat":38.85,"lon":102.733333}]});