callback({"markets":[{"id":1958978,"name":"morla","country":"mz","lat":-16.3833333,"lon":39.2666667},{"id":1960023,"name":"munteia","country":"mz","lat":-16.3216667,"lon":39.0180556},{"id":1964442,"name":"serepuite","country":"mz","lat":-15.8727778,"lon":39.4480556},{"id":1964284,"name":"sardinha","country":"mz","lat":-16.35,"lon":39.2222222},{"id":1958091,"name":"mepepula","country":"mz","lat":-15.8722222,"lon":39.4097222},{"id":1961279,"name":"napurra","country":"mz","lat":-16.3225,"lon":39.0347222},{"id":1962388,"name":"opata","country":"mz","lat":-16.0777778,"lon":39.215},{"id":1945630,"name":"albinho","country":"mz","lat":-16.0225,"lon":39.3811111},{"id":1965265,"name":"tiago","country":"mz","lat":-16.4936111,"lon":39.1063889},{"id":1949818,"name":"chefe nariva","country":"mz","lat":-16.3791667,"lon":39.1036111},{"id":1949392,"name":"chefe martinho","country":"mz","lat":-16.1852778,"lon":39.1533333},{"id":1960905,"name":"namilo","country":"mz","lat":-16.1977778,"lon":39.3177778},{"id":1949894,"name":"chefe nimate","country":"mz","lat":-16.1608333,"lon":39.4525},{"id":1950159,"name":"chefe verissimo","country":"mz","lat":-16.3919444,"lon":39.4983333},{"id":1952531,"name":"erranza","country":"mz","lat":-15.6513889,"lon":39.4772222},{"id":1958064,"name":"mepapa","country":"mz","lat":-15.5433333,"lon":38.7172222},{"id":1949058,"name":"chefe fernando","country":"mz","lat":-16.4238889,"lon":39.1088889},{"id":1958259,"name":"messine","country":"mz","lat":-16.3663889,"lon":39.4505556},{"id":1965356,"name":"tocoloa","country":"mz","lat":-15.6286111,"lon":38.7063889},{"id":1963757,"name":"regulo uacana","country":"mz","lat":-16.4102778,"lon":39.4291667},{"id":1960998,"name":"namua","country":"mz","lat":-16.0938889,"lon":39.1675},{"id":1949607,"name":"chefe mucatapeia","country":"mz","lat":-16.3069444,"lon":39.4783333},{"id":1965360,"name":"toconho","country":"mz","lat":-15.5813889,"lon":38.5422222},{"id":1963834,"name":"riuaca","country":"mz","lat":-16.4313889,"lon":38.9480556},{"id":1952583,"name":"etaga","country":"mz","lat":-16.3988889,"lon":38.6033333},{"id":1966010,"name":"untumula","country":"mz","lat":-16.1561111,"lon":38.9516667},{"id":1959376,"name":"mucale","country":"mz","lat":-15.8905556,"lon":38.9972222},{"id":1965790,"name":"uarrala","country":"mz","lat":-15.9666667,"lon":39.1833333},{"id":1953261,"name":"guarneia","country":"mz","lat":-16.1919444,"lon":39.4683333},{"id":1966569,"name":"zeca","country":"mz","lat":-16.485,"lon":39.2372222},{"id":1960758,"name":"namarela","country":"mz","lat":-16.3272222,"lon":39.4930556},{"id":1947357,"name":"cabo mucalaia","country":"mz","lat":-16.4741667,"lon":39.3561111},{"id":1966077,"name":"vaieque","country":"mz","lat":-15.7658333,"lon":39.2769444},{"id":1956013,"name":"maicarra","country":"mz","lat":-15.8583333,"lon":39.0994444},{"id":1947053,"name":"burla","country":"mz","lat":-15.8777778,"lon":39.1152778},{"id":1962088,"name":"nioca","country":"mz","lat":-15.8325,"lon":39.0991667},{"id":1959297,"name":"muaquiua","country":"mz","lat":-15.8041667,"lon":39.1455556},{"id":1959842,"name":"muitenele","country":"mz","lat":-16.2830556,"lon":39.2030556},{"id":1946224,"name":"anamaca","country":"mz","lat":-15.9683333,"lon":39.37},{"id":1959317,"name":"muata","country":"mz","lat":-16.0997222,"lon":38.7608333},{"id":1947373,"name":"cabo mulogiua","country":"mz","lat":-16.4269444,"lon":39.1775},{"id":1946267,"name":"aneco","country":"mz","lat":-15.6894444,"lon":39.03},{"id":1960870,"name":"nametamua","country":"mz","lat":-15.8627778,"lon":39.0175},{"id":1949726,"name":"chefe mutala","country":"mz","lat":-16.4372222,"lon":39.3516667},{"id":1965155,"name":"techimo","country":"mz","lat":-16.0152778,"lon":39.2786111},{"id":1951390,"name":"cicome","country":"mz","lat":-16.4772222,"lon":39.0841667},{"id":1952681,"name":"faria","country":"mz","lat":-16.4947222,"lon":39.3511111},{"id":1962897,"name":"piquerra","country":"mz","lat":-16.1163889,"lon":38.9980556},{"id":1961037,"name":"namuquela","country":"mz","lat":-15.62,"lon":38.8158333},{"id":1963567,"name":"regulo matabua","country":"mz","lat":-16.4527778,"lon":38.9527778},{"id":1962611,"name":"paquisso","country":"mz","lat":-16.4677778,"lon":38.6563889},{"id":1958945,"name":"mopane","country":"mz","lat":-15.5069444,"lon":39.1816667},{"id":1959231,"name":"muamucha","country":"mz","lat":-15.9177778,"lon":39.4686111},{"id":1961230,"name":"napanha","country":"mz","lat":-15.5775,"lon":39.2041667},{"id":1948725,"name":"chefe alvaro","country":"mz","lat":-16.1719444,"lon":39.1261111},{"id":1949560,"name":"chefe muaile","country":"mz","lat":-16.0397222,"lon":38.5047222},{"id":1959756,"name":"muhoco","country":"mz","lat":-15.9505556,"lon":38.5669444},{"id":1947477,"name":"cabo vailale","country":"mz","lat":-16.4319444,"lon":39.3480556},{"id":1950046,"name":"chefe sanxira","country":"mz","lat":-16.3255556,"lon":38.5347222},{"id":1946092,"name":"aliparrimo","country":"mz","lat":-15.9075,"lon":39.0436111},{"id":1963714,"name":"regulo nicolau","country":"mz","lat":-16.1608333,"lon":39.2025},{"id":1948711,"name":"chefe aia","country":"mz","lat":-16.2805556,"lon":39.1158333},{"id":1953048,"name":"gil","country":"mz","lat":-15.7175,"lon":39.2802778},{"id":1963600,"name":"regulo mieva","country":"mz","lat":-16.1236111,"lon":38.9688889},{"id":1949828,"name":"chefe nelaxe","country":"mz","lat":-16.0511111,"lon":39.4744444},{"id":1947819,"name":"caneta","country":"mz","lat":-16.0283333,"lon":39.2627778},{"id":1965923,"name":"uma","country":"mz","lat":-15.845,"lon":39.4886111},{"id":1949075,"name":"chefe ginama","country":"mz","lat":-16.3472222,"lon":39.1241667},{"id":1959499,"name":"muconha","country":"mz","lat":-15.8088889,"lon":39.4775},{"id":1965660,"name":"uacula","country":"mz","lat":-16.3544444,"lon":39.0147222},{"id":1954780,"name":"lonlo","country":"mz","lat":-15.9469444,"lon":39.3011111},{"id":1953818,"name":"intebela","country":"mz","lat":-15.6377778,"lon":38.8091667},{"id":1948378,"name":"cecileuce","country":"mz","lat":-16.3813889,"lon":39.02},{"id":1959788,"name":"muiconele","country":"mz","lat":-15.8877778,"lon":39.1666667},{"id":1963330,"name":"rapeua","country":"mz","lat":-15.6119444,"lon":38.6061111},{"id":1949576,"name":"chefe muanaculua","country":"mz","lat":-16.4588889,"lon":38.6491667},{"id":1949158,"name":"chefe jose","country":"mz","lat":-16.0258333,"lon":39.2444444},{"id":1960464,"name":"nachicuria","country":"mz","lat":-15.9755556,"lon":39.3694444},{"id":1958960,"name":"moquito","country":"mz","lat":-16.0672222,"lon":39.3627778},{"id":1949419,"name":"chefe matela","country":"mz","lat":-16.4011111,"lon":39.4508333},{"id":1957971,"name":"melapa","country":"mz","lat":-15.8033333,"lon":39.0366667},{"id":1966033,"name":"ussane","country":"mz","lat":-16.1638889,"lon":39.4869444},{"id":1963518,"name":"regulo ginama","country":"mz","lat":-16.0736111,"lon":39.1580556},{"id":1961392,"name":"navaila","country":"mz","lat":-15.5525,"lon":39.1852778},{"id":1948798,"name":"chefe caje","country":"mz","lat":-16.4522222,"lon":39.1},{"id":1953831,"name":"inveia","country":"mz","lat":-15.6552778,"lon":38.6780556},{"id":1947679,"name":"camaeno","country":"mz","lat":-15.8097222,"lon":39.2586111},{"id":1953795,"name":"injala","country":"mz","lat":-16.1522222,"lon":39.3558333},{"id":1958375,"name":"metita","country":"mz","lat":-15.8672222,"lon":39.4441667},{"id":1958943,"name":"moola","country":"mz","lat":-15.9761111,"lon":39.3288889},{"id":1949974,"name":"chefe puarro","country":"mz","lat":-16.1016667,"lon":39.1866667},{"id":1963312,"name":"ranci","country":"mz","lat":-15.7986111,"lon":38.8852778},{"id":1961198,"name":"nantuto","country":"mz","lat":-15.6508333,"lon":38.5852778},{"id":1949150,"name":"chefe joao","country":"mz","lat":-16.0488889,"lon":38.9872222},{"id":1965408,"name":"tome","country":"mz","lat":-15.5847222,"lon":39.4419444},{"id":1959623,"name":"muele","country":"mz","lat":-15.815,"lon":38.8138889},{"id":1957561,"name":"mavissa","country":"mz","lat":-15.9380556,"lon":38.8861111},{"id":1960407,"name":"nabil","country":"mz","lat":-16.2061111,"lon":38.8847222},{"id":1949074,"name":"chefe gimo","country":"mz","lat":-16.0233333,"lon":39.4469444},{"id":1958069,"name":"mepariua","country":"mz","lat":-15.8075,"lon":38.5708333},{"id":1961324,"name":"nassuruma","country":"mz","lat":-16.2738889,"lon":39.4194444},{"id":1948702,"name":"chefe abudo","country":"mz","lat":-16.4244444,"lon":39.2791667},{"id":1947914,"name":"canueto","country":"mz","lat":-16.1,"lon":38.7333333},{"id":1959832,"name":"muisupa","country":"mz","lat":-15.8944444,"lon":39.1830556},{"id":1963601,"name":"regulo mina","country":"mz","lat":-16.1977778,"lon":39.2197222},{"id":1949546,"name":"chefe morria","country":"mz","lat":-16.1863889,"lon":38.6022222},{"id":1966331,"name":"vola","country":"mz","lat":-15.9541667,"lon":39.3141667},{"id":1950053,"name":"chefe sebastiao","country":"mz","lat":-16.2486111,"lon":39.1958333},{"id":1966299,"name":"vina","country":"mz","lat":-15.8538889,"lon":39.3113889},{"id":1960439,"name":"nacarra","country":"mz","lat":-15.5166667,"lon":39.2819444},{"id":1965945,"name":"umpuete","country":"mz","lat":-15.9016667,"lon":39.4647222},{"id":1963828,"name":"ripelela","country":"mz","lat":-15.7372222,"lon":39.4419444},{"id":1950753,"name":"chimoio","country":"mz","lat":-15.8741667,"lon":39.2213889},{"id":1951927,"name":"culue","country":"mz","lat":-15.6597222,"lon":38.7986111},{"id":1949324,"name":"chefe malito","country":"mz","lat":-16.1102778,"lon":39.3405556},{"id":1958891,"name":"monela","country":"mz","lat":-15.685,"lon":38.9213889},{"id":1962003,"name":"nicocua","country":"mz","lat":-15.6186111,"lon":38.7338889},{"id":1950109,"name":"chefe tome","country":"mz","lat":-16.3461111,"lon":39.0580556},{"id":1959801,"name":"muimali","country":"mz","lat":-15.8952778,"lon":39.1963889},{"id":1958276,"name":"metacuro","country":"mz","lat":-15.5086111,"lon":39.3708333},{"id":1946362,"name":"araela","country":"mz","lat":-16.0925,"lon":38.8938889},{"id":1948020,"name":"carei","country":"mz","lat":-16.2877778,"lon":39.4327778},{"id":1952040,"name":"cuvile","country":"mz","lat":-15.7386111,"lon":39.4372222},{"id":1959633,"name":"muemia","country":"mz","lat":-16.07,"lon":38.5605556},{"id":1962071,"name":"nila","country":"mz","lat":-15.6469444,"lon":38.7902778},{"id":1964306,"name":"saude","country":"mz","lat":-15.9191667,"lon":39.3769444},{"id":1948304,"name":"cavarro","country":"mz","lat":-15.6316667,"lon":38.5675},{"id":1965840,"name":"uaturia","country":"mz","lat":-15.8611111,"lon":39.1336111},{"id":1959013,"name":"mosivela","country":"mz","lat":-15.9963889,"lon":39.3055556},{"id":1966496,"name":"zaare","country":"mz","lat":-15.9330556,"lon":39.3716667},{"id":1960913,"name":"namioco","country":"mz","lat":-15.8202778,"lon":39.4052778},{"id":1955569,"name":"macutu","country":"mz","lat":-15.7913889,"lon":38.8713889},{"id":1960287,"name":"muteua","country":"mz","lat":-15.7325,"lon":39.0086111},{"id":1948025,"name":"carieto","country":"mz","lat":-15.8516667,"lon":39.0883333},{"id":1954761,"name":"lobissa","country":"mz","lat":-15.9972222,"lon":39.2877778},{"id":1965004,"name":"tatiua","country":"mz","lat":-15.7116667,"lon":38.7933333},{"id":1960467,"name":"nachile","country":"mz","lat":-15.95,"lon":39.0666667},{"id":1960838,"name":"namecobue","country":"mz","lat":-15.9486111,"lon":39.4005556},{"id":1959924,"name":"muluca","country":"mz","lat":-16.4752778,"lon":39.3736111},{"id":1947928,"name":"capaca","country":"mz","lat":-15.8697222,"lon":38.9777778},{"id":1963134,"name":"quatiegue","country":"mz","lat":-15.8188889,"lon":39.2497222},{"id":1962416,"name":"ovelia","country":"mz","lat":-15.7958333,"lon":39.3766667},{"id":1958993,"name":"morrola","country":"mz","lat":-15.7902778,"lon":39.255},{"id":1957347,"name":"matipela","country":"mz","lat":-15.6338889,"lon":39.0222222},{"id":1948483,"name":"chalaua","country":"mz","lat":-15.7136111,"lon":39.1208333},{"id":1946469,"name":"augosto","country":"mz","lat":-15.9080556,"lon":39.0613889},{"id":1963939,"name":"rumua","country":"mz","lat":-16.4477778,"lon":39.0563889},{"id":1948097,"name":"cassama","country":"mz","lat":-15.9688889,"lon":39.1080556},{"id":1948295,"name":"cavalo","country":"mz","lat":-15.6136111,"lon":38.5688889},{"id":1956318,"name":"mamala","country":"mz","lat":-15.9555556,"lon":38.5758333},{"id":1966070,"name":"vacareia","country":"mz","lat":-15.8955556,"lon":39.405},{"id":1960878,"name":"nametia","country":"mz","lat":-15.6738889,"lon":38.7569444},{"id":1949674,"name":"chefe muleva","country":"mz","lat":-16.1488889,"lon":39.3280556},{"id":1960099,"name":"murreihiua","country":"mz","lat":-15.7225,"lon":38.8780556},{"id":1958735,"name":"moarea","country":"mz","lat":-16.1838889,"lon":38.5491667},{"id":1960306,"name":"mutolia","country":"mz","lat":-15.9241667,"lon":39.23},{"id":1949134,"name":"chefe jacoma","country":"mz","lat":-16.4575,"lon":39.0861111},{"id":1949892,"name":"chefe nimalela","country":"mz","lat":-16.1177778,"lon":39.2980556},{"id":1962083,"name":"ninca","country":"mz","lat":-15.6586111,"lon":38.5925},{"id":1962870,"name":"pilo","country":"mz","lat":-15.8830556,"lon":39.4894444},{"id":1959553,"name":"mucule","country":"mz","lat":-15.9,"lon":39.0},{"id":1954612,"name":"licanhia","country":"mz","lat":-15.7677778,"lon":39.2175},{"id":1949485,"name":"chefe meta","country":"mz","lat":-16.4683333,"lon":38.9555556},{"id":1958164,"name":"mequitunia","country":"mz","lat":-15.7755556,"lon":39.4386111},{"id":1962029,"name":"nicuaiela","country":"mz","lat":-15.7719444,"lon":39.4397222},{"id":1960974,"name":"nampota","country":"mz","lat":-16.0880556,"lon":39.0263889},{"id":1958366,"name":"metil","country":"mz","lat":-16.3855556,"lon":39.0233333},{"id":1952610,"name":"fabula","country":"mz","lat":-15.8830556,"lon":39.4105556},{"id":1959891,"name":"muleja","country":"mz","lat":-16.1466667,"lon":39.3427778},{"id":1960863,"name":"namerrupa","country":"mz","lat":-16.2627778,"lon":39.1961111},{"id":1962399,"name":"ossene","country":"mz","lat":-16.2655556,"lon":39.0816667},{"id":1946031,"name":"alexandre","country":"mz","lat":-16.1416667,"lon":39.2336111},{"id":1946474,"name":"augusto","country":"mz","lat":-16.4802778,"lon":39.1827778},{"id":1954765,"name":"loco","country":"mz","lat":-15.7866667,"lon":38.8488889},{"id":1959296,"name":"muaquina","country":"mz","lat":-16.2144444,"lon":39.4658333},{"id":1956210,"name":"maleque","country":"mz","lat":-15.8894444,"lon":39.3166667},{"id":1951404,"name":"cimbe","country":"mz","lat":-16.3036111,"lon":38.5588889},{"id":1965791,"name":"uarrara","country":"mz","lat":-15.5708333,"lon":38.6658333},{"id":1964350,"name":"secretario","country":"mz","lat":-16.1736111,"lon":39.2005556},{"id":1946449,"name":"atecume","country":"mz","lat":-16.4880556,"lon":39.0652778},{"id":1960778,"name":"namarrolo","country":"mz","lat":-16.3716667,"lon":39.4508333},{"id":1962069,"name":"niico","country":"mz","lat":-15.8483333,"lon":39.3108333},{"id":1965834,"name":"uatoca","country":"mz","lat":-15.7827778,"lon":39.4330556},{"id":1949820,"name":"chefe natocua","country":"mz","lat":-16.4102778,"lon":39.0752778},{"id":1962796,"name":"pequerra","country":"mz","lat":-16.1833333,"lon":38.9833333},{"id":1961573,"name":"netete","country":"mz","lat":-15.7666667,"lon":39.4333333},{"id":1961923,"name":"nheela","country":"mz","lat":-15.6772222,"lon":39.0672222},{"id":1962053,"name":"nicussanza","country":"mz","lat":-15.6983333,"lon":39.0341667},{"id":1958388,"name":"metoa","country":"mz","lat":-15.8316667,"lon":38.8394444},{"id":1956652,"name":"manula","country":"mz","lat":-15.8575,"lon":39.4888889},{"id":1961413,"name":"naveliquito","country":"mz","lat":-15.9897222,"lon":38.8847222},{"id":1949299,"name":"chefe mahurruria","country":"mz","lat":-16.3397222,"lon":38.5652778},{"id":1950065,"name":"chefe silva","country":"mz","lat":-16.16,"lon":39.1363889},{"id":1949718,"name":"chefe mussama","country":"mz","lat":-16.3611111,"lon":39.2436111},{"id":1959780,"name":"muicante","country":"mz","lat":-15.7625,"lon":39.3683333},{"id":1950157,"name":"chefe veke","country":"mz","lat":-16.4455556,"lon":39.2894444},{"id":1960107,"name":"murriga","country":"mz","lat":-16.3711111,"lon":38.7438889},{"id":1965876,"name":"uelele","country":"mz","lat":-15.8136111,"lon":38.7827778},{"id":1949250,"name":"chefe macuerere","country":"mz","lat":-16.0541667,"lon":39.1275},{"id":1950013,"name":"chefe rihiua","country":"mz","lat":-16.3388889,"lon":39.1052778},{"id":1949133,"name":"chefe iua","country":"mz","lat":-16.0286111,"lon":39.0583333},{"id":1965374,"name":"toleia","country":"mz","lat":-15.6505556,"lon":39.1391667},{"id":1947435,"name":"cabo raice","country":"mz","lat":-16.4327778,"lon":39.1552778},{"id":1963625,"name":"regulo muamuia","country":"mz","lat":-16.4058333,"lon":39.0333333},{"id":1958838,"name":"molata","country":"mz","lat":-15.8391667,"lon":39.1077778},{"id":1950050,"name":"chefe sardinha","country":"mz","lat":-16.3688889,"lon":39.2227778},{"id":1957853,"name":"mecuela","country":"mz","lat":-15.5155556,"lon":39.1675},{"id":1949704,"name":"chefe muriiua","country":"mz","lat":-16.0177778,"lon":38.6075},{"id":1950131,"name":"chefe ualete","country":"mz","lat":-16.1969444,"lon":38.9441667},{"id":1958065,"name":"mepapanua","country":"mz","lat":-16.4097222,"lon":38.6047222},{"id":1946287,"name":"anigo","country":"mz","lat":-15.9772222,"lon":39.485},{"id":1963860,"name":"rodrigues","country":"mz","lat":-16.0144444,"lon":39.2455556},{"id":1964490,"name":"sicome","country":"mz","lat":-15.9441667,"lon":39.4994444},{"id":1963374,"name":"ravule","country":"mz","lat":-15.9058333,"lon":39.0066667},{"id":1965856,"name":"ucharrene","country":"mz","lat":-15.9519444,"lon":39.3411111},{"id":1947872,"name":"canlula","country":"mz","lat":-15.9594444,"lon":39.4191667},{"id":1953547,"name":"igreque","country":"mz","lat":-15.8008333,"lon":39.2663889},{"id":1960991,"name":"namuaia","country":"mz","lat":-15.8083333,"lon":39.25},{"id":1959898,"name":"mulequela","country":"mz","lat":-16.4991667,"lon":38.9902778},{"id":1948836,"name":"chefe castro","country":"mz","lat":-16.1197222,"lon":39.0177778},{"id":1959909,"name":"muligudje","country":"mz","lat":-16.4933333,"lon":38.9508333},{"id":1950137,"name":"chefe uassungue","country":"mz","lat":-16.3108333,"lon":38.9141667},{"id":1961339,"name":"natechero","country":"mz","lat":-16.2333333,"lon":38.6},{"id":1959230,"name":"muampua","country":"mz","lat":-15.9141667,"lon":39.1005556},{"id":1959751,"name":"muhea","country":"mz","lat":-15.9227778,"lon":38.8641667},{"id":1962635,"name":"pascoal","country":"mz","lat":-15.9986111,"lon":39.2786111},{"id":1947232,"name":"cabo lacamuatio","country":"mz","lat":-16.4252778,"lon":39.3075},{"id":1964149,"name":"sampanha","country":"mz","lat":-15.9594444,"lon":39.1911111},{"id":1949973,"name":"chefe puampuela","country":"mz","lat":-16.3436111,"lon":39.0716667},{"id":1948989,"name":"chefe costa","country":"mz","lat":-16.0955556,"lon":38.9875},{"id":1949544,"name":"chefe moroa","country":"mz","lat":-16.2575,"lon":38.9144444},{"id":1960767,"name":"namaro","country":"mz","lat":-16.1383333,"lon":39.4441667},{"id":1953606,"name":"incuana","country":"mz","lat":-16.3361111,"lon":39.2194444},{"id":1948734,"name":"chefe antonio","country":"mz","lat":-16.0122222,"lon":38.9047222},{"id":1964927,"name":"tambua","country":"mz","lat":-15.8458333,"lon":38.8702778},{"id":1962487,"name":"palave","country":"mz","lat":-16.3186111,"lon":39.0666667},{"id":1963261,"name":"quitica","country":"mz","lat":-15.9080556,"lon":39.3825},{"id":1957855,"name":"mecuelia","country":"mz","lat":-15.8430556,"lon":39.3105556},{"id":1946291,"name":"anjinho","country":"mz","lat":-16.3291667,"lon":39.0686111},{"id":1952836,"name":"francisco","country":"mz","lat":-16.0380556,"lon":38.9377778},{"id":1949431,"name":"chefe matos","country":"mz","lat":-16.4133333,"lon":39.1541667},{"id":1952025,"name":"cusse","country":"mz","lat":-16.1088889,"lon":38.9855556},{"id":1966585,"name":"ze matito","country":"mz","lat":-16.4641667,"lon":39.225},{"id":1959878,"name":"mulama","country":"mz","lat":-16.4802778,"lon":39.3677778},{"id":1963304,"name":"rambua","country":"mz","lat":-15.8488889,"lon":38.8055556},{"id":1958854,"name":"molote","country":"mz","lat":-15.8991667,"lon":39.4986111},{"id":1956063,"name":"maiva","country":"mz","lat":-15.6825,"lon":38.7938889},{"id":1957880,"name":"mecurua","country":"mz","lat":-15.8261111,"lon":39.4938889},{"id":1953450,"name":"henriques","country":"mz","lat":-16.0066667,"lon":38.5177778},{"id":1950027,"name":"chefe rumua","country":"mz","lat":-16.4355556,"lon":39.1230556},{"id":1961293,"name":"naquito","country":"mz","lat":-16.0969444,"lon":39.3994444},{"id":1962117,"name":"niputa","country":"mz","lat":-15.9247222,"lon":39.3063889},{"id":1960874,"name":"nametapa","country":"mz","lat":-15.9263889,"lon":39.0533333},{"id":1950005,"name":"chefe raimundo","country":"mz","lat":-16.1427778,"lon":39.0144444},{"id":1946130,"name":"alumeta","country":"mz","lat":-16.1338889,"lon":39.1402778},{"id":1949659,"name":"chefe muimua","country":"mz","lat":-16.0047222,"lon":38.5836111},{"id":1952521,"name":"erico","country":"mz","lat":-15.8836111,"lon":38.8502778},{"id":1948039,"name":"carlos","country":"mz","lat":-15.6408333,"lon":39.3408333},{"id":1962056,"name":"nicuxanca","country":"mz","lat":-16.4847222,"lon":39.2219444},{"id":1946365,"name":"arame","country":"mz","lat":-16.4191667,"lon":39.4430556},{"id":1952532,"name":"errati","country":"mz","lat":-15.7283333,"lon":39.4375},{"id":1959853,"name":"muiue","country":"mz","lat":-16.1833333,"lon":39.3755556},{"id":1965699,"name":"ualicana","country":"mz","lat":-15.8391667,"lon":39.1663889},{"id":1962516,"name":"pampuela","country":"mz","lat":-15.6944444,"lon":38.7941667},{"id":1949960,"name":"chefe pitanha","country":"mz","lat":-16.4452778,"lon":39.1447222},{"id":1962018,"name":"nicopari","country":"mz","lat":-16.4713889,"lon":39.0486111},{"id":1963612,"name":"regulo moquito","country":"mz","lat":-16.0944444,"lon":39.3863889},{"id":1958274,"name":"metacate","country":"mz","lat":-15.7425,"lon":39.0988889},{"id":1947355,"name":"cabo muave","country":"mz","lat":-16.4513889,"lon":39.1533333},{"id":1962906,"name":"pissano","country":"mz","lat":-15.7677778,"lon":38.9083333},{"id":1962151,"name":"nivaca","country":"mz","lat":-15.9955556,"lon":39.4227778},{"id":1963604,"name":"regulo mizo","country":"mz","lat":-16.2425,"lon":38.9727778},{"id":1959621,"name":"muelemeia","country":"mz","lat":-15.8119444,"lon":39.2283333},{"id":1965827,"name":"uateque","country":"mz","lat":-15.6472222,"lon":38.7322222},{"id":1950044,"name":"chefe samuel","country":"mz","lat":-16.1116667,"lon":39.1616667},{"id":1960346,"name":"muvava","country":"mz","lat":-15.8444444,"lon":39.1547222},{"id":1949340,"name":"chefe manfarrasse","country":"mz","lat":-16.1802778,"lon":38.6038889},{"id":1962081,"name":"ninani","country":"mz","lat":-16.4388889,"lon":39.2994444},{"id":1960674,"name":"namacopa","country":"mz","lat":-16.3338889,"lon":39.1355556},{"id":1961179,"name":"nantira","country":"mz","lat":-15.8997222,"lon":39.3069444},{"id":1960344,"name":"muva","country":"mz","lat":-15.8691667,"lon":39.1283333},{"id":1962391,"name":"ora","country":"mz","lat":-15.9205556,"lon":39.3072222},{"id":1958346,"name":"metepe","country":"mz","lat":-16.2838889,"lon":39.4483333},{"id":1954689,"name":"liote","country":"mz","lat":-16.2333333,"lon":39.31},{"id":1956356,"name":"mamuia","country":"mz","lat":-16.4205556,"lon":39.0575},{"id":1963368,"name":"raute","country":"mz","lat":-15.5327778,"lon":39.4583333},{"id":1966145,"name":"vatariva","country":"mz","lat":-15.9347222,"lon":38.6808333},{"id":1949815,"name":"chefe napurra","country":"mz","lat":-16.3002778,"lon":39.0880556},{"id":1966067,"name":"vacala","country":"mz","lat":-15.9161111,"lon":39.1388889},{"id":1951590,"name":"coma","country":"mz","lat":-15.7419444,"lon":38.7594444},{"id":1963812,"name":"rieque","country":"mz","lat":-15.8225,"lon":39.195},{"id":1963482,"name":"regulo caetano","country":"mz","lat":-16.1986111,"lon":39.1316667},{"id":1949376,"name":"chefe marido","country":"mz","lat":-16.4894444,"lon":39.2758333},{"id":1949151,"name":"chefe joaquim","country":"mz","lat":-16.0311111,"lon":39.2919444},{"id":1948709,"name":"chefe agostinho","country":"mz","lat":-16.0483333,"lon":39.1622222},{"id":1949374,"name":"chefe mareia","country":"mz","lat":-16.2208333,"lon":38.5166667},{"id":1965443,"name":"tonlo","country":"mz","lat":-15.5655556,"lon":38.6644444},{"id":1958957,"name":"moquina","country":"mz","lat":-16.4077778,"lon":38.6377778},{"id":1960036,"name":"muo","country":"mz","lat":-15.85,"lon":39.1166667},{"id":1960523,"name":"nacuao","country":"mz","lat":-15.9180556,"lon":39.2644444},{"id":1964602,"name":"siquefo","country":"mz","lat":-15.8286111,"lon":39.4183333},{"id":1962107,"name":"nipile","country":"mz","lat":-15.9933333,"lon":39.3158333},{"id":1949959,"name":"chefe pinto","country":"mz","lat":-16.3402778,"lon":38.5577778},{"id":1963810,"name":"ricardo","country":"mz","lat":-16.1169444,"lon":39.0625},{"id":1946088,"name":"aligema","country":"mz","lat":-16.1211111,"lon":39.4016667},{"id":1959337,"name":"muaula","country":"mz","lat":-15.7463889,"lon":39.2880556},{"id":1949998,"name":"chefe quissome","country":"mz","lat":-16.4522222,"lon":39.2466667},{"id":1953521,"name":"iapili","country":"mz","lat":-15.8919444,"lon":39.4872222},{"id":1963758,"name":"regulo uala","country":"mz","lat":-16.4258333,"lon":39.2175},{"id":1949045,"name":"chefe eduardo","country":"mz","lat":-16.0744444,"lon":39.1405556},{"id":1963784,"name":"requije","country":"mz","lat":-15.5019444,"lon":39.2161111},{"id":1952764,"name":"filipe","country":"mz","lat":-15.6463889,"lon":39.1975},{"id":1962064,"name":"nihessiue","country":"mz","lat":-15.6577778,"lon":38.6930556},{"id":1958330,"name":"metchula","country":"mz","lat":-15.8166667,"lon":39.0666667},{"id":1961559,"name":"netarre","country":"mz","lat":-15.8452778,"lon":39.24},{"id":1951767,"name":"costa","country":"mz","lat":-16.1152778,"lon":39.1891667},{"id":1948713,"name":"chefe alberto","country":"mz","lat":-16.0747222,"lon":39.2588889},{"id":1954159,"name":"joao macuta","country":"mz","lat":-15.8005556,"lon":39.4411111},{"id":1958744,"name":"mocali","country":"mz","lat":-16.3,"lon":38.6833333},{"id":1948704,"name":"chefe adelino","country":"mz","lat":-16.0475,"lon":38.9441667},{"id":1957928,"name":"megema","country":"mz","lat":-15.9602778,"lon":39.0425},{"id":1948155,"name":"catarrua","country":"mz","lat":-15.6136111,"lon":39.2775},{"id":1965144,"name":"tecane","country":"mz","lat":-15.8741667,"lon":39.2275},{"id":1966404,"name":"xana","country":"mz","lat":-15.5305556,"lon":39.0561111},{"id":1963469,"name":"regulo aligema","country":"mz","lat":-16.145,"lon":39.3888889},{"id":1963535,"name":"regulo lima","country":"mz","lat":-16.115,"lon":39.0947222},{"id":1961226,"name":"napala","country":"mz","lat":-15.9844444,"lon":39.12},{"id":1964763,"name":"suati","country":"mz","lat":-16.0536111,"lon":39.1363889},{"id":1963914,"name":"ruaneque","country":"mz","lat":-15.9002778,"lon":39.3977778},{"id":1960032,"name":"muoelene","country":"mz","lat":-16.2411111,"lon":39.4430556},{"id":1965815,"name":"uatapeia","country":"mz","lat":-15.7605556,"lon":39.2797222},{"id":1962187,"name":"nomala","country":"mz","lat":-16.4,"lon":39.2819444},{"id":1960279,"name":"muteperre","country":"mz","lat":-15.8652778,"lon":39.4163889},{"id":1948991,"name":"chefe coutinho","country":"mz","lat":-16.2383333,"lon":39.0986111},{"id":1953934,"name":"jaime","country":"mz","lat":-16.4408333,"lon":39.0511111},{"id":1962612,"name":"parada","country":"mz","lat":-16.2952778,"lon":39.205},{"id":1949393,"name":"chefe marue","country":"mz","lat":-16.2019444,"lon":39.4936111},{"id":1952105,"name":"daniel","country":"mz","lat":-16.2238889,"lon":39.3261111},{"id":1960059,"name":"muquela","country":"mz","lat":-15.8275,"lon":39.1761111},{"id":1959833,"name":"muitacala","country":"mz","lat":-15.8961111,"lon":39.4955556},{"id":1948249,"name":"cauaio","country":"mz","lat":-15.7527778,"lon":39.4380556},{"id":1964843,"name":"tacanhe","country":"mz","lat":-15.7897222,"lon":39.3747222},{"id":1963318,"name":"ranque","country":"mz","lat":-15.8291667,"lon":38.8572222},{"id":1962790,"name":"pepela","country":"mz","lat":-15.8230556,"lon":39.3283333},{"id":1960932,"name":"namiune","country":"mz","lat":-15.9444444,"lon":39.2025},{"id":1959399,"name":"mucarra","country":"mz","lat":-15.5119444,"lon":38.5055556},{"id":1965266,"name":"tiago","country":"mz","lat":-16.4275,"lon":38.5822222},{"id":1958868,"name":"momoe","country":"mz","lat":-16.1636111,"lon":38.9897222},{"id":1949882,"name":"chefe nicua","country":"mz","lat":-16.4094444,"lon":39.1216667},{"id":1958752,"name":"mocaue","country":"mz","lat":-15.8375,"lon":39.1725},{"id":1959850,"name":"muitumi","country":"mz","lat":-16.4705556,"lon":39.3975},{"id":1950106,"name":"chefe tiquite","country":"mz","lat":-16.1425,"lon":39.2869444},{"id":1958264,"name":"messori","country":"mz","lat":-15.8116667,"lon":39.3863889},{"id":1963515,"name":"regulo etaga","country":"mz","lat":-16.4008333,"lon":38.6013889},{"id":1959334,"name":"muaua","country":"mz","lat":-15.9822222,"lon":39.1791667},{"id":1958329,"name":"metchamuene","country":"mz","lat":-15.9808333,"lon":39.0758333},{"id":1965867,"name":"ucone","country":"mz","lat":-15.5763889,"lon":39.1505556},{"id":1949514,"name":"chefe mitua","country":"mz","lat":-16.4655556,"lon":39.1202778},{"id":1949106,"name":"chefe impapanua","country":"mz","lat":-16.4505556,"lon":38.6463889},{"id":1955465,"name":"macotola","country":"mz","lat":-15.7883333,"lon":39.3261111},{"id":1948715,"name":"chefe albino","country":"mz","lat":-16.1380556,"lon":39.0813889},{"id":1951054,"name":"chirripo","country":"mz","lat":-15.9836111,"lon":39.3294444},{"id":1963521,"name":"regulo guerra","country":"mz","lat":-16.0369444,"lon":39.2216667},{"id":1965175,"name":"telele","country":"mz","lat":-15.9705556,"lon":39.3441667},{"id":1956045,"name":"maioela","country":"mz","lat":-15.8063889,"lon":39.3325},{"id":1963660,"name":"regulo mussevel","country":"mz","lat":-16.0125,"lon":39.1902778},{"id":1948052,"name":"carpinteiro","country":"mz","lat":-16.3019444,"lon":39.065},{"id":1958988,"name":"morri","country":"mz","lat":-16.1663889,"lon":38.7219444},{"id":1950158,"name":"chefe vento","country":"mz","lat":-16.4122222,"lon":39.2613889},{"id":1962195,"name":"nomolone","country":"mz","lat":-16.2152778,"lon":39.2547222},{"id":1966161,"name":"vecula","country":"mz","lat":-15.815,"lon":38.6916667},{"id":1949132,"name":"chefe inxela","country":"mz","lat":-16.1569444,"lon":39.3613889},{"id":1945612,"name":"alama","country":"mz","lat":-15.6827778,"lon":39.0097222},{"id":1953891,"name":"iuluti","country":"mz","lat":-15.8344444,"lon":38.9791667},{"id":1955479,"name":"macua","country":"mz","lat":-16.4347222,"lon":39.4583333},{"id":1962913,"name":"pitiua","country":"mz","lat":-16.0694444,"lon":38.96},{"id":1947897,"name":"canteua","country":"mz","lat":-15.62,"lon":38.5711111},{"id":1949389,"name":"chefe marrua","country":"mz","lat":-16.3088889,"lon":38.5475},{"id":1950078,"name":"chefe supera","country":"mz","lat":-16.3905556,"lon":39.3722222},{"id":1961309,"name":"nasilelo","country":"mz","lat":-15.8058333,"lon":39.2033333},{"id":1956306,"name":"maluo","country":"mz","lat":-15.8266667,"lon":38.825},{"id":1957251,"name":"matela","country":"mz","lat":-16.1,"lon":39.3666667},{"id":1947656,"name":"calipo","country":"mz","lat":-15.63,"lon":39.1047222},{"id":1961043,"name":"namuta","country":"mz","lat":-15.9038889,"lon":39.3180556},{"id":1963388,"name":"rea","country":"mz","lat":-15.6897222,"lon":38.7680556},{"id":1962008,"name":"nicolau","country":"mz","lat":-16.1133333,"lon":39.2108333},{"id":1949673,"name":"chefe mulele","country":"mz","lat":-16.3669444,"lon":39.2294444},{"id":1962125,"name":"niqueta","country":"mz","lat":-15.9083333,"lon":39.3880556},{"id":1962282,"name":"nuala","country":"mz","lat":-15.9902778,"lon":39.1755556},{"id":1965222,"name":"tepo","country":"mz","lat":-15.7477778,"lon":39.1727778},{"id":1957806,"name":"mechira","country":"mz","lat":-15.8397222,"lon":39.07},{"id":1950066,"name":"chefe silverio","country":"mz","lat":-16.4152778,"lon":39.4025},{"id":1947831,"name":"canhaia","country":"mz","lat":-16.1772222,"lon":38.9858333},{"id":1961981,"name":"niburra","country":"mz","lat":-15.9502778,"lon":38.5047222},{"id":1949709,"name":"chefe murronha","country":"mz","lat":-16.44,"lon":39.0783333},{"id":1950096,"name":"chefe telua","country":"mz","lat":-16.4063889,"lon":39.3863889},{"id":1965167,"name":"teixeira","country":"mz","lat":-16.1302778,"lon":39.2483333},{"id":1949072,"name":"chefe gelo","country":"mz","lat":-16.1363889,"lon":38.9575},{"id":1958833,"name":"mojale","country":"mz","lat":-15.65,"lon":39.0961111},{"id":1959755,"name":"muhia","country":"mz","lat":-15.6005556,"lon":38.725},{"id":1946175,"name":"amela","country":"mz","lat":-16.19,"lon":38.8877778},{"id":1965634,"name":"uachecua","country":"mz","lat":-15.6102778,"lon":39.2536111},{"id":1963516,"name":"regulo fernando","country":"mz","lat":-16.1358333,"lon":38.9905556},{"id":1949292,"name":"chefe mahaxa","country":"mz","lat":-16.0219444,"lon":38.7316667},{"id":1959897,"name":"mulengua","country":"mz","lat":-15.9655556,"lon":39.0738889}]});