callback({"markets":[{"id":304000,"name":"lagoa do neco","country":"br","lat":-8.816667,"lon":-42.916667},{"id":290979,"name":"bom fim","country":"br","lat":-9.15,"lon":-42.85},{"id":315714,"name":"sao antonio","country":"br","lat":-9.016667,"lon":-42.766667},{"id":290127,"name":"bate","country":"br","lat":-8.866667,"lon":-43.15},{"id":327042,"name":"travessao","country":"br","lat":-9.266667,"lon":-43.283333},{"id":289077,"name":"baixao do calixto","country":"br","lat":-9.45,"lon":-43.183333},{"id":307579,"name":"nascimento","country":"br","lat":-9.016667,"lon":-42.8},{"id":312851,"name":"raimundo nonato","country":"br","lat":-9.016667,"lon":-42.7},{"id":303868,"name":"lagoa das vacas","country":"br","lat":-9.183333,"lon":-42.616667},{"id":309773,"name":"pe da serra","country":"br","lat":-8.783333,"lon":-42.75},{"id":303645,"name":"jurubeba","country":"br","lat":-8.833333,"lon":-42.566667},{"id":291938,"name":"cabore","country":"br","lat":-9.2,"lon":-42.516667},{"id":303369,"name":"jose luiz","country":"br","lat":-9.3,"lon":-42.9},{"id":301325,"name":"indaia","country":"br","lat":-8.816667,"lon":-43.016667},{"id":327955,"name":"varzea branca","country":"br","lat":-9.233333,"lon":-42.933333},{"id":293721,"name":"caracol","country":"br","lat":-9.283333,"lon":-43.333333},{"id":317603,"name":"serra nova","country":"br","lat":-8.983333,"lon":-42.866667},{"id":299962,"name":"gaviao","country":"br","lat":-9.316667,"lon":-43.316667},{"id":303812,"name":"lagoa comprida","country":"br","lat":-9.35,"lon":-42.6},{"id":319560,"name":"sitio da aldeia","country":"br","lat":-9.433333,"lon":-42.883333},{"id":304086,"name":"lagoa jurema","country":"br","lat":-9.35,"lon":-43.3},{"id":327009,"name":"tranquera","country":"br","lat":-9.083333,"lon":-42.966667},{"id":292542,"name":"caldeiraosinho","country":"br","lat":-9.166667,"lon":-42.983333},{"id":310877,"name":"pitombas","country":"br","lat":-9.416667,"lon":-43.216667},{"id":315836,"name":"sao braz","country":"br","lat":-9.066667,"lon":-42.983333}]});