callback({"markets":[{"id":1647038,"name":"kopbulak","country":"kz","lat":47.783333,"lon":56.75},{"id":1647336,"name":"kozha-tugay","country":"kz","lat":48.133333,"lon":57.166667},{"id":1651284,"name":"saryqol","country":"kz","lat":48.230833,"lon":56.633889},{"id":1646262,"name":"kemershi","country":"kz","lat":48.081111,"lon":56.76},{"id":1655071,"name":"zhangana","country":"kz","lat":48.05,"lon":56.65},{"id":1642543,"name":"baysary-sagasy","country":"kz","lat":48.1,"lon":56.833333},{"id":1646668,"name":"kodzha-tugay","country":"kz","lat":48.2125,"lon":57.118889},{"id":1642352,"name":"bashenkol\u0027","country":"kz","lat":48.466667,"lon":57.166667},{"id":1651200,"name":"sartunsuk","country":"kz","lat":48.15,"lon":56.8},{"id":1648189,"name":"kzyl-choke","country":"kz","lat":48.2,"lon":56.766667}]});