callback({"markets":[{"id":1986797,"name":"chigarker","country":"ng","lat":10.800486,"lon":12.779686},{"id":2012444,"name":"pambla","country":"ng","lat":10.680509,"lon":13.387183},{"id":2001860,"name":"koshama hamlets","country":"ng","lat":10.838163,"lon":12.933435},{"id":2007668,"name":"njila hamlets","country":"ng","lat":10.849017,"lon":12.777734},{"id":2020478,"name":"washamta","country":"ng","lat":10.716988,"lon":12.545639},{"id":2021717,"name":"zadawa gabas","country":"ng","lat":10.64838,"lon":12.920291},{"id":2012791,"name":"pridang i","country":"ng","lat":11.133333,"lon":13.35},{"id":2012601,"name":"payashetan chalba","country":"ng","lat":10.746025,"lon":12.925159},{"id":1984464,"name":"balajan","country":"ng","lat":10.885345,"lon":12.789855},{"id":1988129,"name":"degemba","country":"ng","lat":11.333333,"lon":13.333333},{"id":2002396,"name":"kumsi","country":"ng","lat":11.466667,"lon":12.883333},{"id":2006736,"name":"musa","country":"ng","lat":10.735708,"lon":13.130663},{"id":2001351,"name":"kirikashima","country":"ng","lat":11.3873,"lon":12.9659},{"id":1986580,"name":"buzinda","country":"ng","lat":10.726418,"lon":13.170275},{"id":2006533,"name":"moutu","country":"ng","lat":11.216667,"lon":13.166667},{"id":2006794,"name":"muzuku","country":"ng","lat":10.594631,"lon":13.39958},{"id":2018175,"name":"umarari","country":"ng","lat":11.2,"lon":13.033333},{"id":2006274,"name":"miya","country":"ng","lat":10.560788,"lon":13.050473},{"id":2014872,"name":"shosho","country":"ng","lat":10.675784,"lon":13.16124},{"id":2012728,"name":"pogu wondu","country":"ng","lat":10.656869,"lon":12.934555},{"id":2014821,"name":"shirfaya hamlets","country":"ng","lat":10.862896,"lon":12.786909},{"id":2003253,"name":"kyahakilba kura","country":"ng","lat":10.530154,"lon":12.999303},{"id":1986030,"name":"boza","country":"ng","lat":10.611172,"lon":12.523816},{"id":1984621,"name":"bamzur","country":"ng","lat":10.827664,"lon":12.792782},{"id":1986246,"name":"bulabulin","country":"ng","lat":11.3885,"lon":12.9074},{"id":2012797,"name":"pubagu","country":"ng","lat":10.536005,"lon":13.00539},{"id":2006645,"name":"mulgai","country":"ng","lat":11.213304,"lon":13.217019},{"id":1994874,"name":"gyomakugwe","country":"ng","lat":10.653991,"lon":13.087777},{"id":1980634,"name":"ajiri","country":"ng","lat":11.233333,"lon":13.083333},{"id":2021214,"name":"yancheri","country":"ng","lat":10.80419,"lon":12.72514},{"id":2006780,"name":"muvataful","country":"ng","lat":10.508023,"lon":13.005866},{"id":2018178,"name":"umari","country":"ng","lat":11.3897,"lon":12.7326},{"id":2021173,"name":"yambile","country":"ng","lat":10.601941,"lon":13.340042},{"id":2021440,"name":"yaza","country":"ng","lat":10.883333,"lon":13.316667},{"id":2021342,"name":"yarchida","country":"ng","lat":10.903914,"lon":12.718188},{"id":1986566,"name":"butuku","country":"ng","lat":10.895625,"lon":13.379444},{"id":2020464,"name":"wasada","country":"ng","lat":10.833333,"lon":13.15},{"id":1985428,"name":"biang","country":"ng","lat":10.6,"lon":13.266667},{"id":2004770,"name":"maisaimari","country":"ng","lat":11.2,"lon":13.0},{"id":1995190,"name":"huyum","country":"ng","lat":10.768151,"lon":13.142878},{"id":2017689,"name":"uda","country":"ng","lat":10.860554,"lon":13.362999},{"id":2005016,"name":"malakwaya ii","country":"ng","lat":10.951831,"lon":13.395142},{"id":1988767,"name":"duhu","country":"ng","lat":10.787491,"lon":13.451223},{"id":2015477,"name":"takulashi buladunya","country":"ng","lat":10.794418,"lon":12.750422},{"id":2001456,"name":"kobuwu","country":"ng","lat":10.909134,"lon":12.624417},{"id":1983200,"name":"askira","country":"ng","lat":10.646971,"lon":12.911043},{"id":2006236,"name":"minkis","country":"ng","lat":10.638634,"lon":13.425592},{"id":1999597,"name":"jurok","country":"ng","lat":10.716637,"lon":13.320646},{"id":2001047,"name":"kelle","country":"ng","lat":10.689566,"lon":13.202719},{"id":1985055,"name":"bassa","country":"ng","lat":10.564263,"lon":13.317576},{"id":1987242,"name":"daka","country":"ng","lat":10.621128,"lon":13.401291},{"id":1986803,"name":"chiha","country":"ng","lat":10.844104,"lon":12.750816},{"id":2014766,"name":"shiki","country":"ng","lat":10.841495,"lon":12.855256},{"id":2001330,"name":"kirdidila njekuva","country":"ng","lat":10.646526,"lon":13.111851},{"id":2000880,"name":"kaurwatik-ari","country":"ng","lat":10.824729,"lon":12.987485},{"id":1991888,"name":"gar","country":"ng","lat":10.690742,"lon":12.571568},{"id":2006330,"name":"moda","country":"ng","lat":10.633333,"lon":13.416667},{"id":2021076,"name":"yafa","country":"ng","lat":10.77903,"lon":13.312995},{"id":2002819,"name":"kuvu-kiva","country":"ng","lat":10.76843,"lon":13.129871},{"id":1981342,"name":"alagarno ii","country":"ng","lat":10.671793,"lon":12.563047},{"id":2015286,"name":"tabang bulayahi","country":"ng","lat":10.646666,"lon":12.977505},{"id":2006672,"name":"mumzu gova","country":"ng","lat":10.66464,"lon":12.704548},{"id":1988312,"name":"dil hamlets","country":"ng","lat":10.527027,"lon":12.97617},{"id":2012720,"name":"piying hamlets","country":"ng","lat":10.903111,"lon":12.851438},{"id":2007679,"name":"njoma musa","country":"ng","lat":10.610967,"lon":12.932429},{"id":2020284,"name":"wakir yamma","country":"ng","lat":10.579305,"lon":12.992284},{"id":1999683,"name":"kabur-maduwa","country":"ng","lat":10.651224,"lon":13.262261},{"id":1997597,"name":"imirfaya bulagole","country":"ng","lat":10.940179,"lon":12.714069},{"id":2020263,"name":"wakara","country":"ng","lat":10.830857,"lon":13.473249},{"id":2015285,"name":"tabang bula buba","country":"ng","lat":10.682845,"lon":12.962502},{"id":2001696,"name":"komndi gana","country":"ng","lat":10.982122,"lon":12.866011},{"id":1985246,"name":"bego","country":"ng","lat":11.122328,"lon":13.006949},{"id":2007678,"name":"njoma jato","country":"ng","lat":10.59758,"lon":12.968735},{"id":2002069,"name":"kubi","country":"ng","lat":10.644396,"lon":13.300038},{"id":1985904,"name":"bombula bula-wosa","country":"ng","lat":10.899251,"lon":12.692202},{"id":1978818,"name":"abodari","country":"ng","lat":10.997901,"lon":12.830512},{"id":2001500,"name":"kofin","country":"ng","lat":10.553373,"lon":13.098342},{"id":2001864,"name":"koshika","country":"ng","lat":10.505346,"lon":13.161749},{"id":1998686,"name":"izge-lamsu","country":"ng","lat":10.929066,"lon":13.302902},{"id":1991253,"name":"fwa","country":"ng","lat":10.571943,"lon":13.236548},{"id":2002091,"name":"kubur-shosho","country":"ng","lat":10.674665,"lon":13.296473},{"id":2021167,"name":"yamagadu","country":"ng","lat":10.791841,"lon":12.723168},{"id":2012810,"name":"pumpum","country":"ng","lat":10.818447,"lon":13.199407},{"id":2005981,"name":"mbowa murigangaran","country":"ng","lat":10.958677,"lon":12.763013},{"id":2014288,"name":"sasawa kura","country":"ng","lat":11.183333,"lon":13.466667},{"id":2002305,"name":"kulari hamlets","country":"ng","lat":10.979414,"lon":12.934325},{"id":2001843,"name":"korongelen bula-burakar","country":"ng","lat":10.862826,"lon":12.708191},{"id":1992096,"name":"garuburgu","country":"ng","lat":10.555516,"lon":13.217621},{"id":1986572,"name":"buwu","country":"ng","lat":10.647161,"lon":12.602817},{"id":2005974,"name":"mbororo","country":"ng","lat":10.649082,"lon":13.45325},{"id":2006666,"name":"mumfi hamlets","country":"ng","lat":10.890348,"lon":12.907832},{"id":2008160,"name":"nyita","country":"ng","lat":10.931661,"lon":12.603686},{"id":1998687,"name":"izge-nguru","country":"ng","lat":10.981875,"lon":13.301945},{"id":1982021,"name":"ambiya","country":"ng","lat":10.945756,"lon":12.611916},{"id":2021097,"name":"yajua","country":"ng","lat":11.383846,"lon":12.723595},{"id":1986311,"name":"bulanubwa","country":"ng","lat":10.618369,"lon":13.028346},{"id":2001844,"name":"korongelen bula dunya","country":"ng","lat":10.854922,"lon":12.71573},{"id":2000663,"name":"kasakciya bula-mutekuse","country":"ng","lat":10.657975,"lon":12.964535},{"id":1993883,"name":"gombe","country":"ng","lat":10.615466,"lon":13.069555},{"id":1999464,"name":"jirina","country":"ng","lat":11.3989,"lon":12.9389},{"id":1978543,"name":"abana","country":"ng","lat":10.620674,"lon":13.079437},{"id":2004755,"name":"maira","country":"ng","lat":10.733333,"lon":13.483333},{"id":2003789,"name":"leho bulama yaro","country":"ng","lat":10.678747,"lon":12.771439},{"id":2012603,"name":"payawula","country":"ng","lat":10.652864,"lon":12.68621},{"id":1987410,"name":"damboa","country":"ng","lat":11.156036,"lon":12.757583},{"id":2006692,"name":"mungum","country":"ng","lat":10.593323,"lon":13.148131},{"id":2001552,"name":"kohuma","country":"ng","lat":10.54233,"lon":13.171508},{"id":2020385,"name":"wannasara","country":"ng","lat":10.847808,"lon":12.886276},{"id":1999333,"name":"jigalambu","country":"ng","lat":10.578239,"lon":13.327347},{"id":2003027,"name":"kwang","country":"ng","lat":10.843437,"lon":13.222638},{"id":2003252,"name":"kyahakilba gana","country":"ng","lat":10.521807,"lon":12.987507},{"id":1997643,"name":"imrali","country":"ng","lat":10.636231,"lon":13.044802},{"id":2003860,"name":"leprosy village","country":"ng","lat":10.668366,"lon":13.371469},{"id":2001842,"name":"korongelen bula-abo","country":"ng","lat":10.866984,"lon":12.698872},{"id":1994306,"name":"guljangol","country":"ng","lat":10.82009,"lon":13.307619},{"id":2016064,"name":"tokombere","country":"ng","lat":11.227127,"lon":13.485807},{"id":2019827,"name":"urga","country":"ng","lat":11.470902,"lon":13.425172},{"id":2000882,"name":"kauthlama gana","country":"ng","lat":10.743368,"lon":12.79621},{"id":1998864,"name":"jalomiri","country":"ng","lat":11.266667,"lon":13.116667},{"id":1986198,"name":"bukarti","country":"ng","lat":11.053504,"lon":12.997036},{"id":2015509,"name":"talakawa","country":"ng","lat":10.873712,"lon":13.100127},{"id":2001292,"name":"kingking","country":"ng","lat":10.707419,"lon":13.113402},{"id":1987635,"name":"dangha","country":"ng","lat":10.817486,"lon":12.866723},{"id":1999357,"name":"jigirochadi","country":"ng","lat":10.814541,"lon":12.751703},{"id":2000357,"name":"kankila","country":"ng","lat":10.616721,"lon":13.259371},{"id":2006263,"name":"miskira","country":"ng","lat":10.592299,"lon":13.03156},{"id":2000662,"name":"kasakciya bulamadu","country":"ng","lat":10.736502,"lon":12.980816},{"id":2003792,"name":"leho mbulla-ufa yamma","country":"ng","lat":10.691803,"lon":12.81969},{"id":2021569,"name":"yimilarin bula wofi gana","country":"ng","lat":10.606707,"lon":12.98599},{"id":1986195,"name":"bukar kwareri","country":"ng","lat":11.2,"lon":13.066667},{"id":1988730,"name":"dufa","country":"ng","lat":11.1,"lon":12.55},{"id":1985903,"name":"bombula bula-fali","country":"ng","lat":10.89292,"lon":12.685797},{"id":2002398,"name":"kumumza","country":"ng","lat":10.906457,"lon":13.317882},{"id":2003788,"name":"leho bulama birngin","country":"ng","lat":10.654518,"lon":12.791029},{"id":1985725,"name":"bitta","country":"ng","lat":11.166667,"lon":13.416667},{"id":2016614,"name":"tudun wada","country":"ng","lat":10.583773,"lon":13.341147},{"id":2020907,"name":"wuro madagali","country":"ng","lat":10.566943,"lon":13.222263},{"id":1993935,"name":"goniri","country":"ng","lat":11.183649,"lon":13.045772},{"id":1999706,"name":"kaciktiya","country":"ng","lat":10.686389,"lon":12.572271},{"id":2020158,"name":"vilegwa","country":"ng","lat":10.640154,"lon":13.354327},{"id":2007552,"name":"nguradina ii","country":"ng","lat":10.830677,"lon":12.967577},{"id":1992257,"name":"gayo kura","country":"ng","lat":10.761606,"lon":12.756126},{"id":1986289,"name":"bulamakori","country":"ng","lat":10.676972,"lon":12.998862},{"id":1993888,"name":"gombewa","country":"ng","lat":10.601526,"lon":13.042572},{"id":2012790,"name":"pridang ii","country":"ng","lat":11.1,"lon":13.35},{"id":1986248,"name":"bulabum hamlets","country":"ng","lat":10.8407,"lon":12.912789},{"id":2000046,"name":"kakilmari","country":"ng","lat":10.86577,"lon":12.976515},{"id":2007405,"name":"ngaburawa","country":"ng","lat":10.819855,"lon":12.964848},{"id":2021022,"name":"wuyaram","country":"ng","lat":11.166667,"lon":12.7},{"id":1979104,"name":"adama","country":"ng","lat":11.233333,"lon":13.166667},{"id":2004606,"name":"maigadari","country":"ng","lat":10.820582,"lon":13.334686},{"id":2005977,"name":"mbowa bulatal","country":"ng","lat":10.935497,"lon":12.759697},{"id":2007545,"name":"ngulde","country":"ng","lat":10.666107,"lon":12.544591},{"id":2000901,"name":"kaviri damboa","country":"ng","lat":11.05,"lon":13.316667},{"id":2014946,"name":"simike","country":"ng","lat":10.583333,"lon":13.483333},{"id":1984465,"name":"balajan bula-kabu","country":"ng","lat":10.875263,"lon":12.784048},{"id":1978672,"name":"abduri","country":"ng","lat":11.266667,"lon":13.133333},{"id":1985634,"name":"birnewa","country":"ng","lat":10.600891,"lon":13.027398},{"id":2008081,"name":"nyamgha mainta","country":"ng","lat":10.652884,"lon":12.505889},{"id":2007553,"name":"nguradina i","country":"ng","lat":10.843791,"lon":12.967114},{"id":2002221,"name":"kuka kowa","country":"ng","lat":11.292382,"lon":12.854735},{"id":2005148,"name":"mallamri","country":"ng","lat":11.25,"lon":13.066667},{"id":2000946,"name":"kaya","country":"ng","lat":10.815506,"lon":13.419515},{"id":2020596,"name":"womdiou","country":"ng","lat":10.533333,"lon":13.133333},{"id":2005668,"name":"maudori","country":"ng","lat":11.466056,"lon":12.589519},{"id":2003959,"name":"litawa","country":"ng","lat":10.987444,"lon":12.549443},{"id":1986018,"name":"bovtari","country":"ng","lat":10.886568,"lon":12.946022},{"id":2014737,"name":"shettimari","country":"ng","lat":11.2,"lon":13.116667},{"id":1987291,"name":"dala","country":"ng","lat":11.216667,"lon":13.116667},{"id":1992184,"name":"gatamarua bula-sanya","country":"ng","lat":10.729576,"lon":12.997923},{"id":2015288,"name":"tabang","country":"ng","lat":10.930422,"lon":12.735939},{"id":1993762,"name":"gizie","country":"ng","lat":11.416667,"lon":13.183333},{"id":1999239,"name":"jemyeri","country":"ng","lat":11.211335,"lon":12.582817},{"id":1988086,"name":"dayi","country":"ng","lat":11.2,"lon":13.466667},{"id":1997713,"name":"innagu","country":"ng","lat":10.919827,"lon":13.342465},{"id":2022112,"name":"zugumi","country":"ng","lat":10.512815,"lon":12.730816},{"id":2012628,"name":"pemi","country":"ng","lat":10.776773,"lon":12.916615},{"id":1982969,"name":"arri kurumiri","country":"ng","lat":11.333333,"lon":12.883333},{"id":2004996,"name":"makzu","country":"ng","lat":10.594799,"lon":13.364684},{"id":1992256,"name":"gayo gana","country":"ng","lat":10.773067,"lon":12.766053},{"id":1993859,"name":"gokombi","country":"ng","lat":10.777992,"lon":13.068151},{"id":1998705,"name":"izuwe","country":"ng","lat":11.416667,"lon":13.266667},{"id":1992082,"name":"garta","country":"ng","lat":10.633333,"lon":13.483333},{"id":1984186,"name":"bagajau","country":"ng","lat":10.734768,"lon":13.303986},{"id":2006181,"name":"mihtakwa","country":"ng","lat":10.543672,"lon":13.254729},{"id":1992104,"name":"garuhiza","country":"ng","lat":10.662419,"lon":12.53517},{"id":2016489,"name":"tsondiya","country":"ng","lat":11.233333,"lon":12.766667},{"id":1986266,"name":"bulagarga i","country":"ng","lat":10.98451,"lon":12.97641},{"id":2004605,"name":"maigadama","country":"ng","lat":10.829141,"lon":13.357459},{"id":1981341,"name":"alagarno i","country":"ng","lat":10.708622,"lon":12.739963},{"id":1999701,"name":"kachiri","country":"ng","lat":11.25,"lon":13.133333},{"id":2000664,"name":"kasakciya bula tukur","country":"ng","lat":10.665476,"lon":12.94494},{"id":1986309,"name":"bula nkyaki","country":"ng","lat":10.750268,"lon":12.886295},{"id":1999478,"name":"joba","country":"ng","lat":11.3939,"lon":12.7448},{"id":1995192,"name":"hwobda","country":"ng","lat":10.513624,"lon":12.983885},{"id":1988464,"name":"dogoma","country":"ng","lat":11.483333,"lon":12.5},{"id":2006659,"name":"multafu","country":"ng","lat":10.764722,"lon":13.275175},{"id":1986259,"name":"buladiama","country":"ng","lat":11.266667,"lon":13.35},{"id":1997596,"name":"imirchika","country":"ng","lat":10.853211,"lon":12.638641},{"id":1999408,"name":"jimbulum","country":"ng","lat":10.70743,"lon":12.577134},{"id":2020640,"name":"wuciwar","country":"ng","lat":10.716935,"lon":13.114055},{"id":2005771,"name":"mayo wandu","country":"ng","lat":10.691006,"lon":13.45389},{"id":1986842,"name":"chimi","country":"ng","lat":10.594822,"lon":13.283675},{"id":2021544,"name":"yerwa","country":"ng","lat":11.216667,"lon":12.883333},{"id":2002974,"name":"kwalia","country":"ng","lat":10.682248,"lon":13.364914},{"id":2020945,"name":"wuro ngiki","country":"ng","lat":10.693365,"lon":13.394325},{"id":2006765,"name":"mutube","country":"ng","lat":11.247498,"lon":13.335522},{"id":2020672,"name":"wultihiya","country":"ng","lat":10.715812,"lon":12.794495},{"id":1991906,"name":"gari","country":"ng","lat":10.670866,"lon":13.386468},{"id":1986267,"name":"bulagarga ii","country":"ng","lat":10.974947,"lon":12.978729},{"id":2000887,"name":"kauyaga","country":"ng","lat":10.850077,"lon":12.987764},{"id":2005835,"name":"mbalala gana","country":"ng","lat":10.76655,"lon":12.871201},{"id":2014163,"name":"sansan","country":"ng","lat":11.483333,"lon":12.683333},{"id":2001687,"name":"komda","country":"ng","lat":10.869357,"lon":13.460309},{"id":1979441,"name":"adzunge","country":"ng","lat":11.473372,"lon":13.352053},{"id":1999326,"name":"jidil","country":"ng","lat":10.633977,"lon":13.395085},{"id":1994888,"name":"hadaku","country":"ng","lat":10.539924,"lon":12.741744},{"id":2007677,"name":"njoma dikwa","country":"ng","lat":10.585391,"lon":12.936959},{"id":1986270,"name":"bula julta","country":"ng","lat":11.416667,"lon":13.233333},{"id":2020515,"name":"wawa","country":"ng","lat":11.0936,"lon":12.6272},{"id":2007410,"name":"ngadarma butu","country":"ng","lat":10.732569,"lon":12.850004},{"id":2015572,"name":"tampul","country":"ng","lat":10.581197,"lon":13.187289},{"id":1994836,"name":"gwonari","country":"ng","lat":11.183333,"lon":13.433333},{"id":2002998,"name":"kwamjilari gana","country":"ng","lat":10.902282,"lon":13.05513},{"id":2003794,"name":"leho yahi-chiroma","country":"ng","lat":10.663102,"lon":12.880082},{"id":1993763,"name":"gizige","country":"ng","lat":11.483333,"lon":13.15},{"id":2004609,"name":"maigana","country":"ng","lat":10.795859,"lon":13.337605},{"id":2006668,"name":"mumtal","country":"ng","lat":10.731459,"lon":13.123993},{"id":2005253,"name":"mandan","country":"ng","lat":10.943437,"lon":13.373473},{"id":2007409,"name":"ngadarma bulayahi","country":"ng","lat":10.712783,"lon":12.871735},{"id":2003138,"name":"kwatama daffa","country":"ng","lat":10.709331,"lon":13.387002},{"id":1998690,"name":"izge-wonari","country":"ng","lat":10.970849,"lon":13.357541},{"id":2016060,"name":"tokiya","country":"ng","lat":10.724816,"lon":13.497949},{"id":2005136,"name":"mallam maitari","country":"ng","lat":11.216667,"lon":13.066667},{"id":2022130,"name":"zukui","country":"ng","lat":10.651939,"lon":13.400039},{"id":1979109,"name":"adam","country":"ng","lat":10.65752,"lon":12.527683},{"id":2004769,"name":"maisaimari birin","country":"ng","lat":11.2,"lon":13.05},{"id":1987287,"name":"dakwama mussa","country":"ng","lat":10.698395,"lon":13.091017},{"id":2000883,"name":"kauthlama kura","country":"ng","lat":10.75773,"lon":12.817079},{"id":2002875,"name":"kwadzali","country":"ng","lat":10.660153,"lon":13.27726},{"id":1991619,"name":"gandaji","country":"ng","lat":10.610512,"lon":13.365041},{"id":2001328,"name":"kircinga","country":"ng","lat":10.782845,"lon":13.355624},{"id":1997587,"name":"imidalu","country":"ng","lat":10.708517,"lon":13.198693},{"id":2014410,"name":"sendowa","country":"ng","lat":11.226472,"lon":12.814537},{"id":2003707,"name":"latan","country":"ng","lat":11.433333,"lon":13.2},{"id":2002864,"name":"kwada","country":"ng","lat":10.885603,"lon":12.704288},{"id":1986585,"name":"bwakar","country":"ng","lat":10.533333,"lon":13.433333},{"id":2002404,"name":"kunadur","country":"ng","lat":11.05,"lon":12.683333},{"id":1994049,"name":"gra","country":"ng","lat":10.718156,"lon":13.357609},{"id":1992186,"name":"gatamarua","country":"ng","lat":10.712262,"lon":12.988455},{"id":1982899,"name":"ariwuzumari","country":"ng","lat":11.410055,"lon":12.815863},{"id":2002306,"name":"kulari lawanti","country":"ng","lat":10.995955,"lon":12.948746},{"id":2001247,"name":"kiliarnga","country":"ng","lat":10.703501,"lon":12.761347},{"id":2006647,"name":"mulgwe mayirima","country":"ng","lat":11.45,"lon":13.283333},{"id":2002349,"name":"kumala","country":"ng","lat":11.4847,"lon":12.9638},{"id":2000203,"name":"kamari","country":"ng","lat":11.283333,"lon":13.083333},{"id":2012602,"name":"payawoshodi hamlets","country":"ng","lat":10.553932,"lon":12.957744},{"id":1981667,"name":"allagarno","country":"ng","lat":11.123494,"lon":13.111483},{"id":1993892,"name":"gombilari","country":"ng","lat":10.972056,"lon":12.826413},{"id":2020944,"name":"wuro ngangandi","country":"ng","lat":10.728554,"lon":13.385148},{"id":1988983,"name":"dusu","country":"ng","lat":10.948617,"lon":12.606315},{"id":2020237,"name":"waidari","country":"ng","lat":11.233333,"lon":13.1},{"id":1995016,"name":"haw","country":"ng","lat":10.595903,"lon":13.21806},{"id":2012597,"name":"payamopu gana","country":"ng","lat":10.784708,"lon":12.839483},{"id":1994367,"name":"gumsuri","country":"ng","lat":11.0534,"lon":12.8164},{"id":2012815,"name":"pupanyunyu","country":"ng","lat":10.69378,"lon":12.705022},{"id":2004931,"name":"makerima","country":"ng","lat":10.651224,"lon":13.021917},{"id":1978537,"name":"abalam","country":"ng","lat":11.372009,"lon":12.614024},{"id":2005979,"name":"mbowa kura","country":"ng","lat":10.946063,"lon":12.775415},{"id":1999795,"name":"kafa","country":"ng","lat":10.606227,"lon":13.391825},{"id":2015284,"name":"tabang bula boni","country":"ng","lat":10.731975,"lon":12.898306},{"id":2012600,"name":"payashan abulde","country":"ng","lat":10.754088,"lon":12.954253},{"id":2012671,"name":"peyagima","country":"ng","lat":10.841419,"lon":12.848715},{"id":2014059,"name":"sandau","country":"ng","lat":11.034383,"lon":13.45206},{"id":2001242,"name":"kildire","country":"ng","lat":10.678723,"lon":13.462893},{"id":1992267,"name":"gazama buri","country":"ng","lat":11.216667,"lon":13.033333},{"id":2003791,"name":"leho mbulla-ufa-gabas","country":"ng","lat":10.689624,"lon":12.834306},{"id":1991038,"name":"fellatari","country":"ng","lat":11.366667,"lon":12.683333},{"id":2000186,"name":"kalusari","country":"ng","lat":11.283333,"lon":13.1},{"id":2006163,"name":"michika","country":"ng","lat":10.615919,"lon":13.384905},{"id":2013582,"name":"sabongari chalikutu","country":"ng","lat":10.611308,"lon":13.170792},{"id":2014287,"name":"sasawa gana","country":"ng","lat":11.2,"lon":13.45},{"id":1994156,"name":"gugub","country":"ng","lat":10.964646,"lon":12.568123},{"id":2002090,"name":"kuburmbula","country":"ng","lat":10.876534,"lon":12.924098},{"id":2022191,"name":"zuyel","country":"ng","lat":10.779666,"lon":13.482356},{"id":2005836,"name":"mbalala","country":"ng","lat":10.774922,"lon":12.876022},{"id":2002089,"name":"kuburiwita","country":"ng","lat":10.933333,"lon":13.166667},{"id":2001620,"name":"kokshari","country":"ng","lat":10.67286,"lon":12.915588},{"id":2015874,"name":"thaltsila ii","country":"ng","lat":10.899068,"lon":13.455393},{"id":2001454,"name":"kobul hamlets","country":"ng","lat":10.902421,"lon":12.795899},{"id":2020793,"name":"wuro dawa","country":"ng","lat":10.840857,"lon":13.485034},{"id":1993896,"name":"gombori","country":"ng","lat":11.216667,"lon":13.1},{"id":2001830,"name":"korohuma","country":"ng","lat":10.72697,"lon":12.77842},{"id":2001825,"name":"korode","country":"ng","lat":11.054328,"lon":12.544818},{"id":1984264,"name":"bahijan","country":"ng","lat":10.993829,"lon":12.793978},{"id":1998712,"name":"jaba","country":"ng","lat":11.097978,"lon":13.015454},{"id":2000841,"name":"kaumutuyahi","country":"ng","lat":10.860899,"lon":12.962336},{"id":2000123,"name":"kalapta","country":"ng","lat":10.516667,"lon":13.45},{"id":1994561,"name":"guva","country":"ng","lat":10.566828,"lon":12.988842},{"id":1986688,"name":"chanchan bulguman yamma","country":"ng","lat":10.668376,"lon":12.896525},{"id":1992083,"name":"garta sama","country":"ng","lat":10.616667,"lon":13.483333},{"id":1986669,"name":"chakum","country":"ng","lat":10.669316,"lon":12.614226},{"id":2012829,"name":"puu","country":"ng","lat":10.585871,"lon":13.238334},{"id":2020628,"name":"wovi","country":"ng","lat":10.995647,"lon":12.782705},{"id":1993895,"name":"gombole","country":"ng","lat":11.466667,"lon":13.383333},{"id":1999895,"name":"kagalmari","country":"ng","lat":11.409,"lon":12.7806},{"id":2006497,"name":"mosa","country":"ng","lat":11.4093,"lon":12.9135},{"id":2006684,"name":"mune","country":"ng","lat":11.283333,"lon":12.633333},{"id":2014731,"name":"sheshau","country":"ng","lat":10.702918,"lon":13.167683},{"id":2006660,"name":"multe lawanti","country":"ng","lat":10.892392,"lon":12.644595},{"id":2021574,"name":"yimurmunza","country":"ng","lat":10.780307,"lon":12.990166},{"id":1986785,"name":"chibuk","country":"ng","lat":10.86583,"lon":12.847017},{"id":2006685,"name":"munfi","country":"ng","lat":11.1,"lon":12.633333},{"id":2013717,"name":"sabonogari njoma","country":"ng","lat":10.56915,"lon":12.935601},{"id":2007503,"name":"ngirna","country":"ng","lat":11.15,"lon":12.9},{"id":2004670,"name":"maikadiri","country":"ng","lat":10.757647,"lon":13.315401},{"id":2002753,"name":"kusum","country":"ng","lat":10.522008,"lon":13.264797},{"id":1979317,"name":"adiga","country":"ng","lat":10.95964,"lon":12.662772},{"id":2001766,"name":"kopa","country":"ng","lat":10.7436,"lon":13.327647},{"id":2013052,"name":"ribadu","country":"ng","lat":10.654508,"lon":13.168949},{"id":1992266,"name":"gazal","country":"ng","lat":11.183333,"lon":13.35},{"id":2020531,"name":"wazilikafi bubua","country":"ng","lat":10.586101,"lon":12.980827},{"id":1986877,"name":"chirekayi","country":"ng","lat":10.564292,"lon":12.99279},{"id":1986446,"name":"burajuwa","country":"ng","lat":10.633333,"lon":13.4},{"id":1991842,"name":"garambal","country":"ng","lat":10.685673,"lon":12.57892},{"id":1986798,"name":"chigarker mumzu-kutsa","country":"ng","lat":10.781534,"lon":12.778697},{"id":2020514,"name":"wawataku","country":"ng","lat":10.66281,"lon":12.518222},{"id":2014217,"name":"sardu","country":"ng","lat":10.605455,"lon":13.226504},{"id":2001829,"name":"korohuma bulama bulabukar","country":"ng","lat":10.736803,"lon":12.735485},{"id":2021570,"name":"yimilarin bulayan","country":"ng","lat":10.632989,"lon":13.0},{"id":2001335,"name":"kirfu","country":"ng","lat":10.852609,"lon":13.159652},{"id":2021571,"name":"yimilarin gondang","country":"ng","lat":10.633011,"lon":13.032631},{"id":1986642,"name":"chacha","country":"ng","lat":10.527303,"lon":13.004418},{"id":1999800,"name":"kafamuya","country":"ng","lat":10.583014,"lon":13.422538},{"id":2021718,"name":"zadawa yama","country":"ng","lat":10.648991,"lon":12.897054},{"id":1993743,"name":"giwa higi","country":"ng","lat":10.70765,"lon":13.28976},{"id":2002116,"name":"kuda","country":"ng","lat":10.639464,"lon":13.322141},{"id":2005994,"name":"mbulla kuduga kura","country":"ng","lat":10.714598,"lon":12.726455},{"id":2007546,"name":"ngulefi","country":"ng","lat":11.25,"lon":13.166667},{"id":2007581,"name":"ngwalimiri","country":"ng","lat":11.3,"lon":13.083333},{"id":2022006,"name":"zhu","country":"ng","lat":10.866667,"lon":13.483334},{"id":2001488,"name":"kofa","country":"ng","lat":10.635069,"lon":12.922993},{"id":1998688,"name":"izge rana","country":"ng","lat":10.983333,"lon":13.35},{"id":2003790,"name":"leho bulayahi","country":"ng","lat":10.694851,"lon":12.862122},{"id":1999932,"name":"kaguwa","country":"ng","lat":11.146701,"lon":13.209679},{"id":1986268,"name":"bulagarga iii","country":"ng","lat":10.954018,"lon":12.989919},{"id":2001682,"name":"kombi","country":"ng","lat":11.016667,"lon":12.8},{"id":1992043,"name":"garjam","country":"ng","lat":11.016667,"lon":12.9},{"id":2012672,"name":"peyajigiri","country":"ng","lat":10.994206,"lon":12.523029},{"id":1993886,"name":"gombele miskira","country":"ng","lat":10.586585,"lon":13.044773},{"id":2021188,"name":"yammu","country":"ng","lat":10.587657,"lon":13.378255},{"id":2005017,"name":"malakwaya i","country":"ng","lat":10.953917,"lon":13.422965},{"id":1993887,"name":"gombele nassarau","country":"ng","lat":10.581373,"lon":13.043346},{"id":2006541,"name":"moyaladi","country":"ng","lat":10.524316,"lon":12.965035},{"id":2000431,"name":"kanzu","country":"ng","lat":10.837219,"lon":12.845004},{"id":2003002,"name":"kwana kura","country":"ng","lat":10.662872,"lon":12.860948},{"id":2003447,"name":"lagunassara","country":"ng","lat":10.656529,"lon":13.139317},{"id":2002173,"name":"kufazigai","country":"ng","lat":10.878244,"lon":12.949848},{"id":1993737,"name":"giwa digir","country":"ng","lat":10.715864,"lon":13.098699},{"id":2003168,"name":"kwaye","country":"ng","lat":10.725373,"lon":13.340067},{"id":2003787,"name":"leho arewa","country":"ng","lat":10.708229,"lon":12.783377},{"id":2005018,"name":"malakwaya pupka","country":"ng","lat":10.932395,"lon":13.443114},{"id":1991398,"name":"gagelam","country":"ng","lat":10.909988,"lon":12.877738},{"id":2020740,"name":"wuro allahamdu","country":"ng","lat":10.79943,"lon":13.431109},{"id":2001461,"name":"koda alisila","country":"ng","lat":10.892421,"lon":12.859197},{"id":1986131,"name":"budumri","country":"ng","lat":11.216667,"lon":13.15},{"id":1979444,"name":"afa","country":"ng","lat":11.35,"lon":12.533333},{"id":2007431,"name":"ngarannam","country":"ng","lat":11.216667,"lon":13.083333},{"id":1994289,"name":"gulak","country":"ng","lat":10.799419,"lon":13.462201},{"id":1988320,"name":"dille","country":"ng","lat":10.740247,"lon":13.217416},{"id":2020330,"name":"wamdida","country":"ng","lat":10.652296,"lon":13.373612},{"id":1980633,"name":"ajir","country":"ng","lat":11.0441,"lon":12.6566},{"id":1986687,"name":"chanchan bulguman gabas","country":"ng","lat":10.671171,"lon":12.905898},{"id":2005982,"name":"mbowa paiyagarga","country":"ng","lat":10.928693,"lon":12.769747},{"id":2005239,"name":"manawaji","country":"ng","lat":10.827609,"lon":12.963521},{"id":2015875,"name":"thaltsila i","country":"ng","lat":10.923709,"lon":13.46075},{"id":1987285,"name":"dakwa","country":"ng","lat":10.526805,"lon":13.052968},{"id":2013597,"name":"sabongari kuda","country":"ng","lat":10.718721,"lon":13.417181},{"id":1997599,"name":"imirmungze","country":"ng","lat":10.691579,"lon":13.022632},{"id":1986308,"name":"bulanjilim","country":"ng","lat":11.166667,"lon":13.35},{"id":2012798,"name":"pubajibi","country":"ng","lat":10.660153,"lon":13.009775},{"id":1986244,"name":"bulabulin","country":"ng","lat":11.216667,"lon":13.45},{"id":1984316,"name":"baka","country":"ng","lat":10.597486,"lon":12.771385},{"id":2007508,"name":"ngohe","country":"ng","lat":10.667437,"lon":12.69098},{"id":2005256,"name":"mandara","country":"ng","lat":10.66278,"lon":13.427147},{"id":2020417,"name":"warawara","country":"ng","lat":10.975608,"lon":12.5093},{"id":2020503,"name":"watu","country":"ng","lat":10.604084,"lon":13.369327},{"id":2007525,"name":"ngorkori","country":"ng","lat":10.767212,"lon":12.795248},{"id":2003701,"name":"lassa","country":"ng","lat":10.680417,"lon":13.27323},{"id":2012627,"name":"pemi bulali","country":"ng","lat":10.77644,"lon":12.94738},{"id":1989081,"name":"dzuraku","country":"ng","lat":10.7,"lon":13.3},{"id":1986261,"name":"bulagambari","country":"ng","lat":10.872401,"lon":13.134561},{"id":1991207,"name":"fugumari","country":"ng","lat":10.938042,"lon":12.694053},{"id":1986315,"name":"bulasamtari","country":"ng","lat":11.2,"lon":13.083333},{"id":2003072,"name":"kwarangeri","country":"ng","lat":10.8355,"lon":13.280831},{"id":2001430,"name":"kobabpale","country":"ng","lat":10.651224,"lon":13.326829},{"id":2000902,"name":"kaviri gwoza","country":"ng","lat":11.033333,"lon":13.333333},{"id":2012446,"name":"pambula","country":"ng","lat":10.890497,"lon":13.418967},{"id":2001481,"name":"kodomiri","country":"ng","lat":11.233333,"lon":13.033333},{"id":1993751,"name":"giwi","country":"ng","lat":10.509189,"lon":13.103739},{"id":1987168,"name":"daggu","country":"ng","lat":10.852201,"lon":13.281867},{"id":2001462,"name":"koda hamlets","country":"ng","lat":10.877556,"lon":12.801621},{"id":2015364,"name":"taful","country":"ng","lat":10.502424,"lon":13.012111},{"id":2002860,"name":"kwada abbashama","country":"ng","lat":10.780667,"lon":12.857152},{"id":2013587,"name":"sabongari futu","country":"ng","lat":10.688894,"lon":13.247931},{"id":2020441,"name":"warkanza","country":"ng","lat":10.564801,"lon":13.375398},{"id":2002999,"name":"kwamjilari kura","country":"ng","lat":10.916192,"lon":13.070703},{"id":2003676,"name":"lariski","country":"ng","lat":10.690966,"lon":12.892384},{"id":1988794,"name":"duku","country":"ng","lat":10.675798,"lon":13.142417},{"id":2008052,"name":"nwomtar mussa","country":"ng","lat":10.689794,"lon":13.096556},{"id":2005993,"name":"mbulla kuduga gana","country":"ng","lat":10.721874,"lon":12.711239},{"id":2007523,"name":"ngorele","country":"ng","lat":10.776094,"lon":13.335357},{"id":1986948,"name":"chul","country":"ng","lat":10.616667,"lon":13.133333},{"id":2002506,"name":"kupta","country":"ng","lat":11.3236,"lon":12.7291},{"id":2000656,"name":"kasachcha bulachari","country":"ng","lat":10.953517,"lon":12.621564},{"id":2002855,"name":"kwabula","country":"ng","lat":10.563699,"lon":13.07176},{"id":1988284,"name":"digmari","country":"ng","lat":11.293174,"lon":12.665292},{"id":1985567,"name":"binowi","country":"ng","lat":10.730837,"lon":12.945691},{"id":1986313,"name":"bula-pogu","country":"ng","lat":10.650594,"lon":13.041394},{"id":2000655,"name":"kasacciya","country":"ng","lat":10.685995,"lon":12.750018},{"id":1992185,"name":"gatamarua bula-tumur","country":"ng","lat":10.638239,"lon":12.976552},{"id":1998689,"name":"izge-unore","country":"ng","lat":10.994662,"lon":13.338877},{"id":1988828,"name":"dumbam","country":"ng","lat":10.72177,"lon":12.563085},{"id":2005178,"name":"mal umari","country":"ng","lat":11.45,"lon":12.65},{"id":2002087,"name":"kuburihu","country":"ng","lat":10.924968,"lon":13.022456},{"id":1981735,"name":"aloura","country":"ng","lat":10.972907,"lon":12.572788},{"id":1981815,"name":"amaduri","country":"ng","lat":11.2463,"lon":12.6048},{"id":1991868,"name":"gardawaji","country":"ng","lat":11.484346,"lon":13.434226},{"id":1986329,"name":"bulgajiri","country":"ng","lat":11.171943,"lon":13.125586},{"id":2000470,"name":"kara","country":"ng","lat":11.266667,"lon":12.583333},{"id":2005837,"name":"mbalala nkyaki","country":"ng","lat":10.754849,"lon":12.908833},{"id":1985505,"name":"bilakirde","country":"ng","lat":10.961763,"lon":12.811363},{"id":1992165,"name":"gaska","country":"ng","lat":10.556775,"lon":12.580878},{"id":2001773,"name":"kophri","country":"ng","lat":10.514308,"lon":12.800488},{"id":2002526,"name":"kura","country":"ng","lat":10.619813,"lon":13.318465},{"id":2005978,"name":"mbowa imburbura","country":"ng","lat":10.917785,"lon":12.774804},{"id":2003128,"name":"kwatabe range","country":"ng","lat":10.627572,"lon":13.434864},{"id":2012598,"name":"payamopu kura","country":"ng","lat":10.793796,"lon":12.824183},{"id":1994875,"name":"gyomuyi","country":"ng","lat":10.801708,"lon":13.320007},{"id":2015127,"name":"sowolwolo","country":"ng","lat":11.416667,"lon":13.366667},{"id":2006264,"name":"missene","country":"ng","lat":11.366667,"lon":12.783333},{"id":2003793,"name":"leho pupudada","country":"ng","lat":10.706487,"lon":12.817942},{"id":2002081,"name":"kubu","country":"ng","lat":10.836268,"lon":13.394621},{"id":1983962,"name":"babalwada","country":"ng","lat":10.620237,"lon":12.500993},{"id":2001329,"name":"kirdidila dakwama","country":"ng","lat":10.646526,"lon":13.123117},{"id":1986291,"name":"bulamalum","country":"ng","lat":10.749743,"lon":12.863991},{"id":2020561,"name":"wia-izge","country":"ng","lat":10.966533,"lon":13.321664},{"id":1985864,"name":"bolakel villages","country":"ng","lat":10.939532,"lon":12.885768},{"id":1988106,"name":"debia","country":"ng","lat":10.756244,"lon":12.723665},{"id":2001226,"name":"kilakasa","country":"ng","lat":10.86453,"lon":13.157882},{"id":1994892,"name":"haduza","country":"ng","lat":10.586814,"lon":13.149994},{"id":2006164,"name":"michikau","country":"ng","lat":10.601227,"lon":13.160124},{"id":2008079,"name":"nyamgha bulagara","country":"ng","lat":10.648667,"lon":12.511217},{"id":2017690,"name":"uda","country":"ng","lat":10.503561,"lon":13.076211},{"id":2005946,"name":"mbirazuwe","country":"ng","lat":10.617655,"lon":13.425038},{"id":1986197,"name":"bukar thlawur","country":"ng","lat":10.645232,"lon":12.884973},{"id":1987136,"name":"dagale","country":"ng","lat":10.691742,"lon":13.368716}]});