callback({"markets":[{"id":308675,"name":"paim filho","country":"br","lat":-27.683333,"lon":-51.783333},{"id":291120,"name":"bom recreio","country":"br","lat":-28.25,"lon":-52.483333},{"id":292195,"name":"cacique doble","country":"br","lat":-27.75,"lon":-51.616667},{"id":306305,"name":"maximiliano d\u0027almeida","country":"br","lat":-27.633333,"lon":-51.783333},{"id":311316,"name":"pontao","country":"br","lat":-27.916667,"lon":-51.533333},{"id":316473,"name":"sao jose do ouro","country":"br","lat":-27.733333,"lon":-51.583333},{"id":327204,"name":"trinta e cinco","country":"br","lat":-28.4,"lon":-51.85},{"id":293170,"name":"canavial","country":"br","lat":-27.533333,"lon":-51.983333},{"id":309466,"name":"passo fundo","country":"br","lat":-28.266667,"lon":-52.4},{"id":314752,"name":"santa cecilia","country":"br","lat":-28.166667,"lon":-51.933333},{"id":306421,"name":"meneghetti","country":"br","lat":-28.083333,"lon":-52.283333},{"id":311482,"name":"porteiras","country":"br","lat":-27.966667,"lon":-51.783333},{"id":300925,"name":"ibiaca","country":"br","lat":-28.05,"lon":-51.866667},{"id":293685,"name":"capo-ere","country":"br","lat":-27.75,"lon":-52.266667},{"id":297320,"name":"erebango","country":"br","lat":-27.883333,"lon":-52.3},{"id":294767,"name":"charrua","country":"br","lat":-27.916667,"lon":-52.033333},{"id":300573,"name":"guarare","country":"br","lat":-28.466667,"lon":-52.35},{"id":299365,"name":"formiga","country":"br","lat":-27.95,"lon":-52.116667},{"id":327367,"name":"tupinamba","country":"br","lat":-28.483333,"lon":-51.533333},{"id":293928,"name":"carlos gomes","country":"br","lat":-27.7,"lon":-51.916667},{"id":299952,"name":"gaurama","country":"br","lat":-27.566667,"lon":-52.05},{"id":312448,"name":"princesa isabel","country":"br","lat":-27.7,"lon":-52.066667},{"id":309684,"name":"paulo bento","country":"br","lat":-27.7,"lon":-52.416667},{"id":312606,"name":"quatro irmaos","country":"br","lat":-27.833333,"lon":-52.433333},{"id":317724,"name":"sertao","country":"br","lat":-27.983333,"lon":-52.25},{"id":315628,"name":"santo antonio","country":"br","lat":-28.416667,"lon":-52.216667},{"id":305626,"name":"maquinista maino","country":"br","lat":-28.166667,"lon":-52.35},{"id":300983,"name":"ibiraiaras","country":"br","lat":-28.366667,"lon":-51.65},{"id":296209,"name":"cruz altinha","country":"br","lat":-28.283333,"lon":-51.95},{"id":311171,"name":"polidoro","country":"br","lat":-28.366667,"lon":-52.25},{"id":306898,"name":"monte alegre","country":"br","lat":-27.583333,"lon":-52.466667},{"id":327411,"name":"turvo","country":"br","lat":-28.416667,"lon":-51.5},{"id":288092,"name":"arroio miranda","country":"br","lat":-28.2,"lon":-52.366667},{"id":299949,"name":"gauer","country":"br","lat":-27.716667,"lon":-52.283333},{"id":294173,"name":"caseiros","country":"br","lat":-28.266667,"lon":-51.7},{"id":314612,"name":"sananduva","country":"br","lat":-27.95,"lon":-51.8},{"id":299306,"name":"floriano peixoto","country":"br","lat":-27.866667,"lon":-52.083333},{"id":289196,"name":"baliza","country":"br","lat":-27.583333,"lon":-52.15},{"id":300743,"name":"gustavo bertier","country":"br","lat":-27.866667,"lon":-51.55},{"id":328919,"name":"vitoria","country":"br","lat":-28.166667,"lon":-51.766667},{"id":296035,"name":"cotegipe","country":"br","lat":-27.616667,"lon":-52.383333},{"id":296077,"name":"coxilha","country":"br","lat":-28.116667,"lon":-52.283333},{"id":286368,"name":"agua santa","country":"br","lat":-28.166667,"lon":-52.033333},{"id":327148,"name":"tres pinheiros","country":"br","lat":-28.133333,"lon":-51.7},{"id":301539,"name":"ipiranga","country":"br","lat":-27.933333,"lon":-52.416667},{"id":326481,"name":"teixeira","country":"br","lat":-28.066667,"lon":-52.0},{"id":295334,"name":"colonia langare","country":"br","lat":-28.133333,"lon":-52.133333},{"id":305071,"name":"machadinho","country":"br","lat":-27.566667,"lon":-51.666667},{"id":287151,"name":"ametistas","country":"br","lat":-28.316667,"lon":-52.05},{"id":326858,"name":"toldo","country":"br","lat":-27.75,"lon":-52.166667},{"id":303310,"name":"jose bonifacio","country":"br","lat":-27.633333,"lon":-52.283333},{"id":294255,"name":"castilhos","country":"br","lat":-27.816667,"lon":-52.166667},{"id":305721,"name":"marau","country":"br","lat":-28.45,"lon":-52.2},{"id":300314,"name":"granzoto","country":"br","lat":-27.883333,"lon":-51.783333},{"id":304158,"name":"lagoa vermelha","country":"br","lat":-28.216667,"lon":-51.533333},{"id":300053,"name":"getulio vargas","country":"br","lat":-27.833333,"lon":-52.266667},{"id":310567,"name":"pinhalzinho","country":"br","lat":-27.566667,"lon":-51.95},{"id":289363,"name":"barao hirsch","country":"br","lat":-27.75,"lon":-52.466667},{"id":307356,"name":"muliterno","country":"br","lat":-28.333333,"lon":-51.766667},{"id":328299,"name":"viaducto","country":"br","lat":-27.566667,"lon":-52.016667},{"id":293187,"name":"candeia","country":"br","lat":-28.25,"lon":-51.55},{"id":294955,"name":"ciriaco","country":"br","lat":-28.35,"lon":-51.883333},{"id":294518,"name":"centenario","country":"br","lat":-27.783333,"lon":-52.05},{"id":316174,"name":"sao joao da urtiga","country":"br","lat":-27.783333,"lon":-51.816667}]});