callback({"markets":[{"id":1750455,"name":"igdi","country":"ma","lat":29.203512,"lon":-8.387994},{"id":1736168,"name":"agadir anzrou","country":"ma","lat":29.41832,"lon":-8.245933},{"id":1761291,"name":"tengadirt","country":"ma","lat":29.413628,"lon":-8.266894},{"id":814232,"name":"dar bou nailat","country":"dz","lat":29.3666667,"lon":-7.7333333},{"id":1762848,"name":"tizounin","country":"ma","lat":29.242792,"lon":-8.327983},{"id":1740683,"name":"azemz","country":"ma","lat":29.46,"lon":-8.25},{"id":1754229,"name":"mlaleg","country":"ma","lat":29.363163,"lon":-8.199489},{"id":1760608,"name":"targannt","country":"ma","lat":29.48,"lon":-8.38},{"id":1757102,"name":"rahala","country":"ma","lat":29.43,"lon":-8.26},{"id":1738673,"name":"ait rehal","country":"ma","lat":29.438343,"lon":-8.262596},{"id":1739077,"name":"akka","country":"ma","lat":29.389144,"lon":-8.254901},{"id":1747895,"name":"el kebbaba","country":"ma","lat":29.395922,"lon":-8.245736},{"id":1737355,"name":"ait anter","country":"ma","lat":29.39298,"lon":-8.260637}]});