callback({"markets":[{"id":114526,"name":"dala-muana","country":"ao","lat":-17.2,"lon":18.283333},{"id":114500,"name":"dala catambi","country":"ao","lat":-17.083333,"lon":18.216667},{"id":112044,"name":"catambue","country":"ao","lat":-17.05,"lon":18.15},{"id":118662,"name":"miuli","country":"ao","lat":-16.85,"lon":18.333333},{"id":118768,"name":"mongongue","country":"ao","lat":-17.416667,"lon":18.466667},{"id":1967527,"name":"mbumbi","country":"na","lat":-17.4666667,"lon":18.4666667},{"id":125112,"name":"savate","country":"ao","lat":-16.833333,"lon":17.95},{"id":117218,"name":"luceque","country":"ao","lat":-16.65,"lon":17.9},{"id":115626,"name":"goma","country":"ao","lat":-17.166667,"lon":18.15},{"id":124666,"name":"sandi","country":"ao","lat":-17.05,"lon":18.05},{"id":107837,"name":"ahica","country":"ao","lat":-17.1,"lon":18.2},{"id":119232,"name":"mucuio","country":"ao","lat":-16.883333,"lon":18.05},{"id":109241,"name":"cacolo","country":"ao","lat":-16.516667,"lon":17.816667},{"id":1968849,"name":"tuguva","country":"na","lat":-17.4166667,"lon":18.4333333},{"id":110871,"name":"cando","country":"ao","lat":-16.5,"lon":18.316667},{"id":120957,"name":"pamatenha","country":"ao","lat":-17.15,"lon":17.7},{"id":1967620,"name":"namuntuntu","country":"na","lat":-17.4833333,"lon":18.4833333},{"id":1967452,"name":"makambu","country":"na","lat":-17.45,"lon":18.4666667},{"id":1967031,"name":"gatwitwi","country":"na","lat":-17.4,"lon":18.4166667},{"id":120868,"name":"onai","country":"ao","lat":-16.666667,"lon":17.5},{"id":125584,"name":"tandane","country":"ao","lat":-16.966667,"lon":18.116667},{"id":117697,"name":"macuchi","country":"ao","lat":-16.683333,"lon":18.3},{"id":109600,"name":"caioba","country":"ao","lat":-17.316667,"lon":18.35},{"id":118523,"name":"menda","country":"ao","lat":-16.95,"lon":18.116667},{"id":109992,"name":"calucuta","country":"ao","lat":-16.883333,"lon":18.166667},{"id":1967459,"name":"makuzu","country":"na","lat":-17.4833333,"lon":18.4666667},{"id":1967521,"name":"mbimbi","country":"na","lat":-17.4833333,"lon":18.2333333},{"id":110832,"name":"candimba","country":"ao","lat":-16.583333,"lon":17.85},{"id":112825,"name":"changando","country":"ao","lat":-17.25,"lon":18.333333},{"id":1967643,"name":"nbimbi","country":"na","lat":-17.4833333,"lon":18.25}]});