callback({"markets":[{"id":534326,"name":"maho","country":"cn","lat":38.525278,"lon":109.399444},{"id":534304,"name":"mahatumiao","country":"cn","lat":38.616667,"lon":108.716667},{"id":605049,"name":"uxin ju","country":"cn","lat":39.086667,"lon":109.022222},{"id":548439,"name":"niuchangwan","country":"cn","lat":39.3,"lon":108.95},{"id":602571,"name":"tugaldai sum","country":"cn","lat":39.05,"lon":109.266667},{"id":596695,"name":"tenglaotsaiteng","country":"cn","lat":38.700833,"lon":109.451389},{"id":469280,"name":"galutu","country":"cn","lat":38.600864,"lon":108.847421},{"id":483996,"name":"hokou","country":"cn","lat":38.59,"lon":109.366667},{"id":546795,"name":"narin xil","country":"cn","lat":39.4,"lon":109.283333},{"id":595621,"name":"tapuchako","country":"cn","lat":38.592778,"lon":108.846944},{"id":556807,"name":"qagan tal","country":"cn","lat":38.768611,"lon":109.093889},{"id":579094,"name":"shihpatai","country":"cn","lat":39.171944,"lon":109.402222},{"id":495884,"name":"hua tolgoi","country":"cn","lat":38.633333,"lon":109.466667}]});