callback({"markets":[{"id":421708,"name":"bachimen","country":"cn","lat":27.25391,"lon":120.228864},{"id":565339,"name":"sanbanqiao","country":"cn","lat":27.422222,"lon":119.815556},{"id":561172,"name":"qingwan","country":"cn","lat":27.045474,"lon":120.250233},{"id":501699,"name":"jianjiakeng","country":"cn","lat":27.36283,"lon":120.406027},{"id":475122,"name":"guanmei","country":"cn","lat":27.461653,"lon":120.357495},{"id":630123,"name":"xiyangjing","country":"cn","lat":27.191667,"lon":119.689722},{"id":466923,"name":"fengxiyang","country":"cn","lat":26.684486,"lon":120.033435},{"id":580164,"name":"shiling","country":"cn","lat":27.416944,"lon":119.715556},{"id":429916,"name":"boliu","country":"cn","lat":27.221705,"lon":120.090717},{"id":494376,"name":"huangru","country":"cn","lat":27.106042,"lon":119.511139},{"id":447922,"name":"dae","country":"cn","lat":27.252074,"lon":120.109911},{"id":584878,"name":"shuiweigong","country":"cn","lat":27.293194,"lon":120.23841},{"id":508888,"name":"kangcuo shezuxiang","country":"cn","lat":27.056671,"lon":119.524617},{"id":605447,"name":"wailin","country":"cn","lat":27.181216,"lon":120.347083},{"id":434698,"name":"changpi","country":"cn","lat":27.391989,"lon":119.739446},{"id":538926,"name":"meiziwan","country":"cn","lat":27.338037,"lon":119.984718},{"id":562070,"name":"qiuli","country":"cn","lat":26.962046,"lon":120.182115},{"id":468045,"name":"fujigang","country":"cn","lat":27.25123,"lon":119.87947},{"id":488823,"name":"hsiatsun","country":"cn","lat":27.489299,"lon":120.465216},{"id":548507,"name":"niudikeng","country":"cn","lat":27.022521,"lon":119.528436},{"id":433279,"name":"changchan","country":"cn","lat":27.380864,"lon":120.418975},{"id":597620,"name":"tianqian","country":"cn","lat":27.486667,"lon":120.344444},{"id":430650,"name":"caihong","country":"cn","lat":27.223333,"lon":119.702222},{"id":621681,"name":"xiaqiao","country":"cn","lat":27.483056,"lon":120.01},{"id":552035,"name":"panyang","country":"cn","lat":27.356356,"lon":120.489492},{"id":502401,"name":"jiaolin","country":"cn","lat":27.429569,"lon":119.513783},{"id":559280,"name":"qiding","country":"cn","lat":27.015556,"lon":119.580385},{"id":523381,"name":"linyanghu","country":"cn","lat":27.105318,"lon":119.547723},{"id":488914,"name":"hsiayu","country":"cn","lat":27.264167,"lon":120.284444},{"id":456196,"name":"diantou","country":"cn","lat":27.233717,"lon":120.175262},{"id":469552,"name":"gangjiayang","country":"cn","lat":27.138286,"lon":119.81258},{"id":654217,"name":"zhongzao","country":"cn","lat":26.938536,"lon":120.367643},{"id":454248,"name":"daxiyuan","country":"cn","lat":27.4825,"lon":119.8325},{"id":421822,"name":"badouyang","country":"cn","lat":27.115524,"lon":119.946719},{"id":535858,"name":"manshan","country":"cn","lat":27.339461,"lon":119.749508},{"id":530322,"name":"luhsia","country":"cn","lat":26.653369,"lon":120.103639},{"id":451056,"name":"dangfeng","country":"cn","lat":27.496929,"lon":120.429841},{"id":464062,"name":"fahua","country":"cn","lat":26.674165,"lon":120.06087},{"id":613816,"name":"wuqu","country":"cn","lat":27.233611,"lon":119.565556},{"id":426335,"name":"baomiaoting","country":"cn","lat":27.282547,"lon":120.183339},{"id":546001,"name":"nanwan","country":"cn","lat":27.123832,"lon":120.240586},{"id":591822,"name":"taiyangtou","country":"cn","lat":27.162675,"lon":120.24098},{"id":650434,"name":"zhanyangzi","country":"cn","lat":27.386389,"lon":119.818056},{"id":509375,"name":"kantangpao","country":"cn","lat":26.92,"lon":119.633333},{"id":482648,"name":"hengxidi","country":"cn","lat":27.441389,"lon":119.78},{"id":494395,"name":"huangshadi","country":"cn","lat":27.436667,"lon":119.856111},{"id":495777,"name":"huashuang","country":"cn","lat":27.267769,"lon":120.409497},{"id":553610,"name":"pengshe","country":"cn","lat":27.455278,"lon":119.748611},{"id":614245,"name":"wutongping","country":"cn","lat":27.127311,"lon":119.794763},{"id":643506,"name":"yuantanguoxi","country":"cn","lat":27.292591,"lon":119.541823},{"id":646312,"name":"yuqian","country":"cn","lat":27.174167,"lon":120.335833},{"id":476453,"name":"guiyangtou","country":"cn","lat":27.136944,"lon":119.969722},{"id":577008,"name":"shenqing","country":"cn","lat":27.377249,"lon":119.992035},{"id":544198,"name":"nanguang","country":"cn","lat":27.145451,"lon":120.008598},{"id":425809,"name":"banyu","country":"cn","lat":26.798889,"lon":119.727222},{"id":433582,"name":"changchun zhen","country":"cn","lat":26.728571,"lon":120.040142},{"id":507616,"name":"juban","country":"cn","lat":27.305102,"lon":119.771227},{"id":589987,"name":"suxi","country":"cn","lat":27.067402,"lon":120.099814},{"id":438430,"name":"chenhsiakuan","country":"cn","lat":27.173704,"lon":120.467528},{"id":591011,"name":"taifeng","country":"cn","lat":27.279167,"lon":119.650556},{"id":505329,"name":"jinjuyuan","country":"cn","lat":27.178333,"lon":119.698889},{"id":610337,"name":"wenao","country":"cn","lat":26.578465,"lon":120.14348},{"id":456571,"name":"dieshi","country":"cn","lat":27.394151,"lon":120.102853},{"id":452487,"name":"dasha","country":"cn","lat":26.858199,"lon":120.013075},{"id":572167,"name":"shangputou","country":"cn","lat":27.188889,"lon":119.8575},{"id":530766,"name":"luli","country":"cn","lat":27.499647,"lon":119.937141},{"id":646836,"name":"yuyangli","country":"cn","lat":26.804492,"lon":120.055848},{"id":476183,"name":"guidongli","country":"cn","lat":27.020088,"lon":119.655319},{"id":523001,"name":"linjiayanglicun","country":"cn","lat":27.142047,"lon":119.66374},{"id":442856,"name":"chinyu","country":"cn","lat":27.10358,"lon":120.245419},{"id":548215,"name":"ningte","country":"cn","lat":26.661667,"lon":119.522778},{"id":444574,"name":"chuanlu","country":"cn","lat":26.751303,"lon":120.049524},{"id":574051,"name":"shanliling","country":"cn","lat":27.008745,"lon":119.871358},{"id":435126,"name":"changtan","country":"cn","lat":27.482363,"lon":120.251351},{"id":430544,"name":"caiaonei","country":"cn","lat":27.309167,"lon":120.309167},{"id":631703,"name":"xuncheng","country":"cn","lat":27.218848,"lon":120.283201},{"id":572047,"name":"shangpanyang","country":"cn","lat":27.195742,"lon":119.58516},{"id":447099,"name":"dabaoyang","country":"cn","lat":27.406089,"lon":120.190682},{"id":510617,"name":"keyangli","country":"cn","lat":27.111643,"lon":120.065303},{"id":627926,"name":"xintang","country":"cn","lat":26.656389,"lon":119.715},{"id":436641,"name":"chayang","country":"cn","lat":27.29761,"lon":120.029794},{"id":607290,"name":"wangjiayang","country":"cn","lat":27.357222,"lon":119.946111},{"id":653407,"name":"zhongkengyang","country":"cn","lat":27.245,"lon":119.653889},{"id":651832,"name":"zhengjiazhuang","country":"cn","lat":27.336389,"lon":119.768333},{"id":649328,"name":"zhangjiaxu","country":"cn","lat":26.955767,"lon":120.009423},{"id":536142,"name":"maoerkeng","country":"cn","lat":27.308487,"lon":119.540896},{"id":458011,"name":"dongcun","country":"cn","lat":27.431944,"lon":119.973611},{"id":503808,"name":"jiku","country":"cn","lat":27.443761,"lon":119.957341},{"id":585908,"name":"sifen","country":"cn","lat":26.643308,"lon":120.029626},{"id":609857,"name":"weijia","country":"cn","lat":27.060278,"lon":119.767222},{"id":430186,"name":"budoulou","country":"cn","lat":27.061613,"lon":119.733165},{"id":421026,"name":"anzhulong","country":"cn","lat":27.122918,"lon":120.304535},{"id":572017,"name":"shangpai","country":"cn","lat":27.348437,"lon":119.923182},{"id":456290,"name":"diaoao","country":"cn","lat":27.155556,"lon":120.399722},{"id":584531,"name":"shuimokeng","country":"cn","lat":26.936517,"lon":120.007478},{"id":564355,"name":"rishan","country":"cn","lat":27.034167,"lon":119.732222},{"id":431286,"name":"cangtoudian","country":"cn","lat":27.240833,"lon":120.311111},{"id":571548,"name":"shanglinyang","country":"cn","lat":27.380278,"lon":119.8425},{"id":639255,"name":"yeshou","country":"cn","lat":27.196385,"lon":119.794666},{"id":609419,"name":"wayaopu","country":"cn","lat":27.392222,"lon":120.360556},{"id":618023,"name":"xianpu","country":"cn","lat":27.106679,"lon":119.981968},{"id":560278,"name":"qingguansi","country":"cn","lat":26.964157,"lon":120.236409},{"id":548804,"name":"niulaozu","country":"cn","lat":27.092649,"lon":119.704646},{"id":641167,"name":"yinyanggang","country":"cn","lat":27.11031,"lon":119.695439},{"id":653417,"name":"zhongkui","country":"cn","lat":27.260556,"lon":120.482778},{"id":459808,"name":"dongqiyang","country":"cn","lat":27.002955,"lon":119.914415},{"id":519445,"name":"lianshan","country":"cn","lat":27.214259,"lon":120.126248},{"id":642279,"name":"youcuoxia","country":"cn","lat":27.035224,"lon":119.918448},{"id":636455,"name":"yanqiu","country":"cn","lat":27.235736,"lon":120.337354},{"id":548826,"name":"niulou","country":"cn","lat":27.036111,"lon":119.656051},{"id":518126,"name":"liancun","country":"cn","lat":27.024336,"lon":119.614392},{"id":635586,"name":"yangweiyuan","country":"cn","lat":27.398611,"lon":120.400833},{"id":504651,"name":"jingping","country":"cn","lat":27.09402,"lon":120.172325},{"id":516760,"name":"laoyingyan","country":"cn","lat":27.466111,"lon":119.830278},{"id":602541,"name":"tudui","country":"cn","lat":27.264722,"lon":119.583889},{"id":461993,"name":"duixia","country":"cn","lat":27.029128,"lon":120.02953},{"id":582490,"name":"showning","country":"cn","lat":27.458889,"lon":119.501389},{"id":574570,"name":"shanwaiwei","country":"cn","lat":27.293611,"lon":119.7725},{"id":431287,"name":"cangtouli","country":"cn","lat":27.18966,"lon":120.302292},{"id":502938,"name":"jiazhu","country":"cn","lat":26.64231,"lon":120.087001},{"id":427064,"name":"bayangshan","country":"cn","lat":27.252662,"lon":119.914309},{"id":498494,"name":"hupinglong","country":"cn","lat":27.065833,"lon":119.757778},{"id":538667,"name":"meishujiao","country":"cn","lat":27.295947,"lon":120.29036},{"id":456156,"name":"dianqian","country":"cn","lat":27.336487,"lon":119.53937},{"id":639131,"name":"yentien","country":"cn","lat":26.853333,"lon":119.8575},{"id":536077,"name":"maocuoxia","country":"cn","lat":27.258056,"lon":119.655278},{"id":646149,"name":"yunting","country":"cn","lat":27.21902,"lon":120.414119},{"id":577304,"name":"sheping","country":"cn","lat":27.210023,"lon":119.763257},{"id":502115,"name":"jianzhou","country":"cn","lat":27.474167,"lon":119.913889},{"id":541135,"name":"minzao","country":"cn","lat":27.107222,"lon":120.373611},{"id":655711,"name":"zhudi","country":"cn","lat":27.453956,"lon":119.833545},{"id":544201,"name":"nanguangshan","country":"cn","lat":27.121107,"lon":119.926011},{"id":617356,"name":"xianglu","country":"cn","lat":27.144192,"lon":120.07753},{"id":631945,"name":"xuyang","country":"cn","lat":27.123973,"lon":119.584473},{"id":467260,"name":"fentan","country":"cn","lat":27.071139,"lon":119.784963},{"id":457223,"name":"dingtou","country":"cn","lat":26.845833,"lon":119.660556},{"id":636428,"name":"yanpu","country":"cn","lat":27.229115,"lon":120.452674},{"id":433758,"name":"changgangtou","country":"cn","lat":27.478367,"lon":119.656678},{"id":584943,"name":"shuiyang","country":"cn","lat":27.472069,"lon":119.535262},{"id":634148,"name":"yangjiaxi","country":"cn","lat":27.107842,"lon":119.933623},{"id":534937,"name":"majiayang","country":"cn","lat":27.431944,"lon":120.345},{"id":510164,"name":"keduan","country":"cn","lat":27.323818,"lon":119.758894},{"id":566404,"name":"sangyuan","country":"cn","lat":27.116667,"lon":120.016667},{"id":629503,"name":"xita","country":"cn","lat":27.086742,"lon":119.522296},{"id":467154,"name":"fenmentou","country":"cn","lat":27.025548,"lon":120.198208},{"id":638305,"name":"yayang","country":"cn","lat":27.379256,"lon":120.04818},{"id":446400,"name":"congnong","country":"cn","lat":26.95,"lon":119.916667},{"id":517686,"name":"lengcheng","country":"cn","lat":27.140238,"lon":120.242358},{"id":451182,"name":"dangtou","country":"cn","lat":27.298889,"lon":119.754167},{"id":569392,"name":"shalingtou","country":"cn","lat":27.177597,"lon":120.426942},{"id":648674,"name":"zhangfeng","country":"cn","lat":27.308247,"lon":120.089534},{"id":525684,"name":"liuqiwan","country":"cn","lat":27.105401,"lon":120.269984},{"id":554390,"name":"pinggang","country":"cn","lat":26.676667,"lon":119.754444},{"id":419552,"name":"aimenguan","country":"cn","lat":27.427067,"lon":120.198655},{"id":622155,"name":"xiatianchi","country":"cn","lat":27.053986,"lon":119.660012},{"id":421832,"name":"badu","country":"cn","lat":26.810278,"lon":119.564167},{"id":492409,"name":"huangbilong","country":"cn","lat":27.336373,"lon":119.881461},{"id":422869,"name":"bailin","country":"cn","lat":27.18132,"lon":120.163409},{"id":569300,"name":"shakeng","country":"cn","lat":27.273889,"lon":119.756667},{"id":505943,"name":"jinyang","country":"cn","lat":27.324641,"lon":119.987209},{"id":652346,"name":"zhetou","country":"cn","lat":27.236179,"lon":119.637778},{"id":531628,"name":"luochun","country":"cn","lat":27.241243,"lon":120.381411},{"id":536952,"name":"maozhuyuan","country":"cn","lat":27.328056,"lon":119.921667},{"id":559215,"name":"qibu","country":"cn","lat":26.5075,"lon":119.545},{"id":556094,"name":"puhou","country":"cn","lat":27.354139,"lon":120.222256},{"id":543466,"name":"nanbao","country":"cn","lat":27.330278,"lon":120.412778},{"id":430102,"name":"boyang","country":"cn","lat":27.048875,"lon":120.228277},{"id":597107,"name":"tiangang","country":"cn","lat":27.008844,"lon":120.045661},{"id":533972,"name":"macuoxia","country":"cn","lat":27.041111,"lon":119.739444},{"id":631039,"name":"xueqiao","country":"cn","lat":27.304167,"lon":120.3},{"id":588750,"name":"sujiakeng","country":"cn","lat":27.346613,"lon":120.296602},{"id":632697,"name":"yandongge","country":"cn","lat":27.390621,"lon":120.272414},{"id":634005,"name":"yangjiaping","country":"cn","lat":27.092705,"lon":119.852657},{"id":642424,"name":"youjiabian","country":"cn","lat":27.164787,"lon":119.786344},{"id":605933,"name":"wandian","country":"cn","lat":27.149203,"lon":119.918789},{"id":649999,"name":"zhangwan","country":"cn","lat":26.711389,"lon":119.591944},{"id":547519,"name":"niaobei","country":"cn","lat":27.089798,"lon":120.118906},{"id":571356,"name":"shangkeyang","country":"cn","lat":27.483056,"lon":119.720278},{"id":547006,"name":"neifuqi","country":"cn","lat":27.105,"lon":120.325278},{"id":445453,"name":"chungju","country":"cn","lat":26.951111,"lon":119.925278},{"id":469681,"name":"gangping","country":"cn","lat":27.080252,"lon":120.162412},{"id":591873,"name":"taiyu","country":"cn","lat":27.1,"lon":120.25},{"id":430659,"name":"caihuaqiao","country":"cn","lat":27.035278,"lon":119.777222},{"id":578108,"name":"shier","country":"cn","lat":27.193923,"lon":119.755769},{"id":511405,"name":"kongping","country":"cn","lat":27.085759,"lon":120.192701},{"id":574543,"name":"shantouzi","country":"cn","lat":27.478333,"lon":119.807222},{"id":656269,"name":"zhulanjian","country":"cn","lat":27.161207,"lon":120.148277},{"id":597932,"name":"tianxingsi","country":"cn","lat":27.136897,"lon":119.767733},{"id":537800,"name":"maxiangu","country":"cn","lat":27.196482,"lon":120.23247},{"id":607582,"name":"wangli","country":"cn","lat":27.240693,"lon":120.015005},{"id":625248,"name":"ximenli","country":"cn","lat":27.204444,"lon":119.914444},{"id":429632,"name":"binyang","country":"cn","lat":27.261111,"lon":120.349167},{"id":526704,"name":"lixitou","country":"cn","lat":27.196321,"lon":119.523609},{"id":644356,"name":"yuelangyang","country":"cn","lat":27.319811,"lon":120.037951},{"id":434768,"name":"changpuling","country":"cn","lat":27.39349,"lon":119.52685},{"id":622610,"name":"xiayangshan","country":"cn","lat":27.058533,"lon":119.510385},{"id":574146,"name":"shanmenli","country":"cn","lat":27.311184,"lon":120.180402},{"id":526746,"name":"liyanglou","country":"cn","lat":27.15393,"lon":119.519622},{"id":593536,"name":"tangping","country":"cn","lat":27.471388,"lon":119.717903},{"id":538143,"name":"mazhuzhai","country":"cn","lat":27.39823,"lon":119.686003},{"id":500343,"name":"jianbing","country":"cn","lat":27.213333,"lon":119.684444},{"id":521352,"name":"lijiayang","country":"cn","lat":27.31329,"lon":119.570726},{"id":546351,"name":"nanyan","country":"cn","lat":27.181514,"lon":119.715681},{"id":630493,"name":"xizhuzhai","country":"cn","lat":27.268882,"lon":119.94173},{"id":530072,"name":"lucuoxia","country":"cn","lat":26.986831,"lon":120.239858},{"id":630786,"name":"xudunban","country":"cn","lat":27.177152,"lon":119.542031},{"id":596750,"name":"tengyu","country":"cn","lat":27.231514,"lon":120.213077},{"id":437801,"name":"chengjialong","country":"cn","lat":27.072093,"lon":119.667134},{"id":561598,"name":"qinyang","country":"cn","lat":26.986389,"lon":119.524167},{"id":645916,"name":"yuniao","country":"cn","lat":26.968782,"lon":120.337173},{"id":621342,"name":"xiaoyundang","country":"cn","lat":27.099344,"lon":120.288708},{"id":646601,"name":"yuta","country":"cn","lat":27.401409,"lon":120.101117},{"id":651347,"name":"zhayang","country":"cn","lat":27.238893,"lon":119.977017},{"id":533219,"name":"luwei","country":"cn","lat":27.209541,"lon":120.479781},{"id":604242,"name":"tuodi","country":"cn","lat":27.384569,"lon":119.945531},{"id":583890,"name":"shuiao","country":"cn","lat":27.118986,"lon":120.386551},{"id":441660,"name":"chilingyang","country":"cn","lat":27.451318,"lon":119.579954},{"id":487492,"name":"hsiachai","country":"cn","lat":27.392886,"lon":120.489954},{"id":558212,"name":"qiantouli","country":"cn","lat":27.307281,"lon":119.977482},{"id":434986,"name":"changshe","country":"cn","lat":27.351537,"lon":119.962826},{"id":526527,"name":"liwan","country":"cn","lat":27.154855,"lon":119.79893},{"id":512335,"name":"kuanyang","country":"cn","lat":27.254644,"lon":120.028222},{"id":599351,"name":"tingputou","country":"cn","lat":27.470571,"lon":120.214358},{"id":437015,"name":"chelong","country":"cn","lat":27.334681,"lon":120.025652},{"id":518729,"name":"liangongping","country":"cn","lat":27.452737,"lon":119.670693},{"id":439626,"name":"cheyang","country":"cn","lat":27.189844,"lon":120.147543},{"id":622117,"name":"xiatang","country":"cn","lat":26.735556,"lon":119.626667},{"id":539539,"name":"menlouao","country":"cn","lat":27.433632,"lon":119.874816},{"id":473592,"name":"gongqi","country":"cn","lat":27.161111,"lon":119.599722},{"id":549030,"name":"niutiyang","country":"cn","lat":27.340833,"lon":120.311944},{"id":587846,"name":"songyang","country":"cn","lat":27.438108,"lon":120.058934},{"id":552075,"name":"panzhuang","country":"cn","lat":27.443058,"lon":120.438165},{"id":573686,"name":"shangzhuang","country":"cn","lat":27.435556,"lon":119.714722},{"id":532696,"name":"luoxiwei","country":"cn","lat":27.178897,"lon":120.299056},{"id":502482,"name":"jiaoshan","country":"cn","lat":27.180298,"lon":120.065487},{"id":491981,"name":"huajiao","country":"cn","lat":27.039324,"lon":119.698285},{"id":469785,"name":"gangwei","country":"cn","lat":27.313218,"lon":119.779282},{"id":652319,"name":"zherong","country":"cn","lat":27.24,"lon":119.894444},{"id":460665,"name":"dongxingcun","country":"cn","lat":26.976487,"lon":120.483403},{"id":456061,"name":"diandou","country":"cn","lat":27.341389,"lon":119.638333},{"id":594524,"name":"tantouwan","country":"cn","lat":27.323333,"lon":120.284444},{"id":613739,"name":"wupuling","country":"cn","lat":27.14083,"lon":120.149378},{"id":615291,"name":"xiacuoji","country":"cn","lat":27.296682,"lon":120.144973},{"id":564713,"name":"ruanyangcun","country":"cn","lat":27.085193,"lon":119.81056},{"id":598013,"name":"tianyangzhong","country":"cn","lat":27.238889,"lon":119.534167},{"id":589901,"name":"sushagang","country":"cn","lat":27.347529,"lon":120.289908},{"id":656312,"name":"zhuling","country":"cn","lat":27.162524,"lon":119.846361},{"id":514215,"name":"laiyang","country":"cn","lat":27.010652,"lon":119.637336},{"id":427525,"name":"beidian","country":"cn","lat":26.69912,"lon":120.347637},{"id":580067,"name":"shilan","country":"cn","lat":27.016921,"lon":120.240796},{"id":629643,"name":"xiujianxiacun","country":"cn","lat":27.46333,"lon":120.08181},{"id":537252,"name":"mashang","country":"cn","lat":27.139659,"lon":119.689777},{"id":437007,"name":"cheling","country":"cn","lat":27.162723,"lon":119.705888},{"id":467157,"name":"fenping","country":"cn","lat":27.427336,"lon":120.34892},{"id":569218,"name":"shajiang","country":"cn","lat":26.7825,"lon":119.966944},{"id":521807,"name":"linbing","country":"cn","lat":27.177056,"lon":119.566305},{"id":581509,"name":"shitouwei","country":"cn","lat":27.223978,"lon":120.333972},{"id":460609,"name":"dongxi","country":"cn","lat":27.423711,"lon":119.959767},{"id":626131,"name":"xinghe","country":"cn","lat":27.107991,"lon":119.886135},{"id":512749,"name":"kuiju","country":"cn","lat":26.873611,"lon":119.663333},{"id":536329,"name":"maojiaping","country":"cn","lat":27.3625,"lon":119.6975},{"id":572023,"name":"shangpaishih","country":"cn","lat":27.243056,"lon":119.723889},{"id":432488,"name":"chagang","country":"cn","lat":26.950737,"lon":120.050952},{"id":510342,"name":"kengdilin","country":"cn","lat":27.329469,"lon":119.563901},{"id":519844,"name":"liao","country":"cn","lat":26.592066,"lon":120.139485},{"id":462626,"name":"duping","country":"cn","lat":27.09,"lon":119.7575},{"id":624815,"name":"xikeng","country":"cn","lat":27.440833,"lon":119.844167},{"id":430295,"name":"bulao","country":"cn","lat":27.268056,"lon":119.733889},{"id":622431,"name":"xiaxiding","country":"cn","lat":27.137496,"lon":119.855358},{"id":492116,"name":"hualing","country":"cn","lat":27.285,"lon":119.869167},{"id":624842,"name":"xikou","country":"cn","lat":27.472778,"lon":119.984444},{"id":658104,"name":"zuoling","country":"cn","lat":27.035572,"lon":119.506641},{"id":432540,"name":"chagukeng","country":"cn","lat":27.297232,"lon":120.174344},{"id":632888,"name":"yangbian","country":"cn","lat":27.402778,"lon":119.804722},{"id":622814,"name":"xiayujiayang","country":"cn","lat":27.218889,"lon":119.671111},{"id":507623,"name":"jubaoyang","country":"cn","lat":27.426797,"lon":119.659585},{"id":520004,"name":"libanling","country":"cn","lat":27.203034,"lon":119.832773},{"id":498660,"name":"hutangfan","country":"cn","lat":27.169444,"lon":119.639444},{"id":438970,"name":"chenlong","country":"cn","lat":27.061667,"lon":119.951111},{"id":557410,"name":"qianguan","country":"cn","lat":27.388268,"lon":120.25385},{"id":494375,"name":"huangren","country":"cn","lat":27.396177,"lon":120.316794},{"id":421194,"name":"aoli","country":"cn","lat":27.145787,"lon":120.047313},{"id":532205,"name":"luokou","country":"cn","lat":27.177137,"lon":120.327797},{"id":628862,"name":"xiongling","country":"cn","lat":27.382592,"lon":120.336069},{"id":628922,"name":"xiongzhuang","country":"cn","lat":27.293389,"lon":119.855625},{"id":424121,"name":"baixi","country":"cn","lat":26.748333,"lon":119.766111},{"id":571971,"name":"shangni","country":"cn","lat":27.1193,"lon":119.900608},{"id":493678,"name":"huanglianshan","country":"cn","lat":27.380833,"lon":119.766389},{"id":425834,"name":"banzhong shezuxiang","country":"cn","lat":27.100833,"lon":119.6275},{"id":461098,"name":"dongzhong","country":"cn","lat":27.084404,"lon":119.682045},{"id":529555,"name":"louxia","country":"cn","lat":27.407684,"lon":120.364641},{"id":589994,"name":"suyancun","country":"cn","lat":27.216137,"lon":120.04874},{"id":576053,"name":"shekou","country":"cn","lat":27.211944,"lon":119.571389},{"id":618216,"name":"xianyan","country":"cn","lat":27.095833,"lon":119.617222},{"id":545693,"name":"nanshuitou","country":"cn","lat":27.481438,"lon":120.365566},{"id":628896,"name":"xiongtou","country":"cn","lat":27.303611,"lon":119.906667},{"id":455099,"name":"dazhuang","country":"cn","lat":27.204198,"lon":119.674722},{"id":636642,"name":"yanting","country":"cn","lat":26.623229,"lon":120.032241},{"id":429703,"name":"bitou","country":"cn","lat":27.244222,"lon":120.471227},{"id":480366,"name":"heanxiacun","country":"cn","lat":27.119923,"lon":119.603201},{"id":523010,"name":"linjiazhuang","country":"cn","lat":27.363134,"lon":120.168653},{"id":623868,"name":"xiekeng","country":"cn","lat":27.414409,"lon":119.676649},{"id":565130,"name":"saiki","country":"cn","lat":26.968611,"lon":119.675278},{"id":512755,"name":"kuili","country":"cn","lat":27.261389,"lon":120.4825},{"id":449532,"name":"dajinglou","country":"cn","lat":26.663466,"lon":120.050476},{"id":635536,"name":"yangwang","country":"cn","lat":27.357285,"lon":119.879398},{"id":620183,"name":"xiaonanxi","country":"cn","lat":27.00632,"lon":119.858526},{"id":470519,"name":"gaocuo","country":"cn","lat":27.459473,"lon":120.41435},{"id":559385,"name":"qifenglin","country":"cn","lat":27.09857,"lon":119.684779},{"id":568050,"name":"sanyangping","country":"cn","lat":27.058778,"lon":119.93495},{"id":546586,"name":"nanzhen","country":"cn","lat":27.14854,"lon":120.432811},{"id":586910,"name":"sixitou","country":"cn","lat":27.496111,"lon":119.958056},{"id":596905,"name":"tianbolao","country":"cn","lat":27.211505,"lon":120.020512},{"id":504997,"name":"jinhanshezu","country":"cn","lat":26.678333,"lon":119.505833},{"id":648533,"name":"zhangcuoxia","country":"cn","lat":27.299807,"lon":119.995936},{"id":575444,"name":"shatangli","country":"cn","lat":26.824402,"lon":120.024341},{"id":482361,"name":"henglu","country":"cn","lat":27.403333,"lon":119.854167},{"id":438091,"name":"chengshan","country":"cn","lat":27.038494,"lon":119.61589},{"id":618460,"name":"xiaobu","country":"cn","lat":27.064266,"lon":119.985944},{"id":550286,"name":"paifengling","country":"cn","lat":27.202142,"lon":120.414119},{"id":433815,"name":"changguan","country":"cn","lat":27.157826,"lon":119.770692},{"id":641562,"name":"yongansi","country":"cn","lat":27.204827,"lon":120.159609},{"id":526758,"name":"liyangzhong","country":"cn","lat":27.067224,"lon":119.892364},{"id":500519,"name":"jiangbian","country":"cn","lat":27.483889,"lon":120.436667},{"id":613745,"name":"wupu","country":"cn","lat":27.288377,"lon":119.942317},{"id":437684,"name":"chenghai","country":"cn","lat":27.208611,"lon":120.477778},{"id":485893,"name":"houcheng","country":"cn","lat":27.159902,"lon":120.326975},{"id":428310,"name":"beishanting","country":"cn","lat":27.353588,"lon":120.198024},{"id":484585,"name":"hongling","country":"cn","lat":27.386768,"lon":119.706141},{"id":493821,"name":"huanglongshan","country":"cn","lat":27.452203,"lon":119.607888},{"id":649278,"name":"zhangjiawan","country":"cn","lat":27.098793,"lon":120.145707},{"id":616362,"name":"xialikeng","country":"cn","lat":27.149306,"lon":119.653611},{"id":449502,"name":"dajingcun","country":"cn","lat":26.703647,"lon":120.096765},{"id":481528,"name":"hejiashan","country":"cn","lat":27.29,"lon":119.784444},{"id":458827,"name":"dongjiajing","country":"cn","lat":27.058775,"lon":120.230883},{"id":570074,"name":"shangchakeng","country":"cn","lat":27.203956,"lon":119.621111},{"id":536836,"name":"maoxu","country":"cn","lat":27.444908,"lon":120.396548},{"id":526903,"name":"liyutian","country":"cn","lat":27.444908,"lon":120.247883},{"id":469747,"name":"gangting","country":"cn","lat":27.141935,"lon":120.268366},{"id":444607,"name":"chuanshan","country":"cn","lat":27.398382,"lon":119.843545},{"id":522048,"name":"lingbianting","country":"cn","lat":27.243187,"lon":119.92001},{"id":427741,"name":"beigu","country":"cn","lat":27.492222,"lon":119.851389},{"id":489155,"name":"hsiehtan","country":"cn","lat":27.323655,"lon":119.53129},{"id":621323,"name":"xiaoyue","country":"cn","lat":27.317992,"lon":120.29538},{"id":619068,"name":"xiaohao","country":"cn","lat":26.931162,"lon":120.145014},{"id":536845,"name":"maoyang","country":"cn","lat":27.46,"lon":119.765556},{"id":421316,"name":"aowei","country":"cn","lat":27.193515,"lon":120.372416},{"id":522588,"name":"lingtoumen","country":"cn","lat":26.540278,"lon":119.725833},{"id":501771,"name":"jianli","country":"cn","lat":27.067488,"lon":119.645238},{"id":466957,"name":"fengyanggong","country":"cn","lat":27.33786,"lon":120.450881},{"id":585570,"name":"siapuhsien","country":"cn","lat":26.881944,"lon":120.001111},{"id":550289,"name":"paifen","country":"cn","lat":27.476389,"lon":120.484722},{"id":555188,"name":"pingzhuang","country":"cn","lat":27.242778,"lon":119.705278},{"id":492215,"name":"huameiyan","country":"cn","lat":27.234084,"lon":120.358098},{"id":468133,"name":"fulaoyang","country":"cn","lat":27.146111,"lon":120.367222},{"id":438148,"name":"chengtian","country":"cn","lat":27.241389,"lon":119.568611},{"id":629747,"name":"xiuyang","country":"cn","lat":27.191215,"lon":120.237271},{"id":616880,"name":"xianfeng","country":"cn","lat":27.432358,"lon":119.632789},{"id":629740,"name":"xiuxi","country":"cn","lat":27.4025,"lon":119.966667},{"id":574848,"name":"shanzhukeng","country":"cn","lat":27.110145,"lon":119.85151},{"id":519872,"name":"liaoshan","country":"cn","lat":27.25391,"lon":120.068791},{"id":553047,"name":"peishanchieh","country":"cn","lat":27.388725,"lon":120.38938},{"id":624802,"name":"xikengli","country":"cn","lat":27.272353,"lon":119.982437},{"id":452858,"name":"dashixia","country":"cn","lat":27.095574,"lon":120.354625},{"id":463635,"name":"erkeng","country":"cn","lat":26.949039,"lon":120.198374},{"id":482201,"name":"hengjiang","country":"cn","lat":27.037222,"lon":119.95},{"id":466063,"name":"fengjiang","country":"cn","lat":26.952282,"lon":120.165172},{"id":494424,"name":"huangshakeng","country":"cn","lat":27.402778,"lon":119.890278},{"id":553521,"name":"pengkengwaiyangtsun","country":"cn","lat":27.43362,"lon":120.137551},{"id":609412,"name":"wayaoping","country":"cn","lat":27.397219,"lon":119.641005},{"id":525332,"name":"liukengting","country":"cn","lat":27.143951,"lon":120.204082},{"id":421806,"name":"badou","country":"cn","lat":27.3725,"lon":119.74},{"id":588927,"name":"sumuyang","country":"cn","lat":27.294444,"lon":120.358611},{"id":564714,"name":"ruanyang","country":"cn","lat":27.207222,"lon":120.330833},{"id":528278,"name":"longping","country":"cn","lat":27.087254,"lon":119.58192},{"id":537804,"name":"maxianying","country":"cn","lat":27.309164,"lon":120.129736},{"id":459169,"name":"dongkun","country":"cn","lat":27.185278,"lon":119.669444},{"id":561380,"name":"qingzhukeng","country":"cn","lat":27.396682,"lon":119.508412},{"id":579957,"name":"shijun","country":"cn","lat":27.175857,"lon":119.832927},{"id":605607,"name":"waixikeng","country":"cn","lat":27.090162,"lon":119.843574},{"id":567500,"name":"sansha zhen","country":"cn","lat":26.924202,"lon":120.20877},{"id":654791,"name":"zhoukeng","country":"cn","lat":27.066969,"lon":119.583543},{"id":493375,"name":"huangjiayang","country":"cn","lat":27.443333,"lon":119.7625},{"id":624295,"name":"xiguang","country":"cn","lat":27.374722,"lon":120.378056},{"id":501529,"name":"jiangyang","country":"cn","lat":27.1048,"lon":120.134008},{"id":618090,"name":"xianshan","country":"cn","lat":27.263519,"lon":119.918686},{"id":558935,"name":"qiaoting","country":"cn","lat":27.36295,"lon":120.320099},{"id":566347,"name":"sangui","country":"cn","lat":27.4633,"lon":119.719938},{"id":584267,"name":"shuijingkeng","country":"cn","lat":26.645553,"lon":120.35468},{"id":525016,"name":"liujiang","country":"cn","lat":27.203008,"lon":120.389182},{"id":461857,"name":"duibianshan","country":"cn","lat":27.311111,"lon":119.78},{"id":452904,"name":"dashuiao","country":"cn","lat":27.088889,"lon":120.263333},{"id":604170,"name":"tuntou","country":"cn","lat":27.391509,"lon":119.994489},{"id":574544,"name":"shantouzi","country":"cn","lat":27.245,"lon":119.69},{"id":569609,"name":"shanchang","country":"cn","lat":27.134344,"lon":119.899122},{"id":425499,"name":"banling","country":"cn","lat":27.454345,"lon":120.219084},{"id":545563,"name":"nanshantou","country":"cn","lat":27.212778,"lon":119.711111},{"id":615864,"name":"xiahouyang","country":"cn","lat":27.476667,"lon":119.883333},{"id":629500,"name":"xita","country":"cn","lat":27.301329,"lon":120.445332},{"id":556570,"name":"putou","country":"cn","lat":27.152661,"lon":119.809094},{"id":574274,"name":"shanqian","country":"cn","lat":27.396389,"lon":119.941111},{"id":642535,"name":"youmacuo","country":"cn","lat":27.281944,"lon":119.819444},{"id":487644,"name":"hsiahu","country":"cn","lat":26.610556,"lon":119.948333},{"id":645186,"name":"yukeng","country":"cn","lat":27.443333,"lon":119.8},{"id":421334,"name":"aoyao","country":"cn","lat":27.16598,"lon":120.392058},{"id":564203,"name":"riao","country":"cn","lat":27.112377,"lon":120.278428},{"id":481785,"name":"heli","country":"cn","lat":27.041389,"lon":119.725833},{"id":460136,"name":"dongshuangao","country":"cn","lat":26.683045,"lon":120.383021},{"id":461132,"name":"dongzhuang","country":"cn","lat":27.350556,"lon":119.841111},{"id":503803,"name":"jikeng","country":"cn","lat":27.339617,"lon":119.507101},{"id":535917,"name":"manyang","country":"cn","lat":27.056743,"lon":119.688024},{"id":520327,"name":"licun","country":"cn","lat":27.137572,"lon":119.509622},{"id":622835,"name":"xiayu","country":"cn","lat":27.442778,"lon":119.889722},{"id":523385,"name":"linyang","country":"cn","lat":27.048657,"lon":119.88982},{"id":448548,"name":"dahan","country":"cn","lat":27.266667,"lon":119.5525},{"id":625121,"name":"xilongli","country":"cn","lat":27.055055,"lon":120.178109},{"id":474234,"name":"guanchengwei","country":"cn","lat":27.121372,"lon":120.406744},{"id":446987,"name":"dabailu","country":"cn","lat":27.121372,"lon":120.371315},{"id":468215,"name":"fuliu","country":"cn","lat":27.33502,"lon":120.174313},{"id":503373,"name":"jiepingneicuo","country":"cn","lat":27.411389,"lon":120.314444},{"id":616658,"name":"xiamayuan","country":"cn","lat":27.048862,"lon":120.107708},{"id":568811,"name":"shadian","country":"cn","lat":27.201137,"lon":120.003711},{"id":631412,"name":"xujialing","country":"cn","lat":27.222882,"lon":119.821477},{"id":429903,"name":"boli","country":"cn","lat":27.29301,"lon":120.069525},{"id":645316,"name":"yulin","country":"cn","lat":27.117797,"lon":119.511534},{"id":546432,"name":"nanyuan","country":"cn","lat":27.477222,"lon":119.777778},{"id":469934,"name":"ganjiangyang","country":"cn","lat":27.179444,"lon":119.730278},{"id":586399,"name":"simu","country":"cn","lat":27.468722,"lon":120.238635},{"id":650901,"name":"zhaokengdi","country":"cn","lat":27.398349,"lon":119.617139},{"id":505895,"name":"jinxie","country":"cn","lat":26.615199,"lon":120.016556},{"id":419619,"name":"aiyao","country":"cn","lat":27.146429,"lon":120.295232},{"id":646576,"name":"yutang","country":"cn","lat":27.294867,"lon":120.212752},{"id":522910,"name":"linjia","country":"cn","lat":27.268963,"lon":120.403623},{"id":425258,"name":"bangfu","country":"cn","lat":27.374332,"lon":120.228497},{"id":622619,"name":"xiayang","country":"cn","lat":27.411389,"lon":119.987778},{"id":452517,"name":"dashan","country":"cn","lat":27.374167,"lon":119.863333},{"id":548674,"name":"niujiaolong","country":"cn","lat":27.005556,"lon":119.666389},{"id":429462,"name":"bilingjiao","country":"cn","lat":27.426667,"lon":120.288889},{"id":648449,"name":"zhangboyang","country":"cn","lat":27.139545,"lon":120.107524},{"id":611248,"name":"wenxingming","country":"cn","lat":26.65468,"lon":120.019934},{"id":632080,"name":"yacheng zhen","country":"cn","lat":26.988292,"lon":120.188348},{"id":517571,"name":"leiwei","country":"cn","lat":26.705833,"lon":119.730833},{"id":430341,"name":"buluolin","country":"cn","lat":27.3516,"lon":119.577638},{"id":525889,"name":"liushui","country":"cn","lat":27.222778,"lon":119.980833},{"id":655153,"name":"zhuanbian","country":"cn","lat":27.116049,"lon":120.006377},{"id":587777,"name":"songtan","country":"cn","lat":27.112222,"lon":119.627778},{"id":580344,"name":"shilong","country":"cn","lat":27.499241,"lon":120.300135},{"id":500163,"name":"jiakeng","country":"cn","lat":27.446944,"lon":119.985833},{"id":544068,"name":"nangai","country":"cn","lat":27.205264,"lon":120.204449},{"id":484468,"name":"hongjiang","country":"cn","lat":26.795141,"lon":120.043653},{"id":577862,"name":"shicheng","country":"cn","lat":27.384722,"lon":119.786111},{"id":545118,"name":"nanmilou","country":"cn","lat":27.091922,"lon":119.817916},{"id":567973,"name":"sanxing","country":"cn","lat":27.186189,"lon":120.462672},{"id":444204,"name":"chouling","country":"cn","lat":27.189444,"lon":119.916944},{"id":611595,"name":"wuao","country":"cn","lat":26.564999,"lon":120.135242},{"id":586904,"name":"sixi","country":"cn","lat":27.467632,"lon":120.00321},{"id":630916,"name":"xuejialong","country":"cn","lat":27.217222,"lon":119.720556},{"id":639228,"name":"yeruiyang","country":"cn","lat":27.423889,"lon":119.846111},{"id":502386,"name":"jiaoli","country":"cn","lat":27.126175,"lon":119.564742},{"id":450857,"name":"damuli","country":"cn","lat":26.827111,"lon":120.001958},{"id":450277,"name":"dalongkou","country":"cn","lat":27.415556,"lon":119.927778},{"id":466283,"name":"fenglingchiao","country":"cn","lat":27.487218,"lon":120.318632},{"id":468132,"name":"fulaoping","country":"cn","lat":27.327778,"lon":119.693611},{"id":468674,"name":"futinghsien","country":"cn","lat":27.327338,"lon":120.213995},{"id":472058,"name":"gaozhai","country":"cn","lat":27.312874,"lon":119.899161},{"id":573677,"name":"shangzhouyang","country":"cn","lat":27.436361,"lon":119.762222},{"id":629832,"name":"xiweicun","country":"cn","lat":26.844167,"lon":119.786389},{"id":610709,"name":"wengxi","country":"cn","lat":27.223684,"lon":120.106687},{"id":617604,"name":"xiangtou","country":"cn","lat":26.719722,"lon":119.911944},{"id":618321,"name":"xiaobailu","country":"cn","lat":27.138995,"lon":120.374435},{"id":454203,"name":"daxinping","country":"cn","lat":27.405372,"lon":120.457355},{"id":434108,"name":"changjiaxi","country":"cn","lat":27.020959,"lon":120.118722},{"id":431227,"name":"canglou","country":"cn","lat":27.391944,"lon":119.866944},{"id":467603,"name":"fuchi","country":"cn","lat":27.189722,"lon":119.824444},{"id":429232,"name":"biannan","country":"cn","lat":27.144135,"lon":120.418125},{"id":438963,"name":"chenliufang","country":"cn","lat":27.446111,"lon":120.274167},{"id":542125,"name":"mufeng","country":"cn","lat":27.402914,"lon":120.054241},{"id":541583,"name":"molukeng","country":"cn","lat":27.019499,"lon":119.786879},{"id":618185,"name":"xianxiatang","country":"cn","lat":26.903045,"lon":120.013789},{"id":510313,"name":"kengbian","country":"cn","lat":27.485278,"lon":119.752778},{"id":510604,"name":"kexi","country":"cn","lat":27.427222,"lon":119.794444},{"id":639243,"name":"yeshan","country":"cn","lat":27.205012,"lon":119.812299},{"id":603563,"name":"tungkung","country":"cn","lat":27.279596,"lon":120.428223},{"id":546077,"name":"nanxia","country":"cn","lat":27.335556,"lon":120.410556},{"id":420659,"name":"anqian","country":"cn","lat":27.439167,"lon":119.923056},{"id":643940,"name":"yuching","country":"cn","lat":27.026466,"lon":120.260989},{"id":565407,"name":"sanbulei","country":"cn","lat":27.308056,"lon":120.497222},{"id":618270,"name":"xianzhu","country":"cn","lat":26.6225,"lon":119.815278},{"id":634735,"name":"yangmei","country":"cn","lat":27.475995,"lon":120.130032},{"id":557983,"name":"qianqizhen","country":"cn","lat":27.311556,"lon":120.321592},{"id":639466,"name":"yiceng","country":"cn","lat":26.994538,"lon":120.223635},{"id":592058,"name":"takueitang","country":"cn","lat":27.102241,"lon":120.318108},{"id":514515,"name":"landou","country":"cn","lat":27.312778,"lon":119.629722},{"id":447433,"name":"dacheng","country":"cn","lat":26.659444,"lon":119.888333},{"id":461763,"name":"duchuantou","country":"cn","lat":27.301566,"lon":119.51781},{"id":636050,"name":"yanjialan","country":"cn","lat":27.290473,"lon":119.894804},{"id":583419,"name":"shuangshen","country":"cn","lat":27.372222,"lon":119.839167},{"id":488664,"name":"hsiapaishih","country":"cn","lat":26.815278,"lon":119.679167},{"id":572130,"name":"shangpingyang","country":"cn","lat":27.277778,"lon":119.631111},{"id":630139,"name":"xiyangwei","country":"cn","lat":27.283465,"lon":120.15305},{"id":546294,"name":"nanyang","country":"cn","lat":27.437717,"lon":120.223171},{"id":425537,"name":"banluyang","country":"cn","lat":27.403206,"lon":119.755392},{"id":548763,"name":"niulangang","country":"cn","lat":27.06263,"lon":120.269984},{"id":629642,"name":"xiujianshancun","country":"cn","lat":27.47252,"lon":120.077508},{"id":574711,"name":"shanxiuzhai","country":"cn","lat":27.330917,"lon":119.722192},{"id":605624,"name":"waiyang","country":"cn","lat":27.481667,"lon":119.912778},{"id":647419,"name":"zaoxizhen","country":"cn","lat":27.460167,"lon":120.446026},{"id":599183,"name":"tingbian","country":"cn","lat":27.286769,"lon":120.107341},{"id":589153,"name":"sunglotang","country":"cn","lat":26.983333,"lon":119.75},{"id":643494,"name":"yuansi","country":"cn","lat":27.302827,"lon":120.062725},{"id":635084,"name":"yangshang","country":"cn","lat":27.021944,"lon":119.708889},{"id":519901,"name":"liaoxia","country":"cn","lat":27.489722,"lon":119.7125},{"id":439614,"name":"chexia","country":"cn","lat":27.306389,"lon":119.688611},{"id":467976,"name":"fujiashan","country":"cn","lat":27.263071,"lon":119.794619},{"id":486475,"name":"houkengdi","country":"cn","lat":27.365833,"lon":119.749444},{"id":606353,"name":"wangcuoli","country":"cn","lat":27.210833,"lon":120.254444},{"id":556378,"name":"puping","country":"cn","lat":27.36098,"lon":120.367647},{"id":465795,"name":"fenghe","country":"cn","lat":27.465278,"lon":120.376111},{"id":619218,"name":"xiaohouyang","country":"cn","lat":27.245719,"lon":120.088265},{"id":548446,"name":"niucheng","country":"cn","lat":27.171944,"lon":119.983333},{"id":456566,"name":"dieryang","country":"cn","lat":26.907779,"lon":120.094287},{"id":569597,"name":"shanchagang","country":"cn","lat":27.406824,"lon":120.0255},{"id":487776,"name":"hsiamen","country":"cn","lat":27.1,"lon":120.316667},{"id":587876,"name":"songyu","country":"cn","lat":26.874066,"lon":120.053836},{"id":450251,"name":"dalong","country":"cn","lat":27.462778,"lon":120.288611},{"id":564700,"name":"ruanling","country":"cn","lat":27.195047,"lon":119.738671},{"id":556327,"name":"pumencheng","country":"cn","lat":27.234511,"lon":120.441401},{"id":457831,"name":"dongbi","country":"cn","lat":26.92562,"lon":120.18816},{"id":535010,"name":"majiling","country":"cn","lat":27.395556,"lon":119.731667},{"id":584656,"name":"shuiqitou","country":"cn","lat":27.26832,"lon":120.334417},{"id":510415,"name":"kengping","country":"cn","lat":27.308056,"lon":119.646389},{"id":427347,"name":"beibi","country":"cn","lat":26.569722,"lon":119.870556},{"id":494759,"name":"huangtanqi","country":"cn","lat":27.467778,"lon":119.96},{"id":609094,"name":"wanyao","country":"cn","lat":26.599444,"lon":119.638889},{"id":651734,"name":"zhengjiakeng","country":"cn","lat":27.437414,"lon":119.680315},{"id":505709,"name":"jinshetou","country":"cn","lat":26.650278,"lon":119.585},{"id":593241,"name":"tangjiayang","country":"cn","lat":27.048495,"lon":120.206836},{"id":612208,"name":"wufeng","country":"cn","lat":27.413001,"lon":120.289037},{"id":566011,"name":"sanfuao","country":"cn","lat":26.641111,"lon":119.668611},{"id":452896,"name":"dashu","country":"cn","lat":27.388506,"lon":119.605},{"id":475097,"name":"guanlu","country":"cn","lat":27.367136,"lon":119.57199},{"id":492332,"name":"huangbai","country":"cn","lat":27.18651,"lon":119.784223},{"id":476322,"name":"guiling","country":"cn","lat":27.410298,"lon":119.539042},{"id":533950,"name":"macili","country":"cn","lat":26.538208,"lon":120.1369},{"id":571796,"name":"shangmashan","country":"cn","lat":27.056481,"lon":119.627029},{"id":487365,"name":"houzhanggang","country":"cn","lat":27.338748,"lon":119.813433},{"id":556667,"name":"puyang","country":"cn","lat":27.176884,"lon":119.7525},{"id":643142,"name":"yuanjiao","country":"cn","lat":27.461389,"lon":120.288611},{"id":593958,"name":"tangyang","country":"cn","lat":27.133804,"lon":119.592081},{"id":606651,"name":"wanggu","country":"cn","lat":27.112222,"lon":120.365},{"id":437344,"name":"chendun","country":"cn","lat":27.044035,"lon":119.852423},{"id":506416,"name":"jiucheng","country":"cn","lat":27.190226,"lon":120.405701},{"id":526732,"name":"liyangli","country":"cn","lat":27.128441,"lon":120.335314},{"id":453561,"name":"dawan","country":"cn","lat":27.071441,"lon":120.006193},{"id":654656,"name":"zhoujiashan","country":"cn","lat":27.297691,"lon":120.38802},{"id":465210,"name":"fanzhi","country":"cn","lat":27.493056,"lon":120.467222},{"id":471672,"name":"gaosuyang","country":"cn","lat":27.267778,"lon":119.89},{"id":459009,"name":"dongjietou","country":"cn","lat":27.071808,"lon":120.147175},{"id":434119,"name":"changji","country":"cn","lat":27.449644,"lon":120.138902},{"id":535194,"name":"malanxi","country":"cn","lat":27.029198,"lon":120.027694},{"id":486784,"name":"houqiu","country":"cn","lat":27.451111,"lon":119.846389},{"id":478510,"name":"haidao","country":"cn","lat":26.504426,"lon":120.048166},{"id":462140,"name":"dujiayang","country":"cn","lat":27.001679,"lon":119.512308},{"id":600509,"name":"tongyan","country":"cn","lat":27.081127,"lon":119.59727},{"id":517545,"name":"leishi","country":"cn","lat":27.323366,"lon":119.507393},{"id":568727,"name":"shacheng","country":"cn","lat":27.163244,"lon":120.41665},{"id":612266,"name":"wugangting","country":"cn","lat":27.341836,"lon":119.563727},{"id":433032,"name":"chalinli","country":"cn","lat":27.242222,"lon":119.852222},{"id":629746,"name":"xiuyang","country":"cn","lat":27.442605,"lon":120.024131},{"id":464897,"name":"fanjiashan","country":"cn","lat":27.486389,"lon":119.550278},{"id":474156,"name":"guanan","country":"cn","lat":27.303448,"lon":119.844716},{"id":630075,"name":"xixizi","country":"cn","lat":27.421635,"lon":119.527309},{"id":486105,"name":"hougang","country":"cn","lat":26.896532,"lon":120.037801},{"id":560835,"name":"qingshannei","country":"cn","lat":27.4204,"lon":120.484406},{"id":504035,"name":"jinchaixi","country":"cn","lat":27.274772,"lon":120.064182},{"id":559313,"name":"qidu","country":"cn","lat":26.765278,"lon":119.547222},{"id":440799,"name":"chienchiang","country":"cn","lat":26.549722,"lon":119.755},{"id":633382,"name":"yangfugong","country":"cn","lat":27.440251,"lon":120.470783},{"id":533158,"name":"lutouwei","country":"cn","lat":26.644916,"lon":120.121011},{"id":555141,"name":"pingyuan","country":"cn","lat":27.364052,"lon":120.208671},{"id":468013,"name":"fujiayang","country":"cn","lat":27.406667,"lon":119.783333},{"id":621684,"name":"xiaqiao","country":"cn","lat":27.001317,"lon":120.250709},{"id":448902,"name":"dahu","country":"cn","lat":27.229543,"lon":120.40139},{"id":599338,"name":"tingnan","country":"cn","lat":27.444722,"lon":120.406667},{"id":631594,"name":"xujiazhuang","country":"cn","lat":27.423889,"lon":119.946944},{"id":457654,"name":"dongan","country":"cn","lat":26.678889,"lon":119.939722},{"id":525307,"name":"liujin","country":"cn","lat":26.609468,"lon":120.00857},{"id":533971,"name":"macuoping","country":"cn","lat":26.946613,"lon":120.068936},{"id":539587,"name":"mentouli","country":"cn","lat":27.364052,"lon":120.278428},{"id":452307,"name":"daqiuping","country":"cn","lat":27.474559,"lon":119.874514},{"id":465056,"name":"fanshan","country":"cn","lat":27.342715,"lon":120.39886},{"id":650433,"name":"zhanyang","country":"cn","lat":27.122798,"lon":119.672463},{"id":584501,"name":"shuimen linchang","country":"cn","lat":26.910609,"lon":120.085672},{"id":486633,"name":"houluxi","country":"cn","lat":27.013173,"lon":119.946146},{"id":510570,"name":"keshuxia","country":"cn","lat":27.064626,"lon":119.598934},{"id":437985,"name":"chengmen","country":"cn","lat":27.276359,"lon":120.486486},{"id":477612,"name":"guoyang","country":"cn","lat":27.155333,"lon":120.22813},{"id":526299,"name":"liuyang","country":"cn","lat":27.12452,"lon":119.696285},{"id":527982,"name":"longjinggang","country":"cn","lat":27.229444,"lon":119.944167},{"id":646013,"name":"yunluyang","country":"cn","lat":27.037865,"lon":119.996644},{"id":620057,"name":"xiaomengwan","country":"cn","lat":27.076397,"lon":120.275675},{"id":471958,"name":"gaoyangshan","country":"cn","lat":27.378089,"lon":120.460823},{"id":461386,"name":"doumentou","country":"cn","lat":27.188611,"lon":120.3475},{"id":458479,"name":"dongguanli","country":"cn","lat":27.147439,"lon":120.386735},{"id":564496,"name":"ronghuacuo","country":"cn","lat":27.283333,"lon":119.801944},{"id":643372,"name":"yuanpan","country":"cn","lat":27.323756,"lon":120.40649},{"id":433736,"name":"changgang","country":"cn","lat":27.157202,"lon":119.867303},{"id":467216,"name":"fenshuikuan","country":"cn","lat":27.431093,"lon":120.250591},{"id":617829,"name":"xianhou","country":"cn","lat":27.219167,"lon":119.947222},{"id":440103,"name":"chiao","country":"cn","lat":26.562222,"lon":119.933056},{"id":451651,"name":"daoliushui","country":"cn","lat":27.115435,"lon":119.7974},{"id":599073,"name":"tietangdi","country":"cn","lat":27.339977,"lon":120.230714},{"id":466949,"name":"fengyang","country":"cn","lat":27.048889,"lon":119.569625},{"id":442200,"name":"chingleng","country":"cn","lat":27.130734,"lon":120.020512},{"id":543412,"name":"nanao","country":"cn","lat":26.698916,"lon":120.355083},{"id":561717,"name":"qipu","country":"cn","lat":27.302544,"lon":120.004421},{"id":467366,"name":"fotalong","country":"cn","lat":27.265474,"lon":120.143964},{"id":542745,"name":"muyangchen","country":"cn","lat":27.062898,"lon":119.533958},{"id":463328,"name":"erdu","country":"cn","lat":26.591944,"lon":119.586389},{"id":500907,"name":"jiangjiashan","country":"cn","lat":27.273056,"lon":119.716389},{"id":476254,"name":"guihu","country":"cn","lat":27.323333,"lon":119.804444},{"id":595006,"name":"taokengli","country":"cn","lat":27.13401,"lon":119.936804},{"id":440319,"name":"chiaotunmen","country":"cn","lat":27.461323,"lon":120.293893},{"id":605335,"name":"waicheng","country":"cn","lat":26.650952,"lon":120.078863},{"id":450976,"name":"danchi","country":"cn","lat":27.207343,"lon":119.785193},{"id":609037,"name":"wanwu","country":"cn","lat":26.832222,"lon":119.719167},{"id":465955,"name":"fenghuo","country":"cn","lat":26.925548,"lon":120.252731},{"id":456739,"name":"dingao","country":"cn","lat":27.4725,"lon":120.461944},{"id":544888,"name":"nanlingjiao","country":"cn","lat":27.324584,"lon":120.342586},{"id":546969,"name":"neicaibao","country":"cn","lat":27.130183,"lon":120.211609},{"id":439133,"name":"chenshangyang","country":"cn","lat":27.180552,"lon":119.807541},{"id":454029,"name":"daxibian","country":"cn","lat":27.111493,"lon":119.637109},{"id":456451,"name":"diaoyukeng","country":"cn","lat":27.484454,"lon":120.132259},{"id":646336,"name":"yuqi","country":"cn","lat":27.169444,"lon":120.356944},{"id":442914,"name":"chisha","country":"cn","lat":26.64382,"lon":120.065478},{"id":506250,"name":"jishi","country":"cn","lat":26.737657,"lon":120.099218},{"id":582253,"name":"shizi","country":"cn","lat":27.421787,"lon":120.408802},{"id":447604,"name":"dacuoji","country":"cn","lat":27.275755,"lon":120.228313},{"id":556153,"name":"pujiashan","country":"cn","lat":27.339722,"lon":119.665833},{"id":437288,"name":"chencuoli","country":"cn","lat":27.179386,"lon":120.380588},{"id":643679,"name":"yuanyangtou","country":"cn","lat":27.171389,"lon":119.945278},{"id":489400,"name":"hsihsin","country":"cn","lat":27.484212,"lon":120.40857},{"id":590179,"name":"taao","country":"cn","lat":26.500385,"lon":120.047268},{"id":543389,"name":"nanan","country":"cn","lat":26.72,"lon":119.855556},{"id":499964,"name":"jiafeng","country":"cn","lat":27.278333,"lon":119.593333},{"id":474541,"name":"guanghua","country":"cn","lat":27.278325,"lon":120.010783},{"id":561361,"name":"qingyutou","country":"cn","lat":26.994592,"lon":120.254959},{"id":490930,"name":"hsiwei","country":"cn","lat":27.140463,"lon":120.347451},{"id":492127,"name":"hualin","country":"cn","lat":27.003914,"lon":119.558859},{"id":636618,"name":"yantan","country":"cn","lat":27.2,"lon":119.900556},{"id":505716,"name":"jinshi","country":"cn","lat":27.492778,"lon":119.926667},{"id":431136,"name":"cangbian","country":"cn","lat":27.413663,"lon":120.17601},{"id":487369,"name":"houzhang","country":"cn","lat":27.255556,"lon":119.547778},{"id":421187,"name":"aokuan","country":"cn","lat":27.351038,"lon":120.471227},{"id":599476,"name":"tingzi","country":"cn","lat":27.440283,"lon":120.345914},{"id":452603,"name":"dashanxia","country":"cn","lat":27.037939,"lon":119.580158},{"id":506334,"name":"jiubangxiang","country":"cn","lat":27.159957,"lon":120.054458},{"id":486907,"name":"houshou","country":"cn","lat":26.768333,"lon":119.919722},{"id":657107,"name":"zhuzhai","country":"cn","lat":27.408611,"lon":119.833611},{"id":455336,"name":"degongting","country":"cn","lat":27.413889,"lon":120.254465},{"id":438252,"name":"chengwu","country":"cn","lat":26.703333,"lon":119.988333},{"id":605467,"name":"waima","country":"cn","lat":27.306394,"lon":119.942651},{"id":451477,"name":"danzhuyang","country":"cn","lat":27.483056,"lon":119.958056},{"id":655080,"name":"zhouyang","country":"cn","lat":26.869167,"lon":119.987778},{"id":560474,"name":"qinglanmian","country":"cn","lat":27.181111,"lon":119.920278},{"id":484728,"name":"hongping","country":"cn","lat":27.036547,"lon":119.545252},{"id":566996,"name":"sankeng","country":"cn","lat":27.185264,"lon":119.620756},{"id":483039,"name":"heshili","country":"cn","lat":26.526389,"lon":119.857778},{"id":546227,"name":"nanxue","country":"cn","lat":27.451111,"lon":119.954722},{"id":647185,"name":"zaoao","country":"cn","lat":26.938816,"lon":120.369026},{"id":573280,"name":"shangyanhou","country":"cn","lat":27.354444,"lon":119.771944},{"id":646407,"name":"yushan zhen","country":"cn","lat":26.957481,"lon":120.322774},{"id":622108,"name":"xiatangping","country":"cn","lat":27.468056,"lon":119.713333},{"id":424200,"name":"baiyang","country":"cn","lat":27.053811,"lon":119.862113},{"id":578386,"name":"shigulan","country":"cn","lat":27.266758,"lon":119.847002},{"id":510258,"name":"keling","country":"cn","lat":27.494617,"lon":120.173435},{"id":553463,"name":"pengjiashan","country":"cn","lat":27.07919,"lon":119.919793},{"id":521959,"name":"lindian","country":"cn","lat":27.470278,"lon":119.850833},{"id":496713,"name":"huijiaxi","country":"cn","lat":27.3803,"lon":120.101983},{"id":649479,"name":"zhangkeng","country":"cn","lat":27.336389,"lon":119.897222},{"id":621711,"name":"xiaqishan","country":"cn","lat":26.817266,"lon":120.047188},{"id":471955,"name":"gaoyangli","country":"cn","lat":27.246383,"lon":120.010966},{"id":636665,"name":"yantoumian","country":"cn","lat":27.22807,"lon":119.513343},{"id":583193,"name":"shuanglu","country":"cn","lat":27.328333,"lon":119.871667},{"id":466775,"name":"fengtong","country":"cn","lat":27.359646,"lon":120.343228},{"id":446666,"name":"cundi","country":"cn","lat":27.375226,"lon":119.648083},{"id":469384,"name":"gancuo","country":"cn","lat":27.229722,"lon":120.399444},{"id":581435,"name":"shitoubi","country":"cn","lat":26.930031,"lon":120.128261},{"id":623556,"name":"xidou","country":"cn","lat":27.358346,"lon":119.760648},{"id":618337,"name":"xiaobaiyan","country":"cn","lat":27.250278,"lon":120.266944},{"id":483542,"name":"heyu","country":"cn","lat":26.768333,"lon":119.634167},{"id":522080,"name":"lingchiao","country":"cn","lat":27.454722,"lon":120.354167},{"id":538076,"name":"mazhan","country":"cn","lat":27.268267,"lon":120.45643},{"id":618207,"name":"xianyang","country":"cn","lat":27.323056,"lon":119.670833},{"id":652805,"name":"zhizhuwang","country":"cn","lat":26.717248,"lon":120.120401},{"id":451000,"name":"dandou","country":"cn","lat":26.951069,"lon":120.134558},{"id":457973,"name":"dongchong","country":"cn","lat":26.563056,"lon":119.865},{"id":617728,"name":"xiangyan","country":"cn","lat":27.253333,"lon":119.5225},{"id":621087,"name":"xiaoxiyang","country":"cn","lat":27.204346,"lon":120.092104},{"id":553523,"name":"pengkengyang","country":"cn","lat":27.420186,"lon":119.818791},{"id":599425,"name":"tingxiaxi","country":"cn","lat":26.753443,"lon":120.087838},{"id":434881,"name":"changsha","country":"cn","lat":26.843496,"lon":120.019538},{"id":590165,"name":"taan","country":"cn","lat":27.454167,"lon":119.881667},{"id":478808,"name":"haitian","country":"cn","lat":27.135499,"lon":120.2541},{"id":656588,"name":"zhuozhai","country":"cn","lat":27.434937,"lon":119.990345},{"id":442884,"name":"chiping","country":"cn","lat":26.981389,"lon":119.724722},{"id":623826,"name":"xiejiayang","country":"cn","lat":27.295,"lon":120.468889},{"id":575545,"name":"shatou","country":"cn","lat":26.87853,"lon":120.02226},{"id":453658,"name":"dawangqian","country":"cn","lat":27.463326,"lon":119.690427},{"id":610486,"name":"wencuo","country":"cn","lat":27.304759,"lon":120.268882},{"id":522304,"name":"lingjiaoshan","country":"cn","lat":27.321907,"lon":120.436315},{"id":652345,"name":"zhetou","country":"cn","lat":27.34,"lon":119.872222},{"id":476756,"name":"gulingzhai","country":"cn","lat":27.393611,"lon":119.713056},{"id":572300,"name":"shangsandun","country":"cn","lat":27.144444,"lon":120.271944},{"id":467480,"name":"fuan","country":"cn","lat":27.089167,"lon":119.645278},{"id":653151,"name":"zhonggu","country":"cn","lat":26.993333,"lon":120.263333},{"id":584499,"name":"shuimenkeng","country":"cn","lat":26.971734,"lon":120.068965},{"id":587559,"name":"songmaolin","country":"cn","lat":27.210833,"lon":119.734167},{"id":476423,"name":"guiwu","country":"cn","lat":27.011856,"lon":119.711063},{"id":651494,"name":"zheli","country":"cn","lat":27.186356,"lon":120.191232},{"id":619590,"name":"xiaojing","country":"cn","lat":26.670302,"lon":120.100234},{"id":622506,"name":"xiaxiping","country":"cn","lat":27.453611,"lon":119.915833},{"id":636916,"name":"yanzhou","country":"cn","lat":27.233901,"lon":120.261173},{"id":477616,"name":"guoyangping","country":"cn","lat":27.317222,"lon":120.258611},{"id":564744,"name":"rudengdi","country":"cn","lat":27.474399,"lon":119.67903},{"id":551849,"name":"panqian","country":"cn","lat":26.604167,"lon":119.877222},{"id":526198,"name":"liuxia","country":"cn","lat":27.277866,"lon":120.356904},{"id":648534,"name":"zhangcuo","country":"cn","lat":27.186652,"lon":120.488336},{"id":537797,"name":"maxiangong","country":"cn","lat":26.990996,"lon":120.045073},{"id":654334,"name":"zhoubian","country":"cn","lat":27.431007,"lon":119.7375},{"id":465378,"name":"feiluan","country":"cn","lat":26.5625,"lon":119.5975}]});