callback({"markets":[{"id":2923737,"name":"evansville","country":"us","lat":37.6711111,"lon":-106.3183333},{"id":2924212,"name":"monte vista","country":"us","lat":37.5791667,"lon":-106.1475},{"id":2923931,"name":"hillside","country":"us","lat":38.2652778,"lon":-105.6111111},{"id":2923618,"name":"crestone","country":"us","lat":37.9963889,"lon":-105.6991667},{"id":2923337,"name":"ansel","country":"us","lat":37.7030556,"lon":-106.1019444},{"id":2924518,"name":"sevenmile plaza","country":"us","lat":37.6480556,"lon":-106.2369444},{"id":2923692,"name":"echo","country":"us","lat":38.4427778,"lon":-105.5383333},{"id":2924606,"name":"sugar junction","country":"us","lat":37.5677778,"lon":-106.1119444},{"id":2924791,"name":"zinzer","country":"us","lat":37.5602778,"lon":-106.0938889},{"id":2923572,"name":"coaldale","country":"us","lat":38.3655556,"lon":-105.7572222},{"id":2923883,"name":"hanna","country":"us","lat":37.6794444,"lon":-106.4583333},{"id":2924200,"name":"mineral hot springs","country":"us","lat":38.1688889,"lon":-105.9252778},{"id":2923671,"name":"duncan","country":"us","lat":37.8741667,"lon":-105.6138889},{"id":2924503,"name":"sargents","country":"us","lat":38.4041667,"lon":-106.4144444},{"id":2924480,"name":"saguache","country":"us","lat":38.0875,"lon":-106.0944444},{"id":2924737,"name":"wellsville","country":"us","lat":38.4866667,"lon":-105.9094444},{"id":2924570,"name":"spook city","country":"us","lat":38.23,"lon":-106.1966667},{"id":2924222,"name":"mosca","country":"us","lat":37.6483333,"lon":-105.8733333},{"id":2923639,"name":"del norte","country":"us","lat":37.6788889,"lon":-106.3527778},{"id":2923554,"name":"chester","country":"us","lat":38.3736111,"lon":-106.3011111},{"id":2923438,"name":"bonanza","country":"us","lat":38.2947222,"lon":-106.1416667},{"id":2923943,"name":"hooper","country":"us","lat":37.7427778,"lon":-105.8747222},{"id":2924689,"name":"vallie","country":"us","lat":38.3941667,"lon":-105.7719444},{"id":2923316,"name":"alder","country":"us","lat":38.3694444,"lon":-106.0388889},{"id":2924328,"name":"parkville","country":"us","lat":38.2272222,"lon":-106.1},{"id":2923951,"name":"howard","country":"us","lat":38.4486111,"lon":-105.8347222},{"id":2924629,"name":"texas creek","country":"us","lat":38.4130556,"lon":-105.58},{"id":2924046,"name":"la garita","country":"us","lat":37.8408333,"lon":-106.2461111},{"id":2923605,"name":"cotopaxi","country":"us","lat":38.3702778,"lon":-105.6875},{"id":2924223,"name":"mosea","country":"us","lat":37.6511111,"lon":-105.8688889},{"id":2924168,"name":"maxeyville","country":"us","lat":37.6180556,"lon":-106.1488889},{"id":2923674,"name":"dunul","country":"us","lat":37.6622222,"lon":-106.1019444},{"id":2923443,"name":"bonita","country":"us","lat":38.2327778,"lon":-106.2144444},{"id":2924016,"name":"kerper city","country":"us","lat":38.2827778,"lon":-106.1416667},{"id":2924625,"name":"tanglewood acres","country":"us","lat":38.0938889,"lon":-105.5611111},{"id":2924381,"name":"pleasanton","country":"us","lat":38.365,"lon":-105.7472222},{"id":2924207,"name":"moffat","country":"us","lat":37.9988889,"lon":-105.9094444},{"id":2924695,"name":"vastine","country":"us","lat":37.6344444,"lon":-106.1027778},{"id":2924704,"name":"villa grove","country":"us","lat":38.2486111,"lon":-105.9486111},{"id":2924330,"name":"parma","country":"us","lat":37.5372222,"lon":-106.0380556},{"id":2923542,"name":"center","country":"us","lat":37.7530556,"lon":-106.1080556},{"id":2923940,"name":"homelake","country":"us","lat":37.5755556,"lon":-106.0963889}]});