callback({"markets":[{"id":2912633,"name":"whale pass","country":"us","lat":56.1152778,"lon":-133.1208333},{"id":2912097,"name":"coffman cove","country":"us","lat":56.0138889,"lon":-132.8277778},{"id":2912517,"name":"salt chuck","country":"us","lat":55.6263889,"lon":-132.5536111},{"id":2912587,"name":"thorne bay","country":"us","lat":55.6877778,"lon":-132.5222222},{"id":2912593,"name":"tokeen","country":"us","lat":55.9375,"lon":-133.325},{"id":2912288,"name":"klawock","country":"us","lat":55.5522222,"lon":-133.0958333},{"id":2912393,"name":"naukati bay","country":"us","lat":55.8736111,"lon":-133.1847222},{"id":2912512,"name":"saint john harbor","country":"us","lat":56.4397222,"lon":-132.9636111},{"id":2912223,"name":"hollis","country":"us","lat":55.5566667,"lon":-132.6363889}]});