callback({"markets":[{"id":371108,"name":"sagu","country":"cd","lat":3.55,"lon":30.333333},{"id":363684,"name":"lalibe","country":"cd","lat":3.8,"lon":29.716667},{"id":370998,"name":"ramadala","country":"cd","lat":3.916667,"lon":30.116667},{"id":370595,"name":"pantaloa","country":"cd","lat":3.583333,"lon":30.133333},{"id":2586257,"name":"dimo","country":"sd","lat":3.9333333,"lon":30.3833333},{"id":357476,"name":"givinga","country":"cd","lat":3.8,"lon":29.933333},{"id":3163701,"name":"mangai","country":"zr","lat":3.55,"lon":30.2},{"id":3150080,"name":"badri","country":"zr","lat":4.0333333,"lon":29.8166667},{"id":3163861,"name":"marendwa","country":"zr","lat":4.05,"lon":29.9833333},{"id":3149874,"name":"aola","country":"zr","lat":3.9666667,"lon":29.8333333},{"id":3169925,"name":"surubari","country":"zr","lat":3.6666667,"lon":30.2833333},{"id":352118,"name":"angwandi","country":"cd","lat":3.55,"lon":29.75},{"id":365923,"name":"mandango","country":"cd","lat":3.883333,"lon":30.133333},{"id":356602,"name":"dramba","country":"cd","lat":3.666667,"lon":30.316667},{"id":3157989,"name":"kareo","country":"zr","lat":3.6,"lon":29.8333333},{"id":353275,"name":"bava","country":"cd","lat":3.55,"lon":29.783333},{"id":2587862,"name":"gimoru","country":"sd","lat":3.9333333,"lon":30.4166667},{"id":3160924,"name":"koliango","country":"zr","lat":3.9666667,"lon":30.05},{"id":3154340,"name":"dramba","country":"zr","lat":3.6666667,"lon":30.3166667},{"id":3165094,"name":"monetu","country":"zr","lat":3.7833333,"lon":29.9333333},{"id":3151013,"name":"bava","country":"zr","lat":3.55,"lon":29.7833333},{"id":367357,"name":"monetu","country":"cd","lat":3.783333,"lon":29.933333},{"id":374493,"name":"yaya","country":"cd","lat":3.9,"lon":29.766667},{"id":363147,"name":"kodrarobe","country":"cd","lat":3.716667,"lon":29.966667},{"id":371023,"name":"rigwadi","country":"cd","lat":3.6,"lon":30.033333},{"id":3170229,"name":"tiriado","country":"zr","lat":3.5833333,"lon":30.0333333},{"id":357158,"name":"faradje","country":"cd","lat":3.733333,"lon":29.716667},{"id":363722,"name":"lasso","country":"cd","lat":3.916667,"lon":30.266667},{"id":3149752,"name":"alokwa","country":"zr","lat":3.6666667,"lon":29.85},{"id":371103,"name":"sadi","country":"cd","lat":3.833333,"lon":29.783333},{"id":2586829,"name":"elimiri","country":"sd","lat":4.2166667,"lon":30.0166667},{"id":3169741,"name":"sinia","country":"zr","lat":3.5,"lon":29.9833333},{"id":3150643,"name":"bangbala","country":"zr","lat":3.7,"lon":30.1833333},{"id":3153355,"name":"buluma","country":"zr","lat":3.5166667,"lon":30.3833333},{"id":363553,"name":"kurukwata","country":"cd","lat":3.85,"lon":30.133333},{"id":369507,"name":"ngangi","country":"cd","lat":3.85,"lon":29.683333},{"id":3166973,"name":"nagero","country":"zr","lat":3.75,"lon":29.5166667},{"id":3153782,"name":"bwere","country":"zr","lat":3.9666667,"lon":29.6833333},{"id":351994,"name":"ali","country":"cd","lat":3.633333,"lon":30.2},{"id":3154896,"name":"faradje","country":"zr","lat":3.7333333,"lon":29.7166667},{"id":372295,"name":"taliyi","country":"cd","lat":3.633333,"lon":29.933333},{"id":3163661,"name":"mandara","country":"zr","lat":3.5333333,"lon":29.8333333},{"id":355617,"name":"buluma","country":"cd","lat":3.516667,"lon":30.383333},{"id":367542,"name":"motoba","country":"cd","lat":3.7,"lon":29.716667},{"id":2589417,"name":"kobwa","country":"sd","lat":3.95,"lon":30.4666667},{"id":372472,"name":"tikadzi","country":"cd","lat":4.083333,"lon":29.733333},{"id":367490,"name":"mordja","country":"cd","lat":4.033333,"lon":30.15},{"id":366124,"name":"marendwa","country":"cd","lat":4.05,"lon":29.983333},{"id":351897,"name":"abogo-dodu","country":"cd","lat":3.816667,"lon":30.366667},{"id":369387,"name":"ndoa","country":"cd","lat":3.533333,"lon":30.05},{"id":356601,"name":"dradiwa","country":"cd","lat":3.783333,"lon":29.85},{"id":352244,"name":"azile","country":"cd","lat":3.533333,"lon":29.866667},{"id":3161421,"name":"lalibe","country":"zr","lat":3.8,"lon":29.7166667},{"id":3170032,"name":"taliyi","country":"zr","lat":3.6333333,"lon":29.9333333},{"id":3164662,"name":"missa","country":"zr","lat":4.0333333,"lon":30.15},{"id":3168760,"name":"rigwadi","country":"zr","lat":3.6,"lon":30.0333333},{"id":3154338,"name":"doya","country":"zr","lat":3.8,"lon":29.8833333},{"id":352136,"name":"aola","country":"cd","lat":3.966667,"lon":29.833333},{"id":3164804,"name":"mogoi","country":"zr","lat":3.65,"lon":29.7833333},{"id":3154447,"name":"dzoga","country":"zr","lat":4.0,"lon":30.0},{"id":352214,"name":"avokiri","country":"cd","lat":3.816667,"lon":30.266667},{"id":2591810,"name":"roue","country":"sd","lat":4.3333333,"lon":30.4833333},{"id":3149952,"name":"avokiri","country":"zr","lat":3.8166667,"lon":30.2666667},{"id":363187,"name":"koliango","country":"cd","lat":3.966667,"lon":30.05},{"id":353892,"name":"bindolo","country":"cd","lat":3.583333,"lon":29.916667},{"id":352905,"name":"bangbala","country":"cd","lat":3.7,"lon":30.183333},{"id":3156133,"name":"jakobo","country":"zr","lat":3.5,"lon":29.9166667},{"id":372188,"name":"surubari","country":"cd","lat":3.666667,"lon":30.283333},{"id":356044,"name":"bwere","country":"cd","lat":3.966667,"lon":29.683333},{"id":363343,"name":"koreri","country":"cd","lat":3.766667,"lon":30.033333},{"id":372492,"name":"tiriado","country":"cd","lat":3.583333,"lon":30.033333},{"id":3155009,"name":"gaduna ogambi","country":"zr","lat":3.8333333,"lon":29.7166667},{"id":2588918,"name":"kadila","country":"sd","lat":4.2666667,"lon":30.2666667},{"id":3169684,"name":"sibabo","country":"zr","lat":3.9,"lon":29.7166667},{"id":3155781,"name":"ima","country":"zr","lat":3.9166667,"lon":30.2166667},{"id":3149635,"name":"abogo-dodu","country":"zr","lat":3.8166667,"lon":30.3666667},{"id":3169926,"name":"suru-basia","country":"zr","lat":3.9166667,"lon":29.9},{"id":373386,"name":"udu","country":"cd","lat":3.883333,"lon":29.85},{"id":3167124,"name":"ndoa","country":"zr","lat":3.5333333,"lon":30.05},{"id":3150665,"name":"bango","country":"zr","lat":3.9,"lon":30.2833333},{"id":3170209,"name":"tikadzi","country":"zr","lat":4.0833333,"lon":29.7333333},{"id":351869,"name":"aba","country":"cd","lat":3.866667,"lon":30.233333},{"id":352927,"name":"bango","country":"cd","lat":3.9,"lon":30.283333},{"id":3165279,"name":"motoba","country":"zr","lat":3.7,"lon":29.7166667},{"id":3171123,"name":"udu","country":"zr","lat":3.8833333,"lon":29.85},{"id":3153461,"name":"bunzaka","country":"zr","lat":3.9,"lon":30.1666667},{"id":3149733,"name":"alifi","country":"zr","lat":3.7166667,"lon":29.6333333},{"id":352486,"name":"bagale","country":"cd","lat":3.716667,"lon":29.783333},{"id":355723,"name":"bunzaka","country":"cd","lat":3.9,"lon":30.166667},{"id":2590071,"name":"lukudu","country":"sd","lat":4.05,"lon":30.25},{"id":372189,"name":"suru-basia","country":"cd","lat":3.916667,"lon":29.9},{"id":2584986,"name":"arbam","country":"sd","lat":4.4333333,"lon":30.4666667},{"id":356375,"name":"djabir","country":"cd","lat":3.783333,"lon":29.783333},{"id":3149732,"name":"ali","country":"zr","lat":3.6333333,"lon":30.2},{"id":357272,"name":"gaduna ogambi","country":"cd","lat":3.833333,"lon":29.716667},{"id":2589174,"name":"kelego","country":"sd","lat":4.1833333,"lon":30.45},{"id":352342,"name":"badri","country":"cd","lat":4.033333,"lon":29.816667},{"id":2587601,"name":"gado","country":"sd","lat":4.1333333,"lon":30.3666667},{"id":3161499,"name":"lema","country":"zr","lat":4.0666667,"lon":29.8833333},{"id":3154339,"name":"dradiwa","country":"zr","lat":3.7833333,"lon":29.85},{"id":2588002,"name":"gumu","country":"sd","lat":4.4166667,"lon":30.1},{"id":3149982,"name":"azile","country":"zr","lat":3.5333333,"lon":29.8666667},{"id":365798,"name":"malizi","country":"cd","lat":3.55,"lon":30.066667},{"id":360252,"name":"kareo","country":"cd","lat":3.6,"lon":29.833333},{"id":360248,"name":"karaya","country":"cd","lat":3.533333,"lon":30.35},{"id":351913,"name":"adau","country":"cd","lat":3.7,"lon":30.35},{"id":3168840,"name":"sadi","country":"zr","lat":3.8333333,"lon":29.7833333},{"id":3161290,"name":"kurukwata","country":"zr","lat":3.85,"lon":30.1333333},{"id":3168066,"name":"ombalaga","country":"zr","lat":4.0333333,"lon":29.85},{"id":351995,"name":"alifi","country":"cd","lat":3.716667,"lon":29.633333},{"id":370329,"name":"ombalaga","country":"cd","lat":4.033333,"lon":29.85},{"id":3161080,"name":"koreri","country":"zr","lat":3.7666667,"lon":30.0333333},{"id":3149607,"name":"aba","country":"zr","lat":3.8666667,"lon":30.2333333},{"id":3160884,"name":"kodrarobe","country":"zr","lat":3.7166667,"lon":29.9666667},{"id":3168735,"name":"ramadala","country":"zr","lat":3.9166667,"lon":30.1166667},{"id":3150224,"name":"bagale","country":"zr","lat":3.7166667,"lon":29.7833333},{"id":2590053,"name":"luduro","country":"sd","lat":4.0166667,"lon":30.2166667},{"id":352191,"name":"atatu","country":"cd","lat":3.733333,"lon":30.033333},{"id":372004,"name":"sinia","country":"cd","lat":3.5,"lon":29.983333},{"id":3149820,"name":"andata","country":"zr","lat":3.8166667,"lon":30.05},{"id":3167244,"name":"ngangi","country":"zr","lat":3.85,"lon":29.6833333},{"id":3161459,"name":"lasso","country":"zr","lat":3.9166667,"lon":30.2666667},{"id":358396,"name":"jakobo","country":"cd","lat":3.5,"lon":29.916667},{"id":357271,"name":"gaduna mola","country":"cd","lat":3.683333,"lon":29.7},{"id":367067,"name":"mogoi","country":"cd","lat":3.65,"lon":29.783333},{"id":3155008,"name":"gaduna mola","country":"zr","lat":3.6833333,"lon":29.7},{"id":3161443,"name":"langabe","country":"zr","lat":3.7833333,"lon":30.2833333},{"id":363706,"name":"langabe","country":"cd","lat":3.783333,"lon":30.283333},{"id":2589806,"name":"laoza","country":"sd","lat":3.95,"lon":30.45},{"id":369236,"name":"nagero","country":"cd","lat":3.75,"lon":29.516667},{"id":2589776,"name":"lakima","country":"sd","lat":4.0333333,"lon":30.2},{"id":363822,"name":"liabe","country":"cd","lat":3.516667,"lon":30.333333},{"id":2589033,"name":"kapeh","country":"sd","lat":4.4666667,"lon":30.4333333},{"id":363762,"name":"lema","country":"cd","lat":4.066667,"lon":29.883333},{"id":356600,"name":"doya","country":"cd","lat":3.8,"lon":29.883333},{"id":2591221,"name":"nyori","country":"sd","lat":3.9333333,"lon":30.4333333},{"id":3157985,"name":"karaya","country":"zr","lat":3.5333333,"lon":30.35},{"id":3149929,"name":"atatu","country":"zr","lat":3.7333333,"lon":30.0333333},{"id":3155213,"name":"givinga","country":"zr","lat":3.8,"lon":29.9333333},{"id":371947,"name":"sibabo","country":"cd","lat":3.9,"lon":29.716667},{"id":352082,"name":"andata","country":"cd","lat":3.816667,"lon":30.05},{"id":3163535,"name":"malizi","country":"zr","lat":3.55,"lon":30.0666667},{"id":2591751,"name":"reriung","country":"sd","lat":3.9538889,"lon":30.4816667},{"id":2588657,"name":"inga","country":"sd","lat":4.3,"lon":30.0666667},{"id":3168845,"name":"sagu","country":"zr","lat":3.55,"lon":30.3333333},{"id":3163660,"name":"mandango","country":"zr","lat":3.8833333,"lon":30.1333333},{"id":357615,"name":"gubi","country":"cd","lat":3.816667,"lon":30.0},{"id":3172230,"name":"yaya","country":"zr","lat":3.9,"lon":29.7666667},{"id":352014,"name":"alokwa","country":"cd","lat":3.666667,"lon":29.85},{"id":3155352,"name":"gubi","country":"zr","lat":3.8166667,"lon":30.0},{"id":3161559,"name":"liabe","country":"zr","lat":3.5166667,"lon":30.3333333},{"id":3168332,"name":"pantaloa","country":"zr","lat":3.5833333,"lon":30.1333333},{"id":3165160,"name":"mongwa","country":"zr","lat":3.8833333,"lon":29.9833333},{"id":358044,"name":"ima","country":"cd","lat":3.916667,"lon":30.216667},{"id":2584977,"name":"araka","country":"sd","lat":4.2666667,"lon":30.35},{"id":3151630,"name":"bindolo","country":"zr","lat":3.5833333,"lon":29.9166667},{"id":367423,"name":"mongwa","country":"cd","lat":3.883333,"lon":29.983333},{"id":365924,"name":"mandara","country":"cd","lat":3.533333,"lon":29.833333}]});