callback({"markets":[{"id":824786,"name":"hacienda chillo ordonez","country":"ec","lat":-0.35,"lon":-78.4333333},{"id":824620,"name":"hacienda anchola","country":"ec","lat":0.0333333,"lon":-78.1166667},{"id":830243,"name":"yaguarcocha","country":"ec","lat":0.3666667,"lon":-78.1},{"id":825666,"name":"hacienda san alfonso","country":"ec","lat":0.4666667,"lon":-78.0166667},{"id":825246,"name":"hacienda la joya","country":"ec","lat":-0.05,"lon":-78.4166667},{"id":822237,"name":"ambuqui","country":"ec","lat":0.4333333,"lon":-78.0166667},{"id":825363,"name":"hacienda magdalena","country":"ec","lat":0.2666667,"lon":-78.1},{"id":822312,"name":"armenia","country":"ec","lat":-0.2833333,"lon":-78.4666667},{"id":829985,"name":"tumbabiro","country":"ec","lat":0.4666667,"lon":-78.2},{"id":825672,"name":"hacienda san antonio","country":"ec","lat":0.45,"lon":-78.2},{"id":826950,"name":"la violeta","country":"ec","lat":0.3666667,"lon":-78.2},{"id":828309,"name":"puellaro","country":"ec","lat":0.0666667,"lon":-78.4},{"id":828166,"name":"pogyo","country":"ec","lat":-0.0333333,"lon":-78.25},{"id":825153,"name":"hacienda irubi","country":"ec","lat":0.1666667,"lon":-78.4},{"id":824769,"name":"hacienda chaupi","country":"ec","lat":-0.15,"lon":-78.3666667},{"id":829061,"name":"san jose","country":"ec","lat":0.4,"lon":-78.1666667},{"id":826771,"name":"la quinta","country":"ec","lat":0.1666667,"lon":-78.1},{"id":826011,"name":"hacienda yaguarcocha","country":"ec","lat":0.3833333,"lon":-78.1166667},{"id":830073,"name":"urcusiqui","country":"ec","lat":0.2833333,"lon":-78.3833333},{"id":829042,"name":"san jose de olaes","country":"ec","lat":-0.25,"lon":-78.4666667},{"id":824767,"name":"hacienda chaupi guarangui","country":"ec","lat":0.3666667,"lon":-78.0166667},{"id":822167,"name":"alangasi","country":"ec","lat":-0.3,"lon":-78.4166667},{"id":828287,"name":"pucupuro","country":"ec","lat":-0.1,"lon":-78.2666667},{"id":826948,"name":"la vina","country":"ec","lat":-0.2,"lon":-78.4},{"id":824034,"name":"el rancho","country":"ec","lat":-0.45,"lon":-78.3833333},{"id":825506,"name":"hacienda pelileo","country":"ec","lat":-0.1833333,"lon":-78.45},{"id":823126,"name":"chaupi loma","country":"ec","lat":0.1,"lon":-78.2},{"id":825528,"name":"hacienda pinguilla","country":"ec","lat":0.1,"lon":-78.4},{"id":822895,"name":"carmelo","country":"ec","lat":-0.4166667,"lon":-78.4166667},{"id":828055,"name":"pimanpiro","country":"ec","lat":0.4,"lon":-77.9666667},{"id":823217,"name":"chingual","country":"ec","lat":0.2166667,"lon":-77.5},{"id":822336,"name":"ascasubi","country":"ec","lat":-0.0833333,"lon":-78.2833333},{"id":825000,"name":"hacienda el sauce","country":"ec","lat":-0.2,"lon":-78.4166667},{"id":824068,"name":"el salto","country":"ec","lat":-0.4333333,"lon":-78.4166667},{"id":824898,"name":"hacienda cusubamba","country":"ec","lat":-0.0333333,"lon":-78.2833333},{"id":829340,"name":"santa rosa","country":"ec","lat":-0.05,"lon":-78.2666667},{"id":823132,"name":"chavezpamba","country":"ec","lat":0.1333333,"lon":-78.3833333},{"id":824995,"name":"hacienda el rosario","country":"ec","lat":0.3,"lon":-78.2166667},{"id":825256,"name":"hacienda la loma","country":"ec","lat":-0.1666667,"lon":-78.3666667},{"id":825846,"name":"hacienda san victor","country":"ec","lat":-0.2666667,"lon":-78.3333333},{"id":829669,"name":"tabacundo","country":"ec","lat":0.05,"lon":-78.2},{"id":825640,"name":"hacienda rumicuchu","country":"ec","lat":0.0166667,"lon":-78.4333333},{"id":825514,"name":"hacienda piango","country":"ec","lat":0.05,"lon":-78.4},{"id":823379,"name":"cochasqui","country":"ec","lat":0.05,"lon":-78.3},{"id":824805,"name":"hacienda chorlavi","country":"ec","lat":0.3166667,"lon":-78.15},{"id":829194,"name":"san pedro urauco","country":"ec","lat":-0.1833333,"lon":-78.4333333},{"id":824344,"name":"g. suarez","country":"ec","lat":0.1833333,"lon":-78.2166667},{"id":824624,"name":"hacienda angla","country":"ec","lat":0.2,"lon":-78.1333333},{"id":828272,"name":"pucara","country":"ec","lat":-0.0666667,"lon":-78.1833333},{"id":823943,"name":"el milagro","country":"ec","lat":0.35,"lon":-78.15},{"id":826168,"name":"imantac","country":"ec","lat":0.3666667,"lon":-78.25},{"id":824895,"name":"hacienda curipungu","country":"ec","lat":-0.3833333,"lon":-78.4333333},{"id":828481,"name":"pusir chico","country":"ec","lat":0.4666667,"lon":-77.9833333},{"id":826461,"name":"la bonita","country":"ec","lat":0.45,"lon":-77.5},{"id":825354,"name":"hacienda lulunqui madera","country":"ec","lat":0.3333333,"lon":-78.1},{"id":825522,"name":"hacienda pigunchuela","country":"ec","lat":0.4333333,"lon":-78.2},{"id":822198,"name":"alor","country":"ec","lat":0.45,"lon":-77.9},{"id":825679,"name":"hacienda san carlos","country":"ec","lat":0.45,"lon":-78.1666667},{"id":826579,"name":"la florida","country":"ec","lat":0.4166667,"lon":-78.2333333},{"id":823080,"name":"chantag","country":"ec","lat":-0.2166667,"lon":-78.3333333},{"id":825270,"name":"hacienda la olimpia","country":"ec","lat":0.3166667,"lon":-78.1833333},{"id":828063,"name":"pinantura","country":"ec","lat":-0.4166667,"lon":-78.3666667},{"id":827296,"name":"mascarilla","country":"ec","lat":0.4833333,"lon":-78.0666667},{"id":825830,"name":"hacienda santa rosa","country":"ec","lat":0.2333333,"lon":-78.3},{"id":825142,"name":"hacienda iltaqui","country":"ec","lat":0.3,"lon":-78.3166667},{"id":822196,"name":"alobuela","country":"ec","lat":0.1333333,"lon":-78.4},{"id":825513,"name":"hacienda piaba","country":"ec","lat":0.3166667,"lon":-78.25},{"id":826638,"name":"la josefina","country":"ec","lat":0.0166667,"lon":-78.4},{"id":827994,"name":"picalqui","country":"ec","lat":0.05,"lon":-78.2333333},{"id":822859,"name":"capuli","country":"ec","lat":-0.0666667,"lon":-78.3666667},{"id":827725,"name":"paccha","country":"ec","lat":-0.0166667,"lon":-78.2333333},{"id":824614,"name":"hacienda ambuela","country":"ec","lat":0.1166667,"lon":-78.4},{"id":825029,"name":"hacienda farsalia","country":"ec","lat":-0.15,"lon":-78.4666667},{"id":824859,"name":"hacienda cornejo","country":"ec","lat":-0.2666667,"lon":-78.4666667},{"id":824843,"name":"hacienda conaqui","country":"ec","lat":0.3833333,"lon":-78.2166667},{"id":825638,"name":"hacienda rosaspamba","country":"ec","lat":0.2166667,"lon":-78.3},{"id":824764,"name":"hacienda chaquibamba","country":"ec","lat":-0.0333333,"lon":-78.3},{"id":826002,"name":"hacienda villacis","country":"ec","lat":-0.05,"lon":-78.3333333},{"id":825224,"name":"hacienda la estancia","country":"ec","lat":-0.1,"lon":-78.3},{"id":826141,"name":"ibarra","country":"ec","lat":0.35,"lon":-78.1166667},{"id":827820,"name":"paluga","country":"ec","lat":-0.25,"lon":-78.3333333},{"id":827477,"name":"moras","country":"ec","lat":-0.1,"lon":-78.1},{"id":825154,"name":"hacienda irumina","country":"ec","lat":0.4166667,"lon":-78.0},{"id":828915,"name":"san elias","country":"ec","lat":-0.3333333,"lon":-78.4},{"id":824197,"name":"fajardo","country":"ec","lat":-0.3333333,"lon":-78.4666667},{"id":825078,"name":"hacienda guanguilqui","country":"ec","lat":-0.0666667,"lon":-78.2833333},{"id":825525,"name":"hacienda piman","country":"ec","lat":0.4,"lon":-78.0666667},{"id":826857,"name":"la sofia","country":"ec","lat":0.3666667,"lon":-77.65},{"id":824973,"name":"hacienda el ovalo","country":"ec","lat":-0.3666667,"lon":-78.4},{"id":824857,"name":"hacienda corazon","country":"ec","lat":-0.2333333,"lon":-78.3333333},{"id":826748,"name":"la portada","country":"ec","lat":0.45,"lon":-77.9666667},{"id":824111,"name":"el turu","country":"ec","lat":0.05,"lon":-78.4166667},{"id":827591,"name":"nayon","country":"ec","lat":-0.1666667,"lon":-78.4333333},{"id":825590,"name":"hacienda pusuqui chico","country":"ec","lat":-0.0666667,"lon":-78.4666667},{"id":824696,"name":"hacienda cajas","country":"ec","lat":-0.1333333,"lon":-78.1833333},{"id":822324,"name":"arrayancucho","country":"ec","lat":0.1666667,"lon":-78.0333333},{"id":824724,"name":"hacienda carriona","country":"ec","lat":-0.3333333,"lon":-78.45},{"id":825353,"name":"hacienda lulunqui","country":"ec","lat":-0.3333333,"lon":-78.1},{"id":824850,"name":"hacienda conibura","country":"ec","lat":-0.2333333,"lon":-78.3},{"id":828310,"name":"puembo","country":"ec","lat":-0.1833333,"lon":-78.35},{"id":823400,"name":"colimbuela","country":"ec","lat":0.35,"lon":-78.25},{"id":825421,"name":"hacienda monjas","country":"ec","lat":0.3166667,"lon":-78.1166667},{"id":822209,"name":"aluburo","country":"ec","lat":0.4333333,"lon":-78.05},{"id":826059,"name":"hoja blanca","country":"ec","lat":0.45,"lon":-78.15},{"id":824865,"name":"hacienda cotama","country":"ec","lat":0.2666667,"lon":-78.25},{"id":823967,"name":"el olivo","country":"ec","lat":0.4,"lon":-77.8833333},{"id":830019,"name":"turucuchu","country":"ec","lat":0.1333333,"lon":-78.0333333},{"id":828872,"name":"san antonio","country":"ec","lat":0.3,"lon":-78.1166667},{"id":829274,"name":"santa eulalia","country":"ec","lat":-0.0166667,"lon":-78.35},{"id":823281,"name":"chota chiquita","country":"ec","lat":0.4833333,"lon":-78.05},{"id":828936,"name":"san francisco de borja","country":"ec","lat":-0.4166667,"lon":-77.8333333},{"id":828432,"name":"pulisa","country":"ec","lat":0.1166667,"lon":-78.0666667},{"id":825535,"name":"hacienda pirca vieja","country":"ec","lat":0.15,"lon":-78.4166667},{"id":829312,"name":"santa rita","country":"ec","lat":0.3166667,"lon":-78.2666667},{"id":825718,"name":"hacienda san javier","country":"ec","lat":0.2,"lon":-78.25},{"id":827862,"name":"papallacta","country":"ec","lat":-0.3666667,"lon":-78.1333333},{"id":823816,"name":"el carmen","country":"ec","lat":-0.1166667,"lon":-78.4333333},{"id":825783,"name":"hacienda san ricardo","country":"ec","lat":0.3666667,"lon":-78.1833333},{"id":823282,"name":"chota","country":"ec","lat":0.4666667,"lon":-78.0666667},{"id":823916,"name":"el inga","country":"ec","lat":-0.3,"lon":-78.3333333},{"id":823164,"name":"chico tomalon","country":"ec","lat":0.0,"lon":-78.25},{"id":825923,"name":"hacienda taxourcu","country":"ec","lat":-0.4166667,"lon":-78.45},{"id":830062,"name":"uravia","country":"ec","lat":-0.1,"lon":-78.3333333},{"id":824867,"name":"hacienda cotogchoa","country":"ec","lat":-0.3666667,"lon":-78.4333333},{"id":827243,"name":"manzano guarangui","country":"ec","lat":0.35,"lon":-78.05},{"id":824341,"name":"granja","country":"ec","lat":-0.3,"lon":-78.4833333},{"id":825436,"name":"hacienda muyurcu","country":"ec","lat":0.1166667,"lon":-78.1},{"id":822795,"name":"cananvalle","country":"ec","lat":0.35,"lon":-78.1333333},{"id":822264,"name":"andrade marin","country":"ec","lat":0.3333333,"lon":-78.2166667},{"id":823992,"name":"el pino","country":"ec","lat":-0.0833333,"lon":-78.3333333},{"id":823517,"name":"cotacachi","country":"ec","lat":0.3,"lon":-78.2666667},{"id":825143,"name":"hacienda imbabuela","country":"ec","lat":0.2166667,"lon":-78.2666667},{"id":823850,"name":"el colegio","country":"ec","lat":-0.1,"lon":-78.4833333},{"id":824591,"name":"hacienda alagache","country":"ec","lat":-0.15,"lon":-78.3166667},{"id":825633,"name":"hacienda rosalia","country":"ec","lat":-0.05,"lon":-78.3166667},{"id":829360,"name":"santiago del rey","country":"ec","lat":0.3833333,"lon":-78.1833333},{"id":828863,"name":"san antonio de pichincha","country":"ec","lat":-0.0166667,"lon":-78.45},{"id":827433,"name":"monjas alto","country":"ec","lat":-0.0166667,"lon":-78.0833333},{"id":827671,"name":"olmedo","country":"ec","lat":0.15,"lon":-78.0833333},{"id":822438,"name":"balbina","country":"ec","lat":-0.35,"lon":-78.4833333},{"id":827434,"name":"monjas bajo","country":"ec","lat":0.0,"lon":-78.0833333},{"id":828728,"name":"rubianes","country":"ec","lat":-0.1333333,"lon":-78.4333333},{"id":829260,"name":"santa clara","country":"ec","lat":0.0833333,"lon":-78.15},{"id":828510,"name":"queseras","country":"ec","lat":0.2666667,"lon":-78.3666667},{"id":826045,"name":"hacienda zuleta","country":"ec","lat":0.2,"lon":-78.0833333},{"id":828944,"name":"san francisco de sigsipamba","country":"ec","lat":0.3166667,"lon":-77.9166667},{"id":828152,"name":"plaza gutierrez","country":"ec","lat":0.35,"lon":-78.4833333},{"id":828621,"name":"remonta","country":"ec","lat":0.0666667,"lon":-78.1333333},{"id":828508,"name":"querubin","country":"ec","lat":-0.3333333,"lon":-78.4166667},{"id":827821,"name":"paluguillo","country":"ec","lat":-0.25,"lon":-78.3},{"id":824720,"name":"hacienda carpuela","country":"ec","lat":0.4333333,"lon":-77.9833333},{"id":825467,"name":"hacienda oton","country":"ec","lat":-0.1166667,"lon":-78.3333333},{"id":824583,"name":"hacienda agualongo","country":"ec","lat":0.2833333,"lon":-78.2166667},{"id":825470,"name":"hacienda oyambaro","country":"ec","lat":-0.2,"lon":-78.3166667},{"id":823157,"name":"chiche tobar","country":"ec","lat":-0.2,"lon":-78.3666667},{"id":824960,"name":"hacienda elisal","country":"ec","lat":0.4666667,"lon":-77.9333333},{"id":829634,"name":"sumaco","country":"ec","lat":-0.4666667,"lon":-77.6},{"id":829967,"name":"tucusahua","country":"ec","lat":-0.1,"lon":-78.2833333},{"id":825512,"name":"hacienda pesillo","country":"ec","lat":0.1666667,"lon":-78.0666667},{"id":825456,"name":"hacienda olalla","country":"ec","lat":-0.2333333,"lon":-78.35},{"id":828089,"name":"pintac","country":"ec","lat":-0.3666667,"lon":-78.3833333},{"id":824428,"name":"gualovi","country":"ec","lat":0.2,"lon":-78.1833333},{"id":825175,"name":"hacienda jerusalem","country":"ec","lat":0.0166667,"lon":-78.35},{"id":825536,"name":"hacienda pisabo","country":"ec","lat":0.2333333,"lon":-78.3333333},{"id":828916,"name":"san eloy","country":"ec","lat":0.4166667,"lon":-78.1833333},{"id":830320,"name":"yuracruz","country":"ec","lat":0.35,"lon":-78.0666667},{"id":825957,"name":"hacienda tupigachi","country":"ec","lat":0.0833333,"lon":-78.1833333},{"id":826276,"name":"jatum loma","country":"ec","lat":-0.4333333,"lon":-78.3833333},{"id":825205,"name":"hacienda la compania","country":"ec","lat":0.1833333,"lon":-78.2},{"id":825281,"name":"hacienda la providencia","country":"ec","lat":0.0166667,"lon":-78.4166667},{"id":825682,"name":"hacienda san clemente","country":"ec","lat":0.2833333,"lon":-78.1166667},{"id":829201,"name":"san rafael","country":"ec","lat":0.1833333,"lon":-78.2333333},{"id":828547,"name":"quinonez","country":"ec","lat":-0.0833333,"lon":-78.4833333},{"id":825107,"name":"hacienda herreria","country":"ec","lat":-0.3666667,"lon":-78.4833333},{"id":827348,"name":"merizalde","country":"ec","lat":-0.1666667,"lon":-78.4666667},{"id":829045,"name":"san jose de quichinche","country":"ec","lat":0.25,"lon":-78.2833333},{"id":823299,"name":"chulunhuasi","country":"ec","lat":0.4833333,"lon":-77.9333333},{"id":826694,"name":"la merced","country":"ec","lat":0.1833333,"lon":-78.1},{"id":823198,"name":"chimba","country":"ec","lat":0.1333333,"lon":-78.05},{"id":824640,"name":"hacienda atobuela","country":"ec","lat":0.3833333,"lon":-78.2},{"id":826434,"name":"la alpargata","country":"ec","lat":0.3333333,"lon":-78.1166667},{"id":823158,"name":"chiche viteri","country":"ec","lat":-0.1833333,"lon":-78.3666667},{"id":828465,"name":"puntazanja","country":"ec","lat":0.0666667,"lon":-78.2833333},{"id":828423,"name":"pugacho","country":"ec","lat":0.3333333,"lon":-78.1333333},{"id":826171,"name":"imbaya","country":"ec","lat":0.3666667,"lon":-78.1333333},{"id":825895,"name":"hacienda tababela","country":"ec","lat":-0.1833333,"lon":-78.3166667},{"id":822415,"name":"baeza","country":"ec","lat":-0.45,"lon":-77.8833333},{"id":822815,"name":"cangagua","country":"ec","lat":-0.0666667,"lon":-78.1666667},{"id":825530,"name":"hacienda pinsaqui","country":"ec","lat":0.2833333,"lon":-78.2333333},{"id":826939,"name":"la victoria","country":"ec","lat":0.35,"lon":-78.1},{"id":823654,"name":"cuvintzi","country":"ec","lat":0.0166667,"lon":-78.25},{"id":828940,"name":"san francisco de natabuela","country":"ec","lat":0.35,"lon":-78.2},{"id":829078,"name":"san juanito","country":"ec","lat":-0.2333333,"lon":-78.4833333},{"id":829322,"name":"santa rosa de quijos","country":"ec","lat":-0.3,"lon":-77.7666667},{"id":825637,"name":"hacienda rosaschupa","country":"ec","lat":-0.4,"lon":-78.3833333},{"id":825964,"name":"hacienda ubillus","country":"ec","lat":-0.4166667,"lon":-78.3833333},{"id":828473,"name":"puruanta","country":"ec","lat":0.05,"lon":-78.2166667},{"id":827705,"name":"otavalo","country":"ec","lat":0.2333333,"lon":-78.2666667},{"id":822839,"name":"capailoma","country":"ec","lat":0.1666667,"lon":-78.0833333},{"id":828890,"name":"san blas","country":"ec","lat":0.4166667,"lon":-78.2166667},{"id":824429,"name":"gualzaqui","country":"ec","lat":0.2666667,"lon":-78.3166667},{"id":829125,"name":"san martin","country":"ec","lat":0.2666667,"lon":-78.2666667},{"id":827273,"name":"mariano acosta","country":"ec","lat":0.3,"lon":-77.9833333},{"id":825233,"name":"hacienda la granja","country":"ec","lat":-0.1166667,"lon":-78.4833333},{"id":822373,"name":"auquigrande","country":"ec","lat":-0.2166667,"lon":-78.45},{"id":825162,"name":"hacienda isigcho","country":"ec","lat":0.0166667,"lon":-78.15},{"id":822280,"name":"angochagua","country":"ec","lat":0.25,"lon":-78.0833333},{"id":826765,"name":"la quesera","country":"ec","lat":0.3833333,"lon":-78.2333333},{"id":825345,"name":"hacienda lonta","country":"ec","lat":-0.25,"lon":-78.4833333},{"id":823052,"name":"chalpi","country":"ec","lat":-0.3666667,"lon":-78.0666667},{"id":825294,"name":"hacienda las abras","country":"ec","lat":0.25,"lon":-78.1333333},{"id":827971,"name":"peribuela","country":"ec","lat":0.3833333,"lon":-78.25},{"id":829420,"name":"sardinas","country":"ec","lat":-0.3666667,"lon":-77.8333333},{"id":829986,"name":"tumbaco","country":"ec","lat":-0.2166667,"lon":-78.4},{"id":825063,"name":"hacienda gualaqui","country":"ec","lat":0.4166667,"lon":-78.0666667},{"id":825285,"name":"hacienda la quinta","country":"ec","lat":0.25,"lon":-78.2666667},{"id":828534,"name":"quinche","country":"ec","lat":-0.1166667,"lon":-78.3},{"id":824155,"name":"esmeralda","country":"ec","lat":-0.3666667,"lon":-78.45},{"id":825188,"name":"hacienda la banda","country":"ec","lat":0.45,"lon":-78.1833333},{"id":823290,"name":"chuga","country":"ec","lat":0.3833333,"lon":-77.9},{"id":824972,"name":"hacienda el orbe","country":"ec","lat":-0.3833333,"lon":-78.4833333},{"id":829390,"name":"san vicente","country":"ec","lat":0.2333333,"lon":-78.25},{"id":829580,"name":"siria","country":"ec","lat":-0.2666667,"lon":-78.45},{"id":829806,"name":"tena grande","country":"ec","lat":-0.3333333,"lon":-78.4833333},{"id":824115,"name":"el verde","country":"ec","lat":-0.0333333,"lon":-78.0333333},{"id":823046,"name":"chahuarpungo","country":"ec","lat":0.0166667,"lon":-78.1333333},{"id":824276,"name":"garbanzal","country":"ec","lat":0.45,"lon":-77.95},{"id":825873,"name":"hacienda sigsicunga","country":"ec","lat":0.25,"lon":-78.35},{"id":824852,"name":"hacienda conraqui","country":"ec","lat":0.3833333,"lon":-78.1333333},{"id":827716,"name":"oyacachi","country":"ec","lat":-0.2,"lon":-78.0666667},{"id":828849,"name":"san alfonso","country":"ec","lat":0.4666667,"lon":-78.0333333},{"id":822924,"name":"cascajo","country":"ec","lat":-0.0833333,"lon":-78.1666667},{"id":829091,"name":"san juan","country":"ec","lat":0.0333333,"lon":-78.3666667},{"id":823713,"name":"doctor miguel egas cabezas","country":"ec","lat":0.25,"lon":-78.2333333},{"id":830070,"name":"urcuhacienda","country":"ec","lat":0.0666667,"lon":-78.3166667},{"id":826923,"name":"laurita","country":"ec","lat":0.3,"lon":-78.1},{"id":826165,"name":"iltaqui chico","country":"ec","lat":0.3,"lon":-78.3},{"id":824697,"name":"hacienda caldera","country":"ec","lat":0.4333333,"lon":-77.9333333},{"id":822796,"name":"cananvalle","country":"ec","lat":0.0333333,"lon":-78.1833333},{"id":824773,"name":"hacienda chibiga","country":"ec","lat":0.0833333,"lon":-78.4166667},{"id":825583,"name":"hacienda pullincote","country":"ec","lat":-0.4,"lon":-78.4333333},{"id":829556,"name":"sigsipta","country":"ec","lat":-0.2333333,"lon":-78.3166667},{"id":828969,"name":"sangolqui","country":"ec","lat":-0.3166667,"lon":-78.45},{"id":824450,"name":"guangopolo","country":"ec","lat":-0.25,"lon":-78.45},{"id":822901,"name":"carolina","country":"ec","lat":-0.1833333,"lon":-78.4833333},{"id":824435,"name":"guambi","country":"ec","lat":-0.1666667,"lon":-78.35},{"id":828565,"name":"quitumbita","country":"ec","lat":0.3666667,"lon":-78.2333333},{"id":824342,"name":"granobles","country":"ec","lat":0.05,"lon":-78.1666667},{"id":824360,"name":"guachala","country":"ec","lat":-0.0166667,"lon":-78.1666667},{"id":830321,"name":"yurac","country":"ec","lat":-0.3833333,"lon":-78.35},{"id":826915,"name":"la union","country":"ec","lat":0.4333333,"lon":-78.15},{"id":827373,"name":"mindaburlo","country":"ec","lat":0.4,"lon":-78.2},{"id":827910,"name":"pataqui","country":"ec","lat":0.1666667,"lon":-78.35},{"id":824765,"name":"hacienda charla","country":"ec","lat":0.1166667,"lon":-78.4166667},{"id":824834,"name":"hacienda colegio","country":"ec","lat":-0.4333333,"lon":-78.4333333},{"id":829020,"name":"san joaquin","country":"ec","lat":0.1166667,"lon":-78.1666667},{"id":829666,"name":"tababuela","country":"ec","lat":0.4166667,"lon":-78.1333333},{"id":823399,"name":"colegio","country":"ec","lat":-0.3,"lon":-78.4333333},{"id":828537,"name":"quinchucajas","country":"ec","lat":-0.1166667,"lon":-78.2166667},{"id":828167,"name":"polit","country":"ec","lat":-0.3166667,"lon":-78.4833333},{"id":827300,"name":"maspo","country":"ec","lat":-0.4166667,"lon":-78.0166667},{"id":829680,"name":"tablon","country":"ec","lat":-0.3666667,"lon":-78.25},{"id":823781,"name":"el beaterio","country":"ec","lat":0.0666667,"lon":-78.3333333},{"id":824102,"name":"el trapiche","country":"ec","lat":-0.2,"lon":-78.4333333},{"id":824888,"name":"hacienda cuicocha","country":"ec","lat":0.3,"lon":-78.35},{"id":823202,"name":"chimburlo","country":"ec","lat":0.0333333,"lon":-78.2666667},{"id":829757,"name":"tanda","country":"ec","lat":0.0,"lon":-78.3333333},{"id":824853,"name":"hacienda conrrogal","country":"ec","lat":0.1,"lon":-78.4166667},{"id":822742,"name":"calderon","country":"ec","lat":-0.1,"lon":-78.4333333},{"id":824642,"name":"hacienda auquichico","country":"ec","lat":-0.2166667,"lon":-78.4333333},{"id":825102,"name":"hacienda gulchan","country":"ec","lat":0.4833333,"lon":-77.8833333},{"id":824706,"name":"hacienda candelaria","country":"ec","lat":-0.05,"lon":-78.15},{"id":829441,"name":"secas","country":"ec","lat":-0.45,"lon":-78.3333333},{"id":825726,"name":"hacienda san jorge","country":"ec","lat":-0.3833333,"lon":-78.45},{"id":822875,"name":"carcelen","country":"ec","lat":-0.0166667,"lon":-78.4333333},{"id":824582,"name":"hacienda agato","country":"ec","lat":-0.0833333,"lon":-78.3666667},{"id":822543,"name":"bellavista","country":"ec","lat":-0.0666667,"lon":-78.4166667},{"id":827710,"name":"oton","country":"ec","lat":-0.0333333,"lon":-78.2333333},{"id":824761,"name":"hacienda changala","country":"ec","lat":0.05,"lon":-78.15},{"id":830336,"name":"zambiza","country":"ec","lat":-0.15,"lon":-78.4333333},{"id":824969,"name":"hacienda el molino","country":"ec","lat":-0.1166667,"lon":-78.2833333},{"id":824954,"name":"hacienda el hospital","country":"ec","lat":0.4,"lon":-78.25},{"id":829191,"name":"san pedro","country":"ec","lat":-0.3166667,"lon":-78.4666667},{"id":825403,"name":"hacienda miraflores alto","country":"ec","lat":0.0333333,"lon":-78.15},{"id":825393,"name":"hacienda merced","country":"ec","lat":-0.4,"lon":-78.35},{"id":825943,"name":"hacienda tolontag","country":"ec","lat":-0.3333333,"lon":-78.35},{"id":825521,"name":"hacienda piganta","country":"ec","lat":0.15,"lon":-78.3833333},{"id":823747,"name":"e. espejo","country":"ec","lat":0.2166667,"lon":-78.25},{"id":825223,"name":"hacienda la esperanza","country":"ec","lat":-0.3333333,"lon":-78.4333333},{"id":825302,"name":"hacienda la tola","country":"ec","lat":0.0666667,"lon":-78.1666667},{"id":828172,"name":"pomasqui","country":"ec","lat":-0.05,"lon":-78.45},{"id":825439,"name":"hacienda napoles","country":"ec","lat":0.05,"lon":-78.1333333},{"id":824736,"name":"hacienda caspiguasi","country":"ec","lat":0.0166667,"lon":-78.4833333},{"id":827062,"name":"loma de oton","country":"ec","lat":-0.0166667,"lon":-78.2666667},{"id":824887,"name":"hacienda cuendina","country":"ec","lat":-0.3666667,"lon":-78.4666667},{"id":826105,"name":"huaraqui grande","country":"ec","lat":0.05,"lon":-78.25},{"id":830265,"name":"yanayacu","country":"ec","lat":0.3166667,"lon":-78.2333333},{"id":824169,"name":"esperanza","country":"ec","lat":-0.3,"lon":-78.4},{"id":828254,"name":"providencia","country":"ec","lat":-0.35,"lon":-78.45},{"id":825045,"name":"hacienda genova","country":"ec","lat":0.0833333,"lon":-78.1666667},{"id":824473,"name":"guapulo","country":"ec","lat":-0.2,"lon":-78.4833333},{"id":829169,"name":"san pablo","country":"ec","lat":0.2,"lon":-78.2},{"id":829677,"name":"tablon grande","country":"ec","lat":-0.3,"lon":-78.3},{"id":825401,"name":"hacienda milan","country":"ec","lat":0.1,"lon":-78.15},{"id":823159,"name":"chichipata","country":"ec","lat":-0.1833333,"lon":-78.3833333},{"id":824619,"name":"hacienda anagumba","country":"ec","lat":0.2,"lon":-78.4},{"id":822243,"name":"anaburo","country":"ec","lat":0.4333333,"lon":-78.2333333},{"id":825946,"name":"hacienda topo","country":"ec","lat":0.2166667,"lon":-78.15},{"id":825903,"name":"hacienda tajamar","country":"ec","lat":-0.0666667,"lon":-78.45},{"id":829899,"name":"tomalon grande","country":"ec","lat":0.0333333,"lon":-78.25},{"id":822402,"name":"azaya","country":"ec","lat":0.3666667,"lon":-78.1166667},{"id":823832,"name":"el chaco","country":"ec","lat":-0.3333333,"lon":-77.8166667},{"id":825407,"name":"hacienda miraflores","country":"ec","lat":-0.1666667,"lon":-78.45},{"id":825800,"name":"hacienda santa clara","country":"ec","lat":-0.3166667,"lon":-78.4333333},{"id":825698,"name":"hacienda san francisco","country":"ec","lat":0.3166667,"lon":-78.1333333},{"id":825994,"name":"hacienda verdecruz","country":"ec","lat":-0.2166667,"lon":-78.4833333},{"id":827270,"name":"mariana jesus","country":"ec","lat":-0.0833333,"lon":-78.4166667},{"id":825060,"name":"hacienda guadalupe","country":"ec","lat":-0.1333333,"lon":-78.3166667},{"id":827080,"name":"loreto","country":"ec","lat":-0.3833333,"lon":-78.4},{"id":828084,"name":"pinllocoto","country":"ec","lat":-0.3666667,"lon":-78.4166667},{"id":823402,"name":"collaqui","country":"ec","lat":-0.15,"lon":-78.4},{"id":824868,"name":"hacienda coyagal","country":"ec","lat":0.0666667,"lon":-78.3666667},{"id":825665,"name":"hacienda san agustin","country":"ec","lat":-0.0333333,"lon":-78.45},{"id":828539,"name":"quinchuqui","country":"ec","lat":0.2666667,"lon":-78.2333333},{"id":830258,"name":"yanahuaicu","country":"ec","lat":0.0833333,"lon":-78.1166667},{"id":824662,"name":"hacienda barrotieta","country":"ec","lat":-0.3,"lon":-78.3666667},{"id":827482,"name":"moreno","country":"ec","lat":-0.2833333,"lon":-78.4333333},{"id":829198,"name":"san rafael","country":"ec","lat":0.4166667,"lon":-77.9166667},{"id":828082,"name":"pingulmi","country":"ec","lat":0.0,"lon":-78.2166667},{"id":830319,"name":"yuracrucito","country":"ec","lat":0.35,"lon":-78.0833333},{"id":826654,"name":"la libertad","country":"ec","lat":-0.0666667,"lon":-78.15},{"id":824824,"name":"hacienda cobuendo","country":"ec","lat":0.3666667,"lon":-78.1666667},{"id":829038,"name":"san jose de minas","country":"ec","lat":0.1666667,"lon":-78.4166667},{"id":825803,"name":"hacienda santa gertrudis","country":"ec","lat":0.0666667,"lon":-78.2166667},{"id":823701,"name":"diaz de pineda","country":"ec","lat":-0.2833333,"lon":-77.7166667},{"id":827708,"name":"oton llano","country":"ec","lat":-0.0333333,"lon":-78.2666667},{"id":829704,"name":"talchigacho","country":"ec","lat":0.3,"lon":-78.2833333},{"id":823213,"name":"chinchin loma","country":"ec","lat":-0.05,"lon":-78.2833333},{"id":825155,"name":"hacienda iruminita","country":"ec","lat":0.4,"lon":-78.0166667},{"id":825756,"name":"hacienda san martin de loza","country":"ec","lat":0.2833333,"lon":-78.2833333},{"id":824638,"name":"hacienda atalpamba","country":"ec","lat":-0.0833333,"lon":-78.3166667},{"id":825837,"name":"hacienda santiago de monjas","country":"ec","lat":0.3833333,"lon":-78.1666667},{"id":824391,"name":"guaillabamba","country":"ec","lat":-0.0333333,"lon":-78.35},{"id":828449,"name":"punguhuaico","country":"ec","lat":0.2666667,"lon":-78.1333333},{"id":823659,"name":"cuyujua","country":"ec","lat":-0.4,"lon":-78.0},{"id":824722,"name":"hacienda carretas","country":"ec","lat":-0.1,"lon":-78.4666667},{"id":825501,"name":"hacienda patichubamba","country":"ec","lat":-0.4,"lon":-78.4},{"id":824027,"name":"el puente","country":"ec","lat":0.4,"lon":-78.15},{"id":825168,"name":"hacienda itulcachi","country":"ec","lat":-0.2833333,"lon":-78.3333333},{"id":829050,"name":"san jose grande","country":"ec","lat":0.0833333,"lon":-78.2},{"id":825009,"name":"hacienda el troje","country":"ec","lat":0.2833333,"lon":-78.1},{"id":825526,"name":"hacienda pinandro","country":"ec","lat":0.4,"lon":-77.9166667},{"id":822880,"name":"cariacu","country":"ec","lat":0.0833333,"lon":-78.1},{"id":829287,"name":"santa isabel","country":"ec","lat":0.4333333,"lon":-78.1666667},{"id":826198,"name":"ingenio","country":"ec","lat":-0.1666667,"lon":-78.3833333},{"id":827186,"name":"magota","country":"ec","lat":0.0833333,"lon":-78.4},{"id":829417,"name":"sarayo","country":"ec","lat":-0.0333333,"lon":-78.0166667},{"id":827440,"name":"monjas","country":"ec","lat":0.15,"lon":-78.3},{"id":825026,"name":"hacienda estela","country":"ec","lat":-0.3,"lon":-78.4666667},{"id":823918,"name":"el ingenio","country":"ec","lat":0.4833333,"lon":-78.2},{"id":824953,"name":"hacienda el hato","country":"ec","lat":0.0,"lon":-78.1166667},{"id":824623,"name":"hacienda angelina","country":"ec","lat":0.4666667,"lon":-77.9},{"id":827013,"name":"linares","country":"ec","lat":-0.35,"lon":-77.7833333},{"id":825326,"name":"hacienda leticia","country":"ec","lat":-0.3833333,"lon":-78.4666667},{"id":825841,"name":"hacienda santo domingo","country":"ec","lat":0.05,"lon":-78.2833333}]});