callback({"markets":[{"id":1640825,"name":"1-e maya","country":"kz","lat":49.483333,"lon":73.741667},{"id":1642694,"name":"belogrudovskiy","country":"kz","lat":49.05,"lon":74.216667},{"id":1642821,"name":"besoba","country":"kz","lat":49.345278,"lon":74.463333},{"id":1648837,"name":"may-usen\u0027","country":"kz","lat":48.966667,"lon":74.116667},{"id":1641671,"name":"aqsu-ayuly","country":"kz","lat":48.766389,"lon":73.672222},{"id":1649681,"name":"nura","country":"kz","lat":48.570278,"lon":73.983333},{"id":1647163,"name":"koshkarbay","country":"kz","lat":49.066667,"lon":73.583333},{"id":1643408,"name":"burbaza","country":"kz","lat":49.35,"lon":73.533333},{"id":1652704,"name":"taldy","country":"kz","lat":49.1025,"lon":73.750278},{"id":1642527,"name":"baynazar","country":"kz","lat":48.5,"lon":73.666667},{"id":1649682,"name":"nurataldy","country":"kz","lat":49.059444,"lon":73.55},{"id":1640950,"name":"akbaur","country":"kz","lat":49.046944,"lon":74.168056},{"id":1648757,"name":"mautan","country":"kz","lat":49.016667,"lon":74.25},{"id":1652538,"name":"suyksu","country":"kz","lat":49.498611,"lon":73.718056},{"id":1640946,"name":"akbastau","country":"kz","lat":49.414722,"lon":73.592778},{"id":1644899,"name":"imeni kalinina","country":"kz","lat":49.402778,"lon":73.533333}]});