callback({"markets":[{"id":1654099,"name":"ves-tyube","country":"kz","lat":48.2,"lon":60.05},{"id":1648176,"name":"kyzylzhuldyz","country":"kz","lat":47.666667,"lon":59.516667},{"id":1655355,"name":"zhiltyr","country":"kz","lat":47.816667,"lon":59.766667},{"id":1655347,"name":"zhilan","country":"kz","lat":47.65,"lon":60.283333},{"id":1641715,"name":"aralshiy","country":"kz","lat":47.8,"lon":59.766667},{"id":1652992,"name":"tekeli","country":"kz","lat":48.4,"lon":60.35},{"id":1646785,"name":"koktymakty","country":"kz","lat":47.75,"lon":60.266667},{"id":1642029,"name":"avrora","country":"kz","lat":47.766667,"lon":59.616667},{"id":1652692,"name":"taldyqum","country":"kz","lat":48.217222,"lon":59.765556},{"id":1651248,"name":"sarykamys","country":"kz","lat":47.7,"lon":59.6},{"id":1643600,"name":"chelkar","country":"kz","lat":47.833333,"lon":59.6},{"id":1647047,"name":"kop-mulla","country":"kz","lat":47.716667,"lon":59.916667}]});