callback({"markets":[{"id":381333,"name":"boso","country":"cg","lat":-3.7791667,"lon":13.9030556},{"id":386951,"name":"zabata","country":"cg","lat":-3.8072222,"lon":14.0997222},{"id":381117,"name":"bikouka","country":"cg","lat":-4.0727778,"lon":13.9588889},{"id":385106,"name":"mousiengo","country":"cg","lat":-3.7880556,"lon":14.3808333},{"id":370072,"name":"nyamba","country":"cd","lat":-4.366667,"lon":14.316667},{"id":3159603,"name":"kiluaka","country":"zr","lat":-4.4666667,"lon":14.0833333},{"id":384233,"name":"matouridi","country":"cg","lat":-3.7922222,"lon":14.4725},{"id":384672,"name":"missa","country":"cg","lat":-3.6,"lon":14.0905556},{"id":385494,"name":"ngouedi","country":"cg","lat":-4.3002778,"lon":13.7816667},{"id":386644,"name":"tembele","country":"cg","lat":-4.1536111,"lon":13.9494444},{"id":386441,"name":"sangamvila","country":"cg","lat":-3.6433333,"lon":14.3875},{"id":383122,"name":"kinnguembo","country":"cg","lat":-4.0630556,"lon":14.3341667},{"id":384622,"name":"mingali","country":"cg","lat":-3.7227778,"lon":14.1433333},{"id":386690,"name":"touala","country":"cg","lat":-4.1902778,"lon":14.1594444},{"id":383057,"name":"kingondala-tsanga","country":"cg","lat":-4.4758333,"lon":13.7063889},{"id":385399,"name":"nganda","country":"cg","lat":-4.0513889,"lon":13.755},{"id":384713,"name":"moanga mapita","country":"cg","lat":-3.7825,"lon":14.3413889},{"id":384603,"name":"milou","country":"cg","lat":-3.5066667,"lon":14.4019444},{"id":384466,"name":"mbouki","country":"cg","lat":-4.1408333,"lon":13.5286111},{"id":383101,"name":"kinkoumba-nkamba","country":"cg","lat":-4.3505556,"lon":13.8130556},{"id":386702,"name":"touo","country":"cg","lat":-3.8477778,"lon":14.3816667},{"id":384219,"name":"matiti","country":"cg","lat":-3.8827778,"lon":14.2102778},{"id":385459,"name":"ngomo","country":"cg","lat":-3.5091667,"lon":14.4411111},{"id":385710,"name":"nzala","country":"cg","lat":-4.3872222,"lon":14.1905556},{"id":384913,"name":"moubirie","country":"cg","lat":-4.3033333,"lon":14.1975},{"id":382920,"name":"kimbobe","country":"cg","lat":-4.3633333,"lon":13.9361111},{"id":3163206,"name":"mahana","country":"zr","lat":-4.4333333,"lon":14.0833333},{"id":384993,"name":"moukoulou","country":"cg","lat":-4.2186111,"lon":13.7616667},{"id":383693,"name":"louende","country":"cg","lat":-4.1886111,"lon":14.3372222},{"id":382886,"name":"kimanika","country":"cg","lat":-3.9886111,"lon":14.4144444},{"id":381119,"name":"bikoumbi","country":"cg","lat":-4.4305556,"lon":13.8258333},{"id":385069,"name":"mountenbesa","country":"cg","lat":-3.6863889,"lon":14.3869444},{"id":385413,"name":"ngantoko","country":"cg","lat":-3.825,"lon":14.4072222},{"id":384807,"name":"moloundou","country":"cg","lat":-3.9341667,"lon":13.5527778},{"id":384640,"name":"minnguele","country":"cg","lat":-4.1275,"lon":14.4063889},{"id":384066,"name":"mangola ii","country":"cg","lat":-4.3136111,"lon":14.1066667},{"id":382304,"name":"hikolo","country":"cg","lat":-4.0016667,"lon":13.9769444},{"id":383943,"name":"makoungou","country":"cg","lat":-3.8625,"lon":13.7344444},{"id":383055,"name":"kingonda","country":"cg","lat":-4.4769444,"lon":13.6508333},{"id":385431,"name":"ngenge","country":"cg","lat":-3.7655556,"lon":13.9255556},{"id":384006,"name":"mamouanda","country":"cg","lat":-4.3072222,"lon":13.9077778},{"id":382151,"name":"gakonde","country":"cg","lat":-3.7455556,"lon":13.6363889},{"id":385024,"name":"moumanga","country":"cg","lat":-4.2522222,"lon":14.2152778},{"id":382941,"name":"kimfikou","country":"cg","lat":-4.0127778,"lon":13.8777778},{"id":384260,"name":"mayanama","country":"cg","lat":-4.3316667,"lon":13.6180556},{"id":381512,"name":"boutsari","country":"cg","lat":-3.8530556,"lon":14.3752778},{"id":383058,"name":"kingonongo","country":"cg","lat":-3.5227778,"lon":14.4325},{"id":3164706,"name":"miyamba","country":"zr","lat":-4.3666667,"lon":14.3166667},{"id":386724,"name":"tsangou","country":"cg","lat":-4.0127778,"lon":13.9036111},{"id":386642,"name":"tebele","country":"cg","lat":-4.0852778,"lon":13.9322222},{"id":383340,"name":"koubemba","country":"cg","lat":-3.7822222,"lon":14.3841667},{"id":384741,"name":"mobiri","country":"cg","lat":-3.6980556,"lon":13.6316667},{"id":384068,"name":"mangola","country":"cg","lat":-4.2844444,"lon":14.14},{"id":367675,"name":"mualu","country":"cd","lat":-4.466667,"lon":13.75},{"id":384578,"name":"mikila","country":"cg","lat":-3.7108333,"lon":13.5611111},{"id":386319,"name":"paris","country":"cg","lat":-4.2633333,"lon":14.1688889},{"id":383899,"name":"makanda","country":"cg","lat":-3.7066667,"lon":13.5127778},{"id":383109,"name":"kinndamba","country":"cg","lat":-4.2016667,"lon":14.4611111},{"id":382870,"name":"kilemba","country":"cg","lat":-4.4125,"lon":13.8483333},{"id":385141,"name":"moutembesa","country":"cg","lat":-3.7688889,"lon":14.1236111},{"id":362413,"name":"kinseki","country":"cd","lat":-4.35,"lon":14.35},{"id":383245,"name":"kitouwo","country":"cg","lat":-3.5602778,"lon":14.0913889},{"id":386301,"name":"pandi","country":"cg","lat":-3.8430556,"lon":14.1036111},{"id":383032,"name":"kingambo","country":"cg","lat":-4.2747222,"lon":14.1519444},{"id":384702,"name":"miyaya ii","country":"cg","lat":-4.2269444,"lon":14.2522222},{"id":381459,"name":"boumbou ii","country":"cg","lat":-4.1658333,"lon":13.96},{"id":383033,"name":"kinganboma","country":"cg","lat":-3.8638889,"lon":14.4241667},{"id":382939,"name":"kimdambou-kaye","country":"cg","lat":-4.2177778,"lon":13.6672222},{"id":383362,"name":"kouka loko","country":"cg","lat":-3.8019444,"lon":14.4755556},{"id":382954,"name":"kimpala","country":"cg","lat":-4.2558333,"lon":14.4122222},{"id":385404,"name":"ngandoulou","country":"cg","lat":-3.9788889,"lon":14.3586111},{"id":384670,"name":"missafou","country":"cg","lat":-4.275,"lon":14.4883333},{"id":382978,"name":"kimpombo","country":"cg","lat":-4.1841667,"lon":13.8236111},{"id":383097,"name":"kinkolesa","country":"cg","lat":-3.6230556,"lon":14.3852778},{"id":383094,"name":"kinkembo","country":"cg","lat":-4.2322222,"lon":14.2022222},{"id":386198,"name":"oualala","country":"cg","lat":-4.3202778,"lon":14.4511111},{"id":382960,"name":"kimpandzou","country":"cg","lat":-4.1322222,"lon":14.3008333},{"id":382911,"name":"kimbenza-panzou","country":"cg","lat":-4.3930556,"lon":13.7563889},{"id":385093,"name":"mousanga-mayaka","country":"cg","lat":-4.2222222,"lon":13.9536111},{"id":385167,"name":"moutouasala","country":"cg","lat":-3.6727778,"lon":14.4147222},{"id":386736,"name":"tsiaki ii","country":"cg","lat":-3.6580556,"lon":13.8025},{"id":384587,"name":"mikoua","country":"cg","lat":-3.6372222,"lon":14.4347222},{"id":380869,"name":"babela","country":"cg","lat":-3.6391667,"lon":14.485},{"id":385137,"name":"moutele","country":"cg","lat":-4.0613889,"lon":14.0830556},{"id":382222,"name":"giri","country":"cg","lat":-3.9125,"lon":13.9575},{"id":385294,"name":"mvouta","country":"cg","lat":-3.7041667,"lon":14.1658333},{"id":384277,"name":"mayombo","country":"cg","lat":-3.9733333,"lon":13.7652778},{"id":382300,"name":"hapilo","country":"cg","lat":-4.3719444,"lon":13.7786111},{"id":384568,"name":"miguengue","country":"cg","lat":-4.2519444,"lon":14.1405556},{"id":380982,"name":"bansilisi","country":"cg","lat":-3.8877778,"lon":14.2347222},{"id":383035,"name":"kinganga","country":"cg","lat":-4.4477778,"lon":13.8513889},{"id":382879,"name":"kiloungou","country":"cg","lat":-3.9480556,"lon":13.7280556},{"id":381088,"name":"bibondo","country":"cg","lat":-4.3055556,"lon":13.7888889},{"id":382813,"name":"kiboungou","country":"cg","lat":-4.2180556,"lon":13.6275},{"id":382855,"name":"kikompa i","country":"cg","lat":-4.255,"lon":14.3144444},{"id":381644,"name":"dingi","country":"cg","lat":-4.1527778,"lon":13.8538889},{"id":384022,"name":"manda","country":"cg","lat":-4.1352778,"lon":14.0163889},{"id":382995,"name":"kinanga","country":"cg","lat":-4.3880556,"lon":13.7272222},{"id":382645,"name":"kanana","country":"cg","lat":-4.4686111,"lon":13.8605556},{"id":384982,"name":"moukoso","country":"cg","lat":-4.1305556,"lon":13.8575},{"id":382977,"name":"kimpolo","country":"cg","lat":-3.6658333,"lon":14.2169444},{"id":384107,"name":"mantari","country":"cg","lat":-4.2377778,"lon":14.2411111},{"id":386567,"name":"tanga","country":"cg","lat":-4.3458333,"lon":13.6463889},{"id":382857,"name":"kikondo","country":"cg","lat":-4.1266667,"lon":13.6280556},{"id":382925,"name":"kimboto","country":"cg","lat":-3.6261111,"lon":13.9780556},{"id":385449,"name":"ngole","country":"cg","lat":-3.7316667,"lon":14.0361111},{"id":384960,"name":"moukanda","country":"cg","lat":-4.3080556,"lon":13.8755556},{"id":3152397,"name":"boma","country":"zr","lat":-4.4833333,"lon":14.05},{"id":384274,"name":"mayoko","country":"cg","lat":-4.1083333,"lon":14.315},{"id":386197,"name":"ouaka","country":"cg","lat":-3.7436111,"lon":13.5905556},{"id":385646,"name":"nsanga","country":"cg","lat":-4.2338889,"lon":13.6263889},{"id":383680,"name":"loubota","country":"cg","lat":-4.0225,"lon":14.3502778},{"id":387006,"name":"zou","country":"cg","lat":-3.7836111,"lon":14.4352778},{"id":383120,"name":"kinngouanga","country":"cg","lat":-4.3722222,"lon":14.0036111},{"id":382681,"name":"kaounga","country":"cg","lat":-3.6438889,"lon":13.7608333},{"id":384269,"name":"mayeye","country":"cg","lat":-3.6816667,"lon":13.6383333},{"id":385274,"name":"mpouomo","country":"cg","lat":-3.5525,"lon":14.4302778},{"id":384619,"name":"mindou","country":"cg","lat":-4.3197222,"lon":13.985},{"id":385010,"name":"mouleke","country":"cg","lat":-3.9252778,"lon":13.9555556},{"id":382782,"name":"kibamba","country":"cg","lat":-3.8183333,"lon":14.0644444},{"id":362298,"name":"kingoye","country":"cd","lat":-4.466667,"lon":13.833333},{"id":385252,"name":"mpini","country":"cg","lat":-3.7483333,"lon":14.1377778},{"id":384701,"name":"miyamba","country":"cg","lat":-4.0488889,"lon":14.0766667},{"id":382640,"name":"kambo","country":"cg","lat":-3.8880556,"lon":14.1225},{"id":384679,"name":"missenga","country":"cg","lat":-4.0327778,"lon":14.4947222},{"id":386385,"name":"poukoulou","country":"cg","lat":-4.0011111,"lon":14.4427778},{"id":384691,"name":"mitoto","country":"cg","lat":-4.0533333,"lon":13.9411111},{"id":381456,"name":"boumbi","country":"cg","lat":-4.0833333,"lon":14.0166667},{"id":385108,"name":"mousinga","country":"cg","lat":-3.7908333,"lon":14.4066667},{"id":383823,"name":"madingo","country":"cg","lat":-4.1536111,"lon":13.55},{"id":386653,"name":"tiboungama","country":"cg","lat":-4.2741667,"lon":14.4880556},{"id":383073,"name":"kingoye-loukala","country":"cg","lat":-4.4480556,"lon":13.7286111},{"id":383002,"name":"kindamba i","country":"cg","lat":-4.1227778,"lon":14.0566667},{"id":361866,"name":"kiluaka","country":"cd","lat":-4.466667,"lon":14.083333},{"id":386799,"name":"vinnza","country":"cg","lat":-4.1197222,"lon":14.4563889},{"id":381326,"name":"bordo","country":"cg","lat":-4.4119444,"lon":14.4866667},{"id":383145,"name":"kinnzamba","country":"cg","lat":-4.1052778,"lon":14.3866667},{"id":382825,"name":"kiele","country":"cg","lat":-4.0558333,"lon":13.7186111},{"id":382369,"name":"ikaya","country":"cg","lat":-3.7,"lon":13.5666667},{"id":383752,"name":"louo","country":"cg","lat":-3.6616667,"lon":14.3391667},{"id":3165412,"name":"mualu","country":"zr","lat":-4.4666667,"lon":13.75},{"id":383634,"name":"loengo","country":"cg","lat":-4.3655556,"lon":14.4883333},{"id":384345,"name":"mbanza","country":"cg","lat":-4.3688889,"lon":13.8766667},{"id":385397,"name":"nganba","country":"cg","lat":-3.8144444,"lon":14.4075},{"id":3162053,"name":"londe-nzadi","country":"zr","lat":-4.45,"lon":14.45},{"id":382916,"name":"kimbimi","country":"cg","lat":-4.2016667,"lon":14.0891667},{"id":384543,"name":"miboti","country":"cg","lat":-4.205,"lon":14.4597222},{"id":383224,"name":"kissanga","country":"cg","lat":-4.3180556,"lon":14.4733333},{"id":385586,"name":"nkila-ntari","country":"cg","lat":-4.1202778,"lon":13.8527778},{"id":381118,"name":"bikoulou","country":"cg","lat":-4.1625,"lon":14.3216667},{"id":385232,"name":"mpasa","country":"cg","lat":-4.1155556,"lon":13.5361111},{"id":386704,"name":"traversbanc","country":"cg","lat":-4.2794444,"lon":14.3491667},{"id":383092,"name":"kinkanda","country":"cg","lat":-4.2858333,"lon":14.2072222},{"id":382910,"name":"kimbenza-ndiba","country":"cg","lat":-4.2630556,"lon":13.7894444},{"id":384084,"name":"maniangou","country":"cg","lat":-4.1080556,"lon":14.1033333},{"id":383105,"name":"kinkousou","country":"cg","lat":-4.0955556,"lon":14.4625},{"id":385105,"name":"mousia","country":"cg","lat":-3.8661111,"lon":14.3619444},{"id":384663,"name":"misasa","country":"cg","lat":-4.4566667,"lon":13.6677778},{"id":362245,"name":"kinganga","country":"cd","lat":-4.483333,"lon":14.1},{"id":382915,"name":"kimbimi","country":"cg","lat":-3.6338889,"lon":13.9647222},{"id":382909,"name":"kimbenza-mouniere","country":"cg","lat":-4.3344444,"lon":13.7222222},{"id":385098,"name":"mousasi","country":"cg","lat":-4.2591667,"lon":13.8319444},{"id":383171,"name":"kintamba","country":"cg","lat":-4.1777778,"lon":13.5658333},{"id":385142,"name":"moutembese","country":"cg","lat":-4.0922222,"lon":13.9694444},{"id":385580,"name":"nkenge-mandou","country":"cg","lat":-4.3333333,"lon":13.6411111},{"id":386701,"name":"toundou","country":"cg","lat":-4.2477778,"lon":14.2186111},{"id":382876,"name":"kiloubi","country":"cg","lat":-4.3936111,"lon":14.4813889},{"id":385236,"name":"mpassa","country":"cg","lat":-4.3091667,"lon":14.0994444},{"id":383716,"name":"loukessi","country":"cg","lat":-4.2347222,"lon":14.2383333},{"id":382861,"name":"kikouangou","country":"cg","lat":-4.0744444,"lon":14.3347222},{"id":380932,"name":"banbami","country":"cg","lat":-3.8977778,"lon":14.245},{"id":385734,"name":"nzombo","country":"cg","lat":-4.3075,"lon":13.8525},{"id":384207,"name":"matela","country":"cg","lat":-4.2663889,"lon":14.4205556},{"id":383148,"name":"kinnzoumba","country":"cg","lat":-4.0377778,"lon":14.0525},{"id":383886,"name":"makaka","country":"cg","lat":-3.7644444,"lon":13.6513889},{"id":380862,"name":"aubeville","country":"cg","lat":-4.265,"lon":13.5452778},{"id":382976,"name":"kimpolo i","country":"cg","lat":-3.5975,"lon":14.0902778},{"id":383703,"name":"louila","country":"cg","lat":-4.0941667,"lon":14.2380556},{"id":381113,"name":"bikoka","country":"cg","lat":-4.3858333,"lon":13.9402778},{"id":385256,"name":"mpita","country":"cg","lat":-4.3047222,"lon":13.9502778},{"id":382874,"name":"kilonga","country":"cg","lat":-3.7638889,"lon":13.7461111},{"id":384256,"name":"mayama","country":"cg","lat":-3.6930556,"lon":14.19},{"id":385081,"name":"moupou","country":"cg","lat":-4.0505556,"lon":14.3136111},{"id":381046,"name":"belo","country":"cg","lat":-3.9058333,"lon":13.8997222},{"id":383319,"name":"koso","country":"cg","lat":-3.9230556,"lon":13.9088889},{"id":383102,"name":"kinkoumba-tanga","country":"cg","lat":-4.2688889,"lon":13.8438889},{"id":383164,"name":"kinsoumi","country":"cg","lat":-4.0744444,"lon":14.3719444},{"id":381368,"name":"bouaboua","country":"cg","lat":-4.2502778,"lon":14.1069444},{"id":381011,"name":"basongila","country":"cg","lat":-3.5791667,"lon":14.3838889},{"id":383149,"name":"kinnzoumi","country":"cg","lat":-4.0366667,"lon":14.3219444},{"id":386307,"name":"panga","country":"cg","lat":-3.9455556,"lon":13.9594444},{"id":385197,"name":"mouyondzi","country":"cg","lat":-3.9905556,"lon":13.9144444},{"id":385001,"name":"moukousouna","country":"cg","lat":-3.9477778,"lon":14.3702778},{"id":383924,"name":"makondo-mabenge","country":"cg","lat":-4.17,"lon":13.7180556},{"id":3154262,"name":"doba","country":"zr","lat":-4.4166667,"lon":14.2666667},{"id":382846,"name":"kikaya ii","country":"cg","lat":-3.8022222,"lon":13.6858333},{"id":382903,"name":"kimbedi","country":"cg","lat":-4.2944444,"lon":13.9672222},{"id":383902,"name":"makansala","country":"cg","lat":-4.2186111,"lon":14.3775},{"id":380999,"name":"banziele","country":"cg","lat":-3.7958333,"lon":14.1008333},{"id":386837,"name":"wala","country":"cg","lat":-3.7847222,"lon":14.1116667},{"id":386299,"name":"pandil","country":"cg","lat":-4.0063889,"lon":13.9811111},{"id":384307,"name":"mbama diari","country":"cg","lat":-3.8605556,"lon":14.3655556},{"id":383173,"name":"kintangoma","country":"cg","lat":-3.7888889,"lon":14.4111111},{"id":381755,"name":"doungou i","country":"cg","lat":-4.1455556,"lon":14.1075},{"id":383669,"name":"louanga","country":"cg","lat":-4.3983333,"lon":13.945},{"id":385584,"name":"nkieni","country":"cg","lat":-4.2144444,"lon":13.5594444},{"id":382797,"name":"kibiti","country":"cg","lat":-3.8352778,"lon":14.0622222},{"id":383928,"name":"makoto ii","country":"cg","lat":-3.6625,"lon":13.5533333},{"id":384630,"name":"mingenge","country":"cg","lat":-4.0852778,"lon":13.9761111},{"id":384714,"name":"moanga moungoro","country":"cg","lat":-3.7830556,"lon":14.4516667},{"id":383153,"name":"kinsaba","country":"cg","lat":-4.2838889,"lon":13.8561111},{"id":384602,"name":"milombo","country":"cg","lat":-4.0419444,"lon":14.3108333},{"id":383182,"name":"kintsaka","country":"cg","lat":-3.8591667,"lon":14.3722222},{"id":383078,"name":"kiniadi","country":"cg","lat":-4.1675,"lon":13.5327778},{"id":385340,"name":"ndoba","country":"cg","lat":-3.7019444,"lon":14.4658333},{"id":383086,"name":"kinkakasa","country":"cg","lat":-3.6908333,"lon":14.3463889},{"id":3163969,"name":"masondama","country":"zr","lat":-4.4166667,"lon":14.4166667},{"id":384697,"name":"mitoya","country":"cg","lat":-4.3097222,"lon":14.2827778},{"id":383185,"name":"kintsimba","country":"cg","lat":-4.295,"lon":13.5755556},{"id":386525,"name":"soukou-madingou","country":"cg","lat":-4.1391667,"lon":13.5552778},{"id":384428,"name":"mboma","country":"cg","lat":-4.2633333,"lon":13.6516667},{"id":3153945,"name":"dianga","country":"zr","lat":-4.4,"lon":14.2},{"id":385162,"name":"moutombo","country":"cg","lat":-3.9111111,"lon":13.5533333},{"id":382859,"name":"kikotokoto","country":"cg","lat":-4.1894444,"lon":14.365},{"id":383724,"name":"loukoulou","country":"cg","lat":-3.5833333,"lon":14.4333333},{"id":384737,"name":"mobili","country":"cg","lat":-3.8080556,"lon":14.0425},{"id":383045,"name":"kingola","country":"cg","lat":-3.8275,"lon":13.7183333},{"id":382535,"name":"insouni","country":"cg","lat":-3.5925,"lon":14.4530556},{"id":381774,"name":"dzassi","country":"cg","lat":-4.0775,"lon":13.6738889},{"id":385513,"name":"ngoumbou","country":"cg","lat":-4.1763889,"lon":14.3719444},{"id":386737,"name":"tsiaki","country":"cg","lat":-3.6769444,"lon":13.8211111},{"id":383062,"name":"kingouala-mbouese","country":"cg","lat":-4.3480556,"lon":13.7983333},{"id":383891,"name":"maka","country":"cg","lat":-3.5019444,"lon":14.1291667},{"id":385465,"name":"ngonda","country":"cg","lat":-3.7947222,"lon":14.415},{"id":382963,"name":"kimpanzou","country":"cg","lat":-4.1941667,"lon":13.785},{"id":384581,"name":"mikokoto","country":"cg","lat":-3.9358333,"lon":14.1447222},{"id":381795,"name":"dzokotro","country":"cg","lat":-3.5083333,"lon":14.0616667},{"id":382181,"name":"ganda","country":"cg","lat":-4.4044444,"lon":14.0580556},{"id":368653,"name":"mutanga","country":"cd","lat":-4.433333,"lon":14.233333},{"id":381110,"name":"bikata","country":"cg","lat":-4.2863889,"lon":14.1386111},{"id":385395,"name":"nganbaka","country":"cg","lat":-3.6905556,"lon":14.3636111},{"id":385241,"name":"mpembe","country":"cg","lat":-4.1111111,"lon":13.9775},{"id":384285,"name":"mayoulou","country":"cg","lat":-3.7397222,"lon":13.8225},{"id":384628,"name":"mingele","country":"cg","lat":-3.7372222,"lon":13.6269444},{"id":383056,"name":"kingondala","country":"cg","lat":-4.4594444,"lon":13.6430556},{"id":383026,"name":"kinfikou","country":"cg","lat":-3.9038889,"lon":13.6263889},{"id":382965,"name":"kimpele","country":"cg","lat":-3.9211111,"lon":13.9558333},{"id":383268,"name":"kiynda","country":"cg","lat":-3.7566667,"lon":14.4619444},{"id":3160036,"name":"kingoy","country":"zr","lat":-4.4666667,"lon":13.8333333},{"id":384105,"name":"mansoumba","country":"cg","lat":-4.1830556,"lon":13.735},{"id":383180,"name":"kintoumba","country":"cg","lat":-4.0919444,"lon":14.2408333},{"id":386426,"name":"sakala","country":"cg","lat":-4.3613889,"lon":13.9919444},{"id":383910,"name":"makela","country":"cg","lat":-3.7616667,"lon":14.45},{"id":3172354,"name":"yokolo","country":"zr","lat":-4.3,"lon":14.3833333},{"id":382639,"name":"kamba-ntete","country":"cg","lat":-4.3238889,"lon":13.7302778},{"id":382823,"name":"kidzoumba","country":"cg","lat":-3.7847222,"lon":13.8736111},{"id":383255,"name":"kitzoa","country":"cg","lat":-3.7455556,"lon":14.0433333},{"id":385242,"name":"mpemo","country":"cg","lat":-3.7525,"lon":14.4816667},{"id":383161,"name":"kinsimba","country":"cg","lat":-4.3844444,"lon":13.7369444},{"id":384487,"name":"mbounou","country":"cg","lat":-3.8888889,"lon":13.7758333},{"id":381397,"name":"boudzoumou","country":"cg","lat":-3.8466667,"lon":14.4238889},{"id":380619,"name":"abankima","country":"cg","lat":-4.1933333,"lon":14.4838889},{"id":384491,"name":"mboutoutou","country":"cg","lat":-3.5636111,"lon":14.3863889},{"id":386458,"name":"seke-pembe","country":"cg","lat":-4.0061111,"lon":13.6305556},{"id":384181,"name":"massia","country":"cg","lat":-3.6411111,"lon":13.8927778},{"id":383194,"name":"kinzieri","country":"cg","lat":-3.7555556,"lon":14.1344444},{"id":386397,"name":"poumou","country":"cg","lat":-4.1511111,"lon":14.0594444},{"id":384959,"name":"moukambou","country":"cg","lat":-4.3263889,"lon":13.7769444},{"id":383179,"name":"kintouari","country":"cg","lat":-3.8591667,"lon":14.1727778},{"id":382829,"name":"kifoulou","country":"cg","lat":-3.6355556,"lon":13.8133333},{"id":386367,"name":"pono","country":"cg","lat":-3.6361111,"lon":13.7336111},{"id":386740,"name":"tsiangi i","country":"cg","lat":-3.7116667,"lon":13.8616667},{"id":383491,"name":"leka","country":"cg","lat":-3.6575,"lon":14.3347222},{"id":383099,"name":"kinkoula","country":"cg","lat":-3.9338889,"lon":14.1283333},{"id":384720,"name":"moazenge","country":"cg","lat":-3.9058333,"lon":14.2875},{"id":383803,"name":"mabombo iv","country":"cg","lat":-3.9761111,"lon":13.5769444},{"id":380981,"name":"banpakasa","country":"cg","lat":-3.9527778,"lon":14.4605556},{"id":380927,"name":"bambouyi","country":"cg","lat":-3.9052778,"lon":13.6416667},{"id":381773,"name":"dzanza","country":"cg","lat":-3.8888889,"lon":14.3158333},{"id":383969,"name":"malima","country":"cg","lat":-3.6877778,"lon":14.1991667},{"id":381378,"name":"bouanza","country":"cg","lat":-3.9511111,"lon":13.5438889},{"id":386706,"name":"tsabouka","country":"cg","lat":-4.2608333,"lon":14.4280556},{"id":365469,"name":"mahana","country":"cd","lat":-4.433333,"lon":14.083333},{"id":384036,"name":"mandou","country":"cg","lat":-4.0375,"lon":13.6372222},{"id":383064,"name":"kingouala-nsouadi","country":"cg","lat":-4.2666667,"lon":13.8355556},{"id":362233,"name":"kinga","country":"cd","lat":-4.316667,"lon":14.316667},{"id":381155,"name":"bisai","country":"cg","lat":-4.3727778,"lon":13.9361111},{"id":385648,"name":"nsiaki","country":"cg","lat":-3.6919444,"lon":14.1775},{"id":383100,"name":"kinkoumba","country":"cg","lat":-4.3658333,"lon":13.7352778},{"id":382980,"name":"kimpongi","country":"cg","lat":-4.0113889,"lon":13.9813889},{"id":383080,"name":"kiniangi","country":"cg","lat":-3.845,"lon":13.7261111},{"id":383059,"name":"kingouala","country":"cg","lat":-3.915,"lon":13.8047222},{"id":385570,"name":"nka","country":"cg","lat":-3.7069444,"lon":14.0363889},{"id":382927,"name":"kimboua","country":"cg","lat":-3.8422222,"lon":14.3813889},{"id":384932,"name":"moudzanga i","country":"cg","lat":-4.1002778,"lon":13.8775},{"id":382999,"name":"kinbanba","country":"cg","lat":-3.6575,"lon":14.2963889},{"id":382843,"name":"kikanda","country":"cg","lat":-4.2675,"lon":14.1833333},{"id":385091,"name":"mousanda","country":"cg","lat":-3.9141667,"lon":13.7469444},{"id":383945,"name":"makouti","country":"cg","lat":-4.2861111,"lon":14.3375},{"id":382134,"name":"foundou-foundou","country":"cg","lat":-4.135,"lon":14.3708333},{"id":385610,"name":"nkoto","country":"cg","lat":-3.9730556,"lon":14.2408333},{"id":384690,"name":"mitolo","country":"cg","lat":-3.8,"lon":14.45},{"id":386464,"name":"sengo","country":"cg","lat":-4.0630556,"lon":14.3541667},{"id":384545,"name":"mibouba","country":"cg","lat":-4.3338889,"lon":14.4788889},{"id":385666,"name":"ntembo","country":"cg","lat":-4.3880556,"lon":14.0975},{"id":383163,"name":"kinsouari","country":"cg","lat":-3.9544444,"lon":14.0388889},{"id":381802,"name":"dzoumbou","country":"cg","lat":-3.8911111,"lon":14.3683333},{"id":372157,"name":"sundi-kinganga","country":"cd","lat":-4.483333,"lon":14.133333},{"id":386434,"name":"sala","country":"cg","lat":-4.3816667,"lon":13.9983333},{"id":385522,"name":"ngoungou","country":"cg","lat":-3.6863889,"lon":14.45},{"id":381253,"name":"boko songo","country":"cg","lat":-4.4372222,"lon":13.6211111},{"id":385166,"name":"moutoua","country":"cg","lat":-3.6238889,"lon":14.4280556},{"id":382894,"name":"kimbana","country":"cg","lat":-3.8380556,"lon":13.7216667},{"id":384255,"name":"mayala","country":"cg","lat":-3.7711111,"lon":14.3575},{"id":385230,"name":"mpanga","country":"cg","lat":-4.3494444,"lon":13.8736111},{"id":385234,"name":"mpasa","country":"cg","lat":-3.8547222,"lon":14.4427778},{"id":383312,"name":"kongozoba","country":"cg","lat":-4.4388889,"lon":13.6244444},{"id":385551,"name":"niari","country":"cg","lat":-4.1572222,"lon":14.1530556},{"id":386942,"name":"youlou mokila","country":"cg","lat":-4.2716667,"lon":14.3291667},{"id":384213,"name":"matensama","country":"cg","lat":-3.755,"lon":14.3508333},{"id":384931,"name":"moudzanga ii","country":"cg","lat":-3.9594444,"lon":13.7813889},{"id":383309,"name":"kongo","country":"cg","lat":-4.4927778,"lon":14.47},{"id":382987,"name":"kimvembe","country":"cg","lat":-4.0491667,"lon":13.6961111},{"id":384914,"name":"moubiri","country":"cg","lat":-3.8727778,"lon":13.7497222},{"id":384160,"name":"masia","country":"cg","lat":-3.5072222,"lon":14.1175},{"id":385327,"name":"ndandou","country":"cg","lat":-3.9075,"lon":14.4738889},{"id":384100,"name":"manpimpa","country":"cg","lat":-3.9516667,"lon":14.405},{"id":381520,"name":"bouyanou","country":"cg","lat":-3.8222222,"lon":14.4113889},{"id":383143,"name":"kinntouari","country":"cg","lat":-4.0225,"lon":14.0161111},{"id":383238,"name":"kitiomo","country":"cg","lat":-3.8166667,"lon":14.0791667},{"id":382811,"name":"kibounda","country":"cg","lat":-4.0466667,"lon":13.7872222},{"id":380924,"name":"bambembe","country":"cg","lat":-4.1030556,"lon":13.98},{"id":383929,"name":"makoto","country":"cg","lat":-3.7066667,"lon":13.6402778},{"id":383243,"name":"kitoundou","country":"cg","lat":-4.305,"lon":13.9552778},{"id":383770,"name":"louzouri","country":"cg","lat":-3.755,"lon":14.3805556},{"id":3166187,"name":"musanda","country":"zr","lat":-4.3833333,"lon":14.3666667},{"id":386300,"name":"pandi mamba","country":"cg","lat":-4.0252778,"lon":14.0063889},{"id":385539,"name":"nguiri","country":"cg","lat":-4.0,"lon":13.7694444},{"id":384152,"name":"masangi","country":"cg","lat":-4.1805556,"lon":14.0113889},{"id":382850,"name":"kikiemou","country":"cg","lat":-4.1063889,"lon":13.5247222},{"id":3169894,"name":"sundi-kinganga","country":"zr","lat":-4.4833333,"lon":14.1333333},{"id":385079,"name":"moupepe","country":"cg","lat":-4.2380556,"lon":13.8305556},{"id":383000,"name":"kindala","country":"cg","lat":-4.3655556,"lon":13.7825},{"id":384063,"name":"mangantza","country":"cg","lat":-3.9683333,"lon":14.0491667},{"id":385728,"name":"nzende","country":"cg","lat":-3.5752778,"lon":14.4002778},{"id":385632,"name":"nkoyi","country":"cg","lat":-4.175,"lon":13.6344444},{"id":383330,"name":"kouaka","country":"cg","lat":-4.2291667,"lon":14.2925},{"id":382908,"name":"kimbenza","country":"cg","lat":-4.4219444,"lon":13.8902778},{"id":380978,"name":"banianda","country":"cg","lat":-4.0822222,"lon":14.4152778},{"id":383162,"name":"kinsoko","country":"cg","lat":-3.8683333,"lon":13.9761111},{"id":386865,"name":"yamba","country":"cg","lat":-4.1513889,"lon":13.9686111},{"id":385598,"name":"nkombo","country":"cg","lat":-3.7841667,"lon":14.4211111},{"id":385589,"name":"nkodia","country":"cg","lat":-3.7702778,"lon":14.4497222},{"id":384658,"name":"misanda","country":"cg","lat":-4.0980556,"lon":14.4405556},{"id":384080,"name":"manguili","country":"cg","lat":-3.5986111,"lon":14.4163889},{"id":3160138,"name":"kinsa","country":"zr","lat":-4.3166667,"lon":14.3166667},{"id":382993,"name":"kinanga-boutandou","country":"cg","lat":-4.4505556,"lon":13.6777778},{"id":383854,"name":"magambomana","country":"cg","lat":-3.9005556,"lon":13.5694444},{"id":386643,"name":"telemono","country":"cg","lat":-4.1752778,"lon":14.3544444},{"id":385015,"name":"mouliene","country":"cg","lat":-3.7519444,"lon":13.9480556},{"id":383286,"name":"kolo","country":"cg","lat":-3.9558333,"lon":13.9644444},{"id":386760,"name":"tsomono i","country":"cg","lat":-3.62,"lon":13.8377778},{"id":3167859,"name":"nzala","country":"zr","lat":-4.4,"lon":14.1833333},{"id":385157,"name":"moutimoulou","country":"cg","lat":-4.235,"lon":14.3744444},{"id":382996,"name":"kinanga-londe","country":"cg","lat":-4.4636111,"lon":13.7230556},{"id":385008,"name":"moulandou","country":"cg","lat":-4.3622222,"lon":14.0063889},{"id":384560,"name":"mienge-mienge","country":"cg","lat":-4.225,"lon":13.7541667},{"id":386773,"name":"tsoumbou","country":"cg","lat":-3.9916667,"lon":14.0166667},{"id":382173,"name":"gamobale","country":"cg","lat":-3.6730556,"lon":14.2022222},{"id":385662,"name":"ntari","country":"cg","lat":-4.0386111,"lon":14.3875},{"id":374737,"name":"zala","country":"cd","lat":-4.4,"lon":14.183333},{"id":385448,"name":"ngola","country":"cg","lat":-4.315,"lon":13.9516667},{"id":384617,"name":"mindouli","country":"cg","lat":-4.2683333,"lon":14.3838889},{"id":384048,"name":"manfoutou","country":"cg","lat":-4.3825,"lon":14.0038889},{"id":383165,"name":"kinsoundi","country":"cg","lat":-4.4175,"lon":13.7752778},{"id":383644,"name":"lombolo","country":"cg","lat":-4.3102778,"lon":14.0777778},{"id":383214,"name":"kisende","country":"cg","lat":-4.1763889,"lon":13.5086111},{"id":385261,"name":"mpono i","country":"cg","lat":-3.8338889,"lon":13.7163889},{"id":383154,"name":"kinsaka","country":"cg","lat":-4.3241667,"lon":13.6086111},{"id":383025,"name":"kindzaka","country":"cg","lat":-4.1769444,"lon":13.8527778},{"id":384704,"name":"mkasou","country":"cg","lat":-4.3197222,"lon":13.9577778},{"id":384976,"name":"moukomo","country":"cg","lat":-3.6577778,"lon":14.2533333},{"id":384166,"name":"masoumou","country":"cg","lat":-3.8025,"lon":14.4722222},{"id":382744,"name":"kenge","country":"cg","lat":-4.0011111,"lon":13.8516667},{"id":383040,"name":"kingila","country":"cg","lat":-4.2977778,"lon":14.4747222},{"id":386620,"name":"tchipouka","country":"cg","lat":-4.2213889,"lon":14.4725},{"id":380971,"name":"bangou","country":"cg","lat":-3.9413889,"lon":14.4094444},{"id":385588,"name":"nkode","country":"cg","lat":-3.6544444,"lon":14.2652778},{"id":381756,"name":"doungou ii","country":"cg","lat":-4.135,"lon":14.0855556},{"id":382801,"name":"kibouari","country":"cg","lat":-4.1408333,"lon":14.0708333},{"id":384216,"name":"matiba","country":"cg","lat":-3.6613889,"lon":14.2872222},{"id":386352,"name":"pingouama","country":"cg","lat":-3.9697222,"lon":13.5277778},{"id":381161,"name":"bisinza","country":"cg","lat":-4.4136111,"lon":13.8875},{"id":383761,"name":"loutete","country":"cg","lat":-4.2961111,"lon":13.8508333},{"id":368450,"name":"musanda","country":"cd","lat":-4.383333,"lon":14.366667},{"id":383646,"name":"londa-mataba","country":"cg","lat":-4.4205556,"lon":13.8416667},{"id":382931,"name":"kimboukou","country":"cg","lat":-4.0025,"lon":13.7055556},{"id":385653,"name":"nsounson","country":"cg","lat":-3.8108333,"lon":14.4455556},{"id":383130,"name":"kinnkoumba","country":"cg","lat":-4.2866667,"lon":14.1391667},{"id":384195,"name":"matakani","country":"cg","lat":-4.3344444,"lon":14.2455556},{"id":384703,"name":"miyaya i","country":"cg","lat":-4.2261111,"lon":14.2769444},{"id":381458,"name":"boumbou i","country":"cg","lat":-4.1727778,"lon":13.9705556},{"id":384151,"name":"masanba moutelele","country":"cg","lat":-3.8205556,"lon":14.4425},{"id":380918,"name":"bamba","country":"cg","lat":-4.2222222,"lon":14.1997222},{"id":383747,"name":"loundou","country":"cg","lat":-3.6755556,"lon":13.5452778},{"id":383119,"name":"kinngouala","country":"cg","lat":-4.1186111,"lon":14.3505556},{"id":383071,"name":"kingoye","country":"cg","lat":-3.9333333,"lon":13.8038889},{"id":386937,"name":"youlou bienge","country":"cg","lat":-4.2472222,"lon":14.3425},{"id":382809,"name":"kibouilou","country":"cg","lat":-4.205,"lon":14.3141667},{"id":386543,"name":"taba","country":"cg","lat":-4.1652778,"lon":14.3677778},{"id":382884,"name":"kimandou","country":"cg","lat":-3.9266667,"lon":13.5244444},{"id":381492,"name":"bousoumouna","country":"cg","lat":-3.8822222,"lon":13.9697222},{"id":384963,"name":"moukasa","country":"cg","lat":-4.0244444,"lon":13.5180556},{"id":383112,"name":"kinndibou","country":"cg","lat":-4.3416667,"lon":14.3930556},{"id":384530,"name":"mfouati","country":"cg","lat":-4.3905556,"lon":13.8113889},{"id":386929,"name":"youkoy","country":"cg","lat":-3.9122222,"lon":13.8688889},{"id":385627,"name":"nkounga","country":"cg","lat":-3.8327778,"lon":14.3902778},{"id":385661,"name":"ntari binzemba","country":"cg","lat":-4.0180556,"lon":14.3427778},{"id":384745,"name":"modokou","country":"cg","lat":-4.1108333,"lon":14.085},{"id":382953,"name":"kimpala ii","country":"cg","lat":-4.3202778,"lon":14.0219444},{"id":384140,"name":"mari","country":"cg","lat":-4.1305556,"lon":13.6730556},{"id":383685,"name":"louboulou","country":"cg","lat":-3.8894444,"lon":13.5955556},{"id":381588,"name":"de chavannes","country":"cg","lat":-4.2663889,"lon":14.0888889},{"id":384222,"name":"matolo","country":"cg","lat":-3.9983333,"lon":13.9188889},{"id":385505,"name":"ngoukou","country":"cg","lat":-3.9377778,"lon":14.1333333},{"id":384261,"name":"mayanga","country":"cg","lat":-4.3563889,"lon":13.8472222},{"id":385029,"name":"moumene","country":"cg","lat":-3.6222222,"lon":14.4366667},{"id":381753,"name":"doungou","country":"cg","lat":-4.0780556,"lon":14.0819444},{"id":385102,"name":"mousenge","country":"cg","lat":-3.8736111,"lon":13.8966667},{"id":381680,"name":"djemi","country":"cg","lat":-3.7063889,"lon":13.5497222},{"id":384687,"name":"mitoko","country":"cg","lat":-4.1125,"lon":14.4752778},{"id":383027,"name":"kinfoutou","country":"cg","lat":-4.3227778,"lon":14.0430556},{"id":382994,"name":"kinanga-kenge","country":"cg","lat":-4.4216667,"lon":13.7197222},{"id":381342,"name":"bosso ii","country":"cg","lat":-3.8066667,"lon":13.8838889},{"id":384330,"name":"mbantounga","country":"cg","lat":-3.8366667,"lon":14.3830556},{"id":356524,"name":"doba","country":"cd","lat":-4.416667,"lon":14.266667},{"id":3159010,"name":"kiangu","country":"zr","lat":-4.4333333,"lon":14.2833333},{"id":382933,"name":"kimboungou ii","country":"cg","lat":-4.2530556,"lon":14.1875},{"id":382934,"name":"kimboungou i","country":"cg","lat":-4.255,"lon":14.1972222},{"id":382975,"name":"kimpolo ii","country":"cg","lat":-3.58,"lon":14.0902778},{"id":386682,"name":"tonato","country":"cg","lat":-4.0286111,"lon":14.3294444},{"id":385720,"name":"nzaou","country":"cg","lat":-4.0230556,"lon":13.9366667},{"id":383192,"name":"kinzele","country":"cg","lat":-3.7519444,"lon":14.0619444},{"id":381728,"name":"doudou","country":"cg","lat":-3.6561111,"lon":13.6602778},{"id":384315,"name":"mbamba","country":"cg","lat":-4.2930556,"lon":14.0830556},{"id":383038,"name":"kingembo","country":"cg","lat":-4.2019444,"lon":13.5125},{"id":385115,"name":"moussanda","country":"cg","lat":-3.9391667,"lon":13.7172222},{"id":383052,"name":"kingoma","country":"cg","lat":-4.1736111,"lon":13.6186111},{"id":381462,"name":"boumou","country":"cg","lat":-3.7313889,"lon":13.8275},{"id":384310,"name":"mbama","country":"cg","lat":-3.5938889,"lon":14.4663889},{"id":3166547,"name":"muyeni","country":"zr","lat":-4.45,"lon":14.2666667},{"id":385743,"name":"nzou-tari","country":"cg","lat":-4.035,"lon":13.7761111},{"id":384288,"name":"mbaamba","country":"cg","lat":-4.2294444,"lon":13.7822222},{"id":385126,"name":"moussoubou","country":"cg","lat":-4.12,"lon":14.1127778},{"id":383953,"name":"maleke","country":"cg","lat":-3.8705556,"lon":14.1922222},{"id":384092,"name":"mankisa","country":"cg","lat":-3.8205556,"lon":14.4088889},{"id":366232,"name":"masondama","country":"cd","lat":-4.416667,"lon":14.416667},{"id":385718,"name":"nzao i","country":"cg","lat":-4.1569444,"lon":14.0119444},{"id":381768,"name":"dzanga","country":"cg","lat":-3.9513889,"lon":13.8061111},{"id":383098,"name":"kinkouambala","country":"cg","lat":-3.7583333,"lon":14.1272222},{"id":385246,"name":"mpengui","country":"cg","lat":-3.9497222,"lon":14.0258333},{"id":383681,"name":"louboto","country":"cg","lat":-3.8966667,"lon":13.7883333},{"id":383186,"name":"kintsoko","country":"cg","lat":-3.8608333,"lon":14.0225},{"id":382968,"name":"kimpeni","country":"cg","lat":-3.9527778,"lon":13.89},{"id":386992,"name":"zonzo","country":"cg","lat":-4.0913889,"lon":13.9227778},{"id":383123,"name":"kinnguila","country":"cg","lat":-4.1141667,"lon":14.2802778},{"id":383127,"name":"kinnkaya","country":"cg","lat":-4.1538889,"lon":14.3419444},{"id":384536,"name":"miambi","country":"cg","lat":-3.7513889,"lon":13.9580556},{"id":385110,"name":"mousoumo","country":"cg","lat":-3.7269444,"lon":13.5783333},{"id":383170,"name":"kintaba","country":"cg","lat":-3.6386111,"lon":14.4558333},{"id":383890,"name":"makala","country":"cg","lat":-4.0080556,"lon":14.0222222},{"id":384150,"name":"masanba","country":"cg","lat":-3.6322222,"lon":14.4105556},{"id":384268,"name":"mayenani","country":"cg","lat":-3.6061111,"lon":14.3338889},{"id":385257,"name":"mpoka","country":"cg","lat":-3.9141667,"lon":14.4941667},{"id":383948,"name":"malala","country":"cg","lat":-3.92,"lon":14.4777778},{"id":382614,"name":"kabi","country":"cg","lat":-4.3136111,"lon":14.4119444},{"id":384549,"name":"midimba","country":"cg","lat":-4.1069444,"lon":13.7861111},{"id":383054,"name":"kingomo","country":"cg","lat":-3.8533333,"lon":14.0058333},{"id":383200,"name":"kinzoundou","country":"cg","lat":-4.2611111,"lon":14.4783333},{"id":368810,"name":"muyeni","country":"cd","lat":-4.45,"lon":14.266667},{"id":382937,"name":"kimbousi","country":"cg","lat":-3.9080556,"lon":14.1252778},{"id":3160179,"name":"kintangi","country":"zr","lat":-4.4333333,"lon":14.1333333},{"id":362442,"name":"kintangi","country":"cd","lat":-4.433333,"lon":14.133333},{"id":382981,"name":"kimponzi","country":"cg","lat":-4.3438889,"lon":13.9513889},{"id":386451,"name":"sansfil","country":"cg","lat":-4.2608333,"lon":14.3633333},{"id":374617,"name":"yokolo","country":"cd","lat":-4.3,"lon":14.383333},{"id":382882,"name":"kimalou","country":"cg","lat":-3.6280556,"lon":13.8605556},{"id":385013,"name":"moulengo","country":"cg","lat":-3.6072222,"lon":14.3313889},{"id":382860,"name":"kikouangou","country":"cg","lat":-4.4438889,"lon":13.6175},{"id":383971,"name":"malima","country":"cg","lat":-3.7727778,"lon":14.4969444},{"id":385708,"name":"nzaki","country":"cg","lat":-3.9541667,"lon":13.7591667},{"id":383063,"name":"kingouala-mboungou","country":"cg","lat":-4.4338889,"lon":13.7652778},{"id":384228,"name":"matoto","country":"cg","lat":-3.6447222,"lon":13.7225},{"id":383068,"name":"kingoue","country":"cg","lat":-3.7097222,"lon":14.1491667},{"id":381784,"name":"dziengele","country":"cg","lat":-4.4283333,"lon":13.6566667},{"id":381194,"name":"bizoua","country":"cg","lat":-4.3527778,"lon":13.8625},{"id":3159982,"name":"kinganga","country":"zr","lat":-4.4833333,"lon":14.1},{"id":385159,"name":"moutimoutiri","country":"cg","lat":-3.8972222,"lon":13.5130556},{"id":386691,"name":"toual","country":"cg","lat":-4.2877778,"lon":14.4922222},{"id":361273,"name":"kiangu","country":"cd","lat":-4.433333,"lon":14.283333},{"id":385452,"name":"ngoloubondo","country":"cg","lat":-4.3144444,"lon":13.8894444},{"id":384572,"name":"mikakaya","country":"cg","lat":-3.6522222,"lon":13.5938889},{"id":381977,"name":"emanika","country":"cg","lat":-3.8277778,"lon":14.4322222},{"id":3166390,"name":"mutanga","country":"zr","lat":-4.4333333,"lon":14.2333333},{"id":382844,"name":"kikanga","country":"cg","lat":-4.0136111,"lon":13.6558333},{"id":385453,"name":"ngoma loupesi","country":"cg","lat":-3.8002778,"lon":14.4444444},{"id":384253,"name":"mayalama","country":"cg","lat":-4.035,"lon":13.9355556},{"id":382847,"name":"kikaya i","country":"cg","lat":-3.7866667,"lon":13.6552778},{"id":383835,"name":"madoungou","country":"cg","lat":-3.8019444,"lon":13.8433333},{"id":383900,"name":"makangala","country":"cg","lat":-4.265,"lon":14.4541667},{"id":386342,"name":"pieme","country":"cg","lat":-4.1869444,"lon":14.36},{"id":386739,"name":"tsiangi ii","country":"cg","lat":-3.7322222,"lon":13.8327778}]});