callback({"markets":[{"id":2546602,"name":"ust-tobysh","country":"ru","lat":63.466667,"lon":52.8},{"id":2387172,"name":"chinyavoryk","country":"ru","lat":63.209437,"lon":52.66934},{"id":2565024,"name":"yukarka","country":"ru","lat":63.240232,"lon":52.887412},{"id":2379577,"name":"borovyy","country":"ru","lat":63.230047,"lon":52.890313},{"id":2536970,"name":"tobish","country":"ru","lat":63.316667,"lon":52.833333},{"id":2457974,"name":"mesyu","country":"ru","lat":63.180304,"lon":52.603513},{"id":2532331,"name":"syv\"yudor","country":"ru","lat":62.524803,"lon":52.889144},{"id":2447724,"name":"lunvozh","country":"ru","lat":63.370031,"lon":53.449331},{"id":2553614,"name":"veselyy kut","country":"ru","lat":63.472483,"lon":53.131715},{"id":2504987,"name":"russkiy","country":"ru","lat":62.65,"lon":52.716667},{"id":2537005,"name":"tobys","country":"ru","lat":63.27611,"lon":53.071719},{"id":2478689,"name":"och-norys","country":"ru","lat":62.567884,"lon":52.859906},{"id":2413944,"name":"kara-yol","country":"ru","lat":63.45,"lon":53.1},{"id":2561994,"name":"ydzhid-yag","country":"ru","lat":63.338078,"lon":52.762877},{"id":2475184,"name":"novostroyka","country":"ru","lat":62.995785,"lon":52.928295},{"id":2536292,"name":"timanskiy","country":"ru","lat":63.128966,"lon":52.533596},{"id":2426685,"name":"kommuna","country":"ru","lat":63.474594,"lon":52.761794},{"id":2401673,"name":"gord\"yel","country":"ru","lat":63.493656,"lon":53.250729}]});