callback({"markets":[{"id":1505406,"name":"borzonasca","country":"it","lat":44.416667,"lon":9.383333},{"id":1508439,"name":"celle ligure","country":"it","lat":44.333333,"lon":8.55},{"id":1505528,"name":"breccanecca","country":"it","lat":44.332222,"lon":9.369167},{"id":1515386,"name":"nervi","country":"it","lat":44.383333,"lon":9.033333},{"id":1514167,"name":"mezzanego","country":"it","lat":44.383333,"lon":9.383333},{"id":1522791,"name":"uscio","country":"it","lat":44.416667,"lon":9.166667},{"id":1521950,"name":"tassara","country":"it","lat":44.380556,"lon":9.198333},{"id":1519965,"name":"san quirico","country":"it","lat":44.483333,"lon":8.883333},{"id":1512750,"name":"leivi","country":"it","lat":44.352222,"lon":9.316667},{"id":1511755,"name":"gravero","country":"it","lat":44.371667,"lon":9.233333},{"id":1516350,"name":"pellegrino","country":"it","lat":44.356111,"lon":9.248056},{"id":1519734,"name":"san massimo","country":"it","lat":44.3475,"lon":9.19},{"id":1516075,"name":"palo","country":"it","lat":44.483333,"lon":8.533333},{"id":1505122,"name":"bogliasco","country":"it","lat":44.383333,"lon":9.066667},{"id":1520330,"name":"sant\u0027 andrea di foggia","country":"it","lat":44.381667,"lon":9.2},{"id":1519980,"name":"san rocco","country":"it","lat":44.335833,"lon":9.157222},{"id":1505519,"name":"brasi","country":"it","lat":44.366667,"lon":8.533333},{"id":1509139,"name":"codivara","country":"it","lat":44.383333,"lon":9.483333},{"id":1504862,"name":"belvedere","country":"it","lat":44.416667,"lon":8.9},{"id":1519550,"name":"san ilario","country":"it","lat":44.386111,"lon":9.056667},{"id":1523907,"name":"voltri","country":"it","lat":44.433333,"lon":8.75},{"id":1521468,"name":"sopralacroce","country":"it","lat":44.433333,"lon":9.416667},{"id":1508908,"name":"cicagna","country":"it","lat":44.416667,"lon":9.233333},{"id":1517981,"name":"quinto al mare","country":"it","lat":44.383333,"lon":9.016667},{"id":1516056,"name":"palmaro","country":"it","lat":44.433333,"lon":8.766667},{"id":1523102,"name":"varazze","country":"it","lat":44.366667,"lon":8.566667},{"id":1524023,"name":"zoagli","country":"it","lat":44.333333,"lon":9.266667},{"id":1508370,"name":"cavi di lavagna","country":"it","lat":44.288333,"lon":9.378333},{"id":1520036,"name":"san siro","country":"it","lat":44.384444,"lon":9.04},{"id":1520590,"name":"santo stefano del ponte","country":"it","lat":44.271667,"lon":9.408333},{"id":1517522,"name":"portofino","country":"it","lat":44.3,"lon":9.2},{"id":1509875,"name":"crocetta","country":"it","lat":44.310556,"lon":9.380833},{"id":1503722,"name":"albisola marina","country":"it","lat":44.316667,"lon":8.5},{"id":1518366,"name":"rivarolo","country":"it","lat":44.433333,"lon":8.9},{"id":1521392,"name":"soglio","country":"it","lat":44.383333,"lon":9.266667},{"id":1505144,"name":"bolzaneto","country":"it","lat":44.45,"lon":8.9},{"id":1520844,"name":"savona","country":"it","lat":44.283333,"lon":8.5},{"id":1520971,"name":"scoffera","country":"it","lat":44.483333,"lon":9.116667},{"id":1505765,"name":"cabanne","country":"it","lat":44.483333,"lon":9.333333},{"id":1505569,"name":"bric castellaccio","country":"it","lat":44.433333,"lon":8.8},{"id":1520718,"name":"sapello","country":"it","lat":44.433333,"lon":8.783333},{"id":1511322,"name":"gattorna","country":"it","lat":44.433333,"lon":9.183333},{"id":1515338,"name":"nascio","country":"it","lat":44.333333,"lon":9.45},{"id":1503517,"name":"acquafredda","country":"it","lat":44.483333,"lon":9.016667},{"id":1523274,"name":"vescina","country":"it","lat":44.379167,"lon":9.166667},{"id":1508788,"name":"chiavari","country":"it","lat":44.316667,"lon":9.316667},{"id":1509766,"name":"costa finale","country":"it","lat":44.483333,"lon":9.233333},{"id":1515588,"name":"olba","country":"it","lat":44.483333,"lon":8.583333},{"id":1519894,"name":"san pietro di novella","country":"it","lat":44.3625,"lon":9.210556},{"id":1515252,"name":"multedo","country":"it","lat":44.416667,"lon":8.816667},{"id":1519870,"name":"san pier di canne","country":"it","lat":44.328333,"lon":9.330556},{"id":1512069,"name":"il pero","country":"it","lat":44.383333,"lon":8.55},{"id":1516158,"name":"paraggi","country":"it","lat":44.316667,"lon":9.216667},{"id":1509643,"name":"coronata","country":"it","lat":44.45,"lon":9.216667},{"id":1515367,"name":"neirone","country":"it","lat":44.45,"lon":9.183333},{"id":1507275,"name":"casa poragine","country":"it","lat":44.45,"lon":9.433333},{"id":1518104,"name":"recco","country":"it","lat":44.366667,"lon":9.15},{"id":1523279,"name":"vesima","country":"it","lat":44.416667,"lon":8.716667},{"id":1507456,"name":"cascina","country":"it","lat":44.291667,"lon":9.415},{"id":1519958,"name":"san quirico d\u0027assereto","country":"it","lat":44.379167,"lon":9.225},{"id":1519145,"name":"san carlo","country":"it","lat":44.483333,"lon":8.833333},{"id":1512392,"name":"lago","country":"it","lat":44.383333,"lon":9.116667},{"id":1521242,"name":"sestri levante","country":"it","lat":44.266667,"lon":9.4},{"id":1518186,"name":"rezza","country":"it","lat":44.316667,"lon":9.35},{"id":1512645,"name":"lavagna","country":"it","lat":44.3,"lon":9.333333},{"id":1521667,"name":"staglieno","country":"it","lat":44.433333,"lon":8.95},{"id":1519188,"name":"san colombano","country":"it","lat":44.366667,"lon":9.333333},{"id":1509756,"name":"costa","country":"it","lat":44.333333,"lon":9.35},{"id":1522053,"name":"terisso","country":"it","lat":44.366667,"lon":9.416667},{"id":1518782,"name":"rovieto","country":"it","lat":44.4,"lon":8.5},{"id":1507819,"name":"castagna","country":"it","lat":44.383333,"lon":9.0},{"id":1511374,"name":"genoa","country":"it","lat":44.416667,"lon":8.95},{"id":1506126,"name":"campodonico","country":"it","lat":44.336389,"lon":9.297222},{"id":1515130,"name":"morigallo","country":"it","lat":44.466667,"lon":8.916667},{"id":1510660,"name":"fiorino","country":"it","lat":44.466667,"lon":8.7},{"id":1519869,"name":"san pier d\u0027arena","country":"it","lat":44.416667,"lon":8.866667},{"id":1509153,"name":"cogoleto","country":"it","lat":44.383333,"lon":8.65},{"id":1517193,"name":"polanesi","country":"it","lat":44.366667,"lon":9.116667},{"id":1518508,"name":"roccatagliata","country":"it","lat":44.473006,"lon":9.19826},{"id":1511693,"name":"granarolo","country":"it","lat":44.433333,"lon":8.933333},{"id":1514157,"name":"mexi","country":"it","lat":44.35,"lon":9.259167},{"id":1520460,"name":"santa sabina","country":"it","lat":44.264444,"lon":9.428333},{"id":1517743,"name":"prato","country":"it","lat":44.45,"lon":9.016667},{"id":1504090,"name":"arbocco","country":"it","lat":44.383333,"lon":9.191667},{"id":1518773,"name":"rovereto","country":"it","lat":44.295,"lon":9.435556},{"id":1520395,"name":"sant\u0027 anna","country":"it","lat":44.353333,"lon":9.218056},{"id":1515925,"name":"pagana","country":"it","lat":44.337778,"lon":9.225},{"id":1506037,"name":"camogli","country":"it","lat":44.35,"lon":9.15},{"id":1504321,"name":"aveggio","country":"it","lat":44.366667,"lon":9.3},{"id":1522017,"name":"temossi","country":"it","lat":44.45,"lon":9.366667},{"id":1521243,"name":"sestri ponente","country":"it","lat":44.416667,"lon":8.85},{"id":1518994,"name":"salto","country":"it","lat":44.4,"lon":9.166667},{"id":1513092,"name":"lorsica","country":"it","lat":44.433333,"lon":9.266667},{"id":1520238,"name":"santa maria del taro","country":"it","lat":44.433333,"lon":9.483333},{"id":1521501,"name":"sori","country":"it","lat":44.366667,"lon":9.1},{"id":1519737,"name":"san maurizio del monte","country":"it","lat":44.373889,"lon":9.244444},{"id":1521952,"name":"tasso","country":"it","lat":44.45,"lon":9.133333},{"id":1522104,"name":"terrarossa","country":"it","lat":44.366667,"lon":9.35},{"id":1509703,"name":"corticella","country":"it","lat":44.379167,"lon":9.153333},{"id":1506196,"name":"camposasco","country":"it","lat":44.360556,"lon":9.298333},{"id":1520780,"name":"sassello","country":"it","lat":44.483333,"lon":8.5},{"id":1517940,"name":"quarto dei mille","country":"it","lat":44.383333,"lon":8.983333},{"id":1504241,"name":"arzeno","country":"it","lat":44.35,"lon":9.466667},{"id":1511834,"name":"groppizzioso","country":"it","lat":44.483333,"lon":9.183333},{"id":1514383,"name":"moglie","country":"it","lat":44.416667,"lon":9.0},{"id":1510538,"name":"ferrada","country":"it","lat":44.416667,"lon":9.2},{"id":1504685,"name":"bargone","country":"it","lat":44.3,"lon":9.466667},{"id":1516572,"name":"piampaludo","country":"it","lat":44.466667,"lon":8.583333},{"id":1519925,"name":"san pietro","country":"it","lat":44.260556,"lon":9.426389},{"id":1508913,"name":"cichero","country":"it","lat":44.416667,"lon":9.316667},{"id":1516872,"name":"pieve ligure","country":"it","lat":44.366667,"lon":9.083333},{"id":1519688,"name":"san martino di noceto","country":"it","lat":44.360556,"lon":9.178611},{"id":1519765,"name":"san michele di pagana","country":"it","lat":44.35,"lon":9.233333},{"id":1512020,"name":"il bocco","country":"it","lat":44.351111,"lon":9.303333},{"id":1519597,"name":"san lorenzo della costa","country":"it","lat":44.333333,"lon":9.183333},{"id":1521175,"name":"serra","country":"it","lat":44.4,"lon":9.2},{"id":1521803,"name":"struppa","country":"it","lat":44.45,"lon":9.033333},{"id":1520396,"name":"sant\u0027anna","country":"it","lat":44.35,"lon":9.2},{"id":1509624,"name":"cornigliano","country":"it","lat":44.416667,"lon":8.883333},{"id":1522654,"name":"trigoso","country":"it","lat":44.266667,"lon":9.433333},{"id":1515374,"name":"ne","country":"it","lat":44.35,"lon":9.4},{"id":1521502,"name":"sorlana","country":"it","lat":44.308333,"lon":9.39},{"id":1505411,"name":"boschetto","country":"it","lat":44.345833,"lon":9.166667},{"id":1519727,"name":"san martino stella","country":"it","lat":44.383333,"lon":8.516667},{"id":1518159,"name":"reppia","country":"it","lat":44.366667,"lon":9.45},{"id":1521091,"name":"semorile","country":"it","lat":44.35,"lon":9.266667},{"id":1503586,"name":"aggio","country":"it","lat":44.466667,"lon":9.0},{"id":1509854,"name":"crevari","country":"it","lat":44.416667,"lon":8.733333},{"id":1508567,"name":"cerisola","country":"it","lat":44.345,"lon":9.279167},{"id":1515093,"name":"moranego","country":"it","lat":44.466667,"lon":9.1},{"id":1505972,"name":"calzanatta","country":"it","lat":44.483333,"lon":9.283333},{"id":1515661,"name":"oneto","country":"it","lat":44.357778,"lon":9.2875},{"id":1521727,"name":"stibiveri","country":"it","lat":44.466667,"lon":9.35},{"id":1507817,"name":"casta","country":"it","lat":44.3,"lon":9.483333},{"id":1522935,"name":"vallebuona","country":"it","lat":44.45,"lon":9.116667},{"id":1520443,"name":"sant\u0027 apollinare","country":"it","lat":44.372222,"lon":9.115556},{"id":1505599,"name":"brizzolara","country":"it","lat":44.433333,"lon":9.366667},{"id":1519567,"name":"san lazzaro","country":"it","lat":44.266667,"lon":9.466667},{"id":1520485,"name":"santa vittoria","country":"it","lat":44.283333,"lon":9.433333},{"id":1516846,"name":"pieve alta","country":"it","lat":44.376667,"lon":9.091667},{"id":1508035,"name":"castelluccio","country":"it","lat":44.433333,"lon":8.816667},{"id":1516424,"name":"pero","country":"it","lat":44.316667,"lon":9.183333},{"id":1506510,"name":"carasco","country":"it","lat":44.35,"lon":9.35},{"id":1509663,"name":"corsanego","country":"it","lat":44.375833,"lon":9.088333},{"id":1519717,"name":"san martino","country":"it","lat":44.326111,"lon":9.355278},{"id":1511750,"name":"graveglia","country":"it","lat":44.333333,"lon":9.4},{"id":1503583,"name":"ageno","country":"it","lat":44.373333,"lon":9.130833},{"id":1518761,"name":"roverazza","country":"it","lat":44.466667,"lon":8.733333},{"id":1516109,"name":"pannesi","country":"it","lat":44.416667,"lon":9.116667},{"id":1509159,"name":"cogorno","country":"it","lat":44.3175,"lon":9.37},{"id":1522530,"name":"traso","country":"it","lat":44.433333,"lon":9.083333},{"id":1504369,"name":"bacezza","country":"it","lat":44.320278,"lon":9.313611},{"id":1503506,"name":"acqua","country":"it","lat":44.416667,"lon":9.25},{"id":1520226,"name":"santa maria del campo","country":"it","lat":44.358333,"lon":9.199444},{"id":1519030,"name":"sambuceto","country":"it","lat":44.316667,"lon":9.416667},{"id":1506372,"name":"caperana","country":"it","lat":44.316667,"lon":9.333333},{"id":1519070,"name":"san bartolomeo di bussonengo","country":"it","lat":44.378333,"lon":9.110833},{"id":1504680,"name":"bargagli","country":"it","lat":44.45,"lon":9.083333},{"id":1507107,"name":"casalino","country":"it","lat":44.361944,"lon":9.194722},{"id":1513101,"name":"loto","country":"it","lat":44.305278,"lon":9.415278},{"id":1504924,"name":"bertigaro","country":"it","lat":44.466667,"lon":9.366667},{"id":1523718,"name":"villa solari","country":"it","lat":44.326667,"lon":9.2925},{"id":1516166,"name":"parazzuolo","country":"it","lat":44.3425,"lon":9.273333},{"id":1519997,"name":"san salvatore","country":"it","lat":44.330278,"lon":9.359444},{"id":1520305,"name":"sant\u0027ambrogio","country":"it","lat":44.346111,"lon":9.256667},{"id":1520205,"name":"santa margherita","country":"it","lat":44.333333,"lon":9.2},{"id":1515936,"name":"paggi","country":"it","lat":44.35,"lon":9.366667},{"id":1518356,"name":"riva","country":"it","lat":44.25,"lon":9.416667},{"id":1504590,"name":"bana","country":"it","lat":44.349444,"lon":9.181667},{"id":1521813,"name":"sturla","country":"it","lat":44.4,"lon":8.983333},{"id":1504132,"name":"arenzano","country":"it","lat":44.4,"lon":8.683333},{"id":1508369,"name":"cavi","country":"it","lat":44.283333,"lon":9.366667},{"id":1523163,"name":"velici inferiore","country":"it","lat":44.283333,"lon":9.45},{"id":1510475,"name":"favale di malvaro","country":"it","lat":44.45,"lon":9.25},{"id":1519545,"name":"sanguineto","country":"it","lat":44.333889,"lon":9.305278},{"id":1520035,"name":"san siro foce","country":"it","lat":44.4,"lon":9.416667},{"id":1518841,"name":"ruta","country":"it","lat":44.333333,"lon":9.166667},{"id":1510496,"name":"fegino","country":"it","lat":44.433333,"lon":8.883333},{"id":1511509,"name":"ginestra","country":"it","lat":44.261667,"lon":9.415278},{"id":1518370,"name":"riva trigoso","country":"it","lat":44.260833,"lon":9.423889},{"id":1509804,"name":"cotulo","country":"it","lat":44.352222,"lon":9.151111}]});