callback({"markets":[{"id":2654555,"name":"dudun gallo","country":"so","lat":6.35,"lon":48.8666667},{"id":2658435,"name":"zavaad","country":"so","lat":6.35,"lon":48.7},{"id":2653964,"name":"cirai cheli dere","country":"so","lat":6.3,"lon":48.9},{"id":2653312,"name":"budbud","country":"so","lat":6.1833333,"lon":48.6833333},{"id":2654898,"name":"endo iero","country":"so","lat":6.2,"lon":48.6666667},{"id":2655561,"name":"gopsor","country":"so","lat":6.25,"lon":48.8333333},{"id":2655787,"name":"hangut","country":"so","lat":6.4166667,"lon":48.6166667},{"id":2656629,"name":"lebed","country":"so","lat":5.5666667,"lon":48.6833333},{"id":2654667,"name":"el af gumasorrei","country":"so","lat":6.4833333,"lon":48.7833333},{"id":2657298,"name":"qallad","country":"so","lat":5.9666667,"lon":48.9333333},{"id":2655726,"name":"habad","country":"so","lat":6.4333333,"lon":48.5333333},{"id":2654096,"name":"daborow","country":"so","lat":6.35,"lon":48.7166667},{"id":2653135,"name":"biadera","country":"so","lat":6.15,"lon":48.6333333},{"id":2654700,"name":"el badur","country":"so","lat":6.4166667,"lon":49.0833333},{"id":2658037,"name":"uascir","country":"so","lat":6.2,"lon":48.5333333},{"id":2657256,"name":"or ghielleis","country":"so","lat":6.1666667,"lon":48.8833333},{"id":2655203,"name":"garahadde","country":"so","lat":5.5,"lon":48.6333333}]});