callback({"markets":[{"id":1973122,"name":"gombri bangou","country":"ne","lat":13.0833333,"lon":1.5833333},{"id":1972408,"name":"fouinnza","country":"ne","lat":13.45,"lon":2.15},{"id":1971798,"name":"dikore","country":"ne","lat":13.2516667,"lon":2.4658333},{"id":234972,"name":"gangankoudyaga","country":"bf","lat":12.6166667,"lon":1.5666667},{"id":1976941,"name":"sinia","country":"ne","lat":13.2333333,"lon":1.9333333},{"id":1970947,"name":"bougoufen","country":"ne","lat":13.3666667,"lon":1.95},{"id":1973274,"name":"goungou","country":"ne","lat":13.4419444,"lon":2.1552778},{"id":1977683,"name":"tokei","country":"ne","lat":13.2,"lon":2.35},{"id":1976447,"name":"paliadouga","country":"ne","lat":13.2666667,"lon":2.3},{"id":1971994,"name":"dori","country":"ne","lat":12.7,"lon":1.9},{"id":235891,"name":"kanlayenou","country":"bf","lat":12.6166667,"lon":2.1833333},{"id":1976457,"name":"perimani","country":"ne","lat":13.4,"lon":1.6},{"id":233436,"name":"bossongari","country":"bf","lat":12.5844444,"lon":1.835},{"id":233556,"name":"boulel","country":"bf","lat":12.7,"lon":2.1166667},{"id":1977541,"name":"tiantargou","country":"ne","lat":13.0477778,"lon":2.1647222},{"id":1973127,"name":"gondokere","country":"ne","lat":13.4833333,"lon":2.1666667},{"id":1972417,"name":"foumbia","country":"ne","lat":13.1833333,"lon":2.1666667},{"id":1972103,"name":"dyaya","country":"ne","lat":12.7166667,"lon":1.5833333},{"id":1977503,"name":"teroudie","country":"ne","lat":13.0666667,"lon":2.2833333},{"id":1977006,"name":"sorey","country":"ne","lat":13.4344444,"lon":2.2355556},{"id":1971977,"name":"dolewa","country":"ne","lat":13.3652778,"lon":2.1575},{"id":1973178,"name":"gorou kirey","country":"ne","lat":13.4261111,"lon":2.1422222},{"id":1973164,"name":"gorou banda","country":"ne","lat":13.4397222,"lon":2.1297222},{"id":1973950,"name":"guinguinde","country":"ne","lat":13.45,"lon":2.1666667},{"id":1971535,"name":"dantiondou","country":"ne","lat":12.7333333,"lon":2.0333333},{"id":1970862,"name":"bondyagoure","country":"ne","lat":12.8833333,"lon":2.1},{"id":1976198,"name":"nanifonou","country":"ne","lat":12.8,"lon":2.2166667},{"id":1970904,"name":"bossa","country":"ne","lat":13.1166667,"lon":1.9166667},{"id":1974384,"name":"kankani","country":"ne","lat":12.6666667,"lon":1.6},{"id":1972097,"name":"dyamongou","country":"ne","lat":12.8,"lon":2.15},{"id":1976286,"name":"nindiboulai","country":"ne","lat":13.0833333,"lon":2.0666667},{"id":1976642,"name":"saga gourma","country":"ne","lat":13.4477778,"lon":2.1244444},{"id":236087,"name":"kerta","country":"bf","lat":12.6666667,"lon":1.5},{"id":1972383,"name":"fombonou","country":"ne","lat":12.6333333,"lon":2.4},{"id":1976962,"name":"siriniere","country":"ne","lat":13.3472222,"lon":2.3080556},{"id":1970825,"name":"bokano","country":"ne","lat":13.2666667,"lon":1.7833333},{"id":1977661,"name":"tirofondou","country":"ne","lat":13.1166667,"lon":2.2833333},{"id":1974278,"name":"kahe","country":"ne","lat":13.3422222,"lon":2.1627778},{"id":1978025,"name":"tyena","country":"ne","lat":12.7,"lon":2.2833333},{"id":1974852,"name":"kolo","country":"ne","lat":12.9333333,"lon":1.95},{"id":234031,"name":"dantyabonga","country":"bf","lat":12.7166667,"lon":2.0666667},{"id":1974472,"name":"kare","country":"ne","lat":13.0666667,"lon":2.3333333},{"id":1970786,"name":"bitaga zarga","country":"ne","lat":13.3666667,"lon":2.3333333},{"id":1977869,"name":"touloueye-kaina","country":"ne","lat":13.0666667,"lon":2.4},{"id":1975362,"name":"lamorde","country":"ne","lat":13.4880556,"lon":2.0869444},{"id":1975502,"name":"louguel habba","country":"ne","lat":13.4247222,"lon":2.0838889},{"id":1976320,"name":"ogole","country":"ne","lat":13.4,"lon":2.0166667},{"id":1975470,"name":"looudou","country":"ne","lat":13.1833333,"lon":1.85},{"id":1971077,"name":"castelbodi","country":"ne","lat":13.4325,"lon":2.3630556},{"id":1973289,"name":"gountodeni","country":"ne","lat":12.7666667,"lon":1.6833333},{"id":241866,"name":"twolonli","country":"bf","lat":12.5333333,"lon":2.1666667},{"id":1972074,"name":"doutouel","country":"ne","lat":13.0833333,"lon":1.8666667},{"id":1977701,"name":"toleba","country":"ne","lat":13.1166667,"lon":1.5833333},{"id":235081,"name":"gide","country":"bf","lat":12.7333333,"lon":2.05},{"id":1976914,"name":"sidi kwara","country":"ne","lat":13.0166667,"lon":2.3},{"id":238262,"name":"natyade","country":"bf","lat":12.55,"lon":2.05},{"id":1977491,"name":"tenare","country":"ne","lat":13.1333333,"lon":2.2833333},{"id":1975359,"name":"lambouti","country":"ne","lat":12.7166667,"lon":1.7166667},{"id":1977079,"name":"tabare","country":"ne","lat":12.6333333,"lon":1.6166667},{"id":239986,"name":"saradabeyngo","country":"bf","lat":12.55,"lon":2.0666667},{"id":1972338,"name":"fetobanoi","country":"ne","lat":13.1,"lon":2.2833333},{"id":1976905,"name":"siankole","country":"ne","lat":12.8666667,"lon":1.85},{"id":1976262,"name":"nguida","country":"ne","lat":13.1666667,"lon":1.9333333},{"id":1976648,"name":"saga","country":"ne","lat":13.4552778,"lon":2.1152778},{"id":1975385,"name":"lari","country":"ne","lat":12.75,"lon":1.65},{"id":1972404,"name":"fottyango","country":"ne","lat":12.7333333,"lon":1.6333333},{"id":239203,"name":"pendyaga","country":"bf","lat":12.5666667,"lon":2.0166667},{"id":1975478,"name":"louba","country":"ne","lat":13.0266667,"lon":1.5002778},{"id":1974748,"name":"kodyolowel","country":"ne","lat":13.1,"lon":1.9666667},{"id":1977525,"name":"tiaho kwara","country":"ne","lat":13.35,"lon":2.2666667},{"id":1977606,"name":"tiliberi","country":"ne","lat":13.2538889,"lon":2.3552778},{"id":1977565,"name":"tielafoulbe","country":"ne","lat":12.8666667,"lon":1.95},{"id":1976462,"name":"pita","country":"ne","lat":13.3,"lon":1.5},{"id":1970988,"name":"boulouaga","country":"ne","lat":12.6833333,"lon":1.7833333},{"id":1976419,"name":"ouro hesso","country":"ne","lat":12.95,"lon":2.1833333},{"id":1970375,"name":"bamguel nyiri","country":"ne","lat":13.2833333,"lon":1.8166667},{"id":1972327,"name":"fayra","country":"ne","lat":13.0166667,"lon":1.7},{"id":1971831,"name":"dionane","country":"ne","lat":13.3247222,"lon":2.1263889},{"id":1971022,"name":"bouraesso","country":"ne","lat":12.9333333,"lon":2.15},{"id":1970354,"name":"baley kwara","country":"ne","lat":12.9666667,"lon":2.3333333},{"id":1978039,"name":"tyourio","country":"ne","lat":13.3166667,"lon":1.7666667},{"id":1975232,"name":"koute koara","country":"ne","lat":13.4,"lon":2.2166667},{"id":1977654,"name":"tioure fandou","country":"ne","lat":13.4625,"lon":2.1775},{"id":241865,"name":"twobangou","country":"bf","lat":12.6,"lon":2.0166667},{"id":1977989,"name":"tsiassi-koara","country":"ne","lat":13.1333333,"lon":2.3333333},{"id":1973211,"name":"goubongou","country":"ne","lat":13.0166667,"lon":1.6166667},{"id":1973118,"name":"gombewa","country":"ne","lat":13.1333333,"lon":2.4833333},{"id":238632,"name":"noumkori","country":"bf","lat":12.7,"lon":2.0},{"id":1976847,"name":"seberi","country":"ne","lat":13.2952778,"lon":2.345},{"id":1973186,"name":"gossogorou","country":"ne","lat":13.4666667,"lon":1.9666667},{"id":1970844,"name":"bole","country":"ne","lat":12.7833333,"lon":2.1666667},{"id":1971745,"name":"diagoga","country":"ne","lat":13.1166667,"lon":1.95},{"id":1977126,"name":"tafa kouara","country":"ne","lat":13.4569444,"lon":2.1675},{"id":1977638,"name":"tingobangou","country":"ne","lat":13.4166667,"lon":2.2},{"id":236246,"name":"kobindyego","country":"bf","lat":12.5833333,"lon":1.8333333},{"id":1976685,"name":"sakey kouara tegui","country":"ne","lat":13.2822222,"lon":2.4652778},{"id":1977605,"name":"tili bassey","country":"ne","lat":13.2511111,"lon":2.3580556},{"id":1975501,"name":"louguelaba","country":"ne","lat":13.4333333,"lon":2.0666667},{"id":1978385,"name":"zokoti","country":"ne","lat":13.3,"lon":2.3},{"id":1975421,"name":"libore","country":"ne","lat":13.4047222,"lon":2.1913889},{"id":1971061,"name":"boyenga","country":"ne","lat":13.3436111,"lon":2.1269444},{"id":1972567,"name":"ganki bassarou","country":"ne","lat":13.1666667,"lon":2.35},{"id":1971664,"name":"delakoyre","country":"ne","lat":13.1166667,"lon":1.8833333},{"id":1975139,"name":"koumbyari","country":"ne","lat":13.3,"lon":1.9166667},{"id":240487,"name":"sombalgu","country":"bf","lat":12.55,"lon":1.7},{"id":1970732,"name":"bingaro godie","country":"ne","lat":12.9,"lon":2.0333333},{"id":1977530,"name":"tiambanga","country":"ne","lat":13.1333333,"lon":1.8666667},{"id":234721,"name":"dyedyogo","country":"bf","lat":12.6666667,"lon":2.1333333},{"id":1974698,"name":"kobadie","country":"ne","lat":13.2130556,"lon":1.8627778},{"id":1977750,"name":"tondigame","country":"ne","lat":13.2333333,"lon":2.4333333},{"id":1971642,"name":"debiel","country":"ne","lat":13.0666667,"lon":2.3166667},{"id":1976929,"name":"sindamoa","country":"ne","lat":12.7333333,"lon":1.95},{"id":236244,"name":"kobato","country":"bf","lat":12.6,"lon":1.95},{"id":238253,"name":"natergou","country":"bf","lat":12.5166667,"lon":1.6666667},{"id":1971638,"name":"deberegati","country":"ne","lat":13.0666667,"lon":2.1333333},{"id":1974614,"name":"kialoumadobou","country":"ne","lat":13.4333333,"lon":2.2333333},{"id":1976413,"name":"ouro go","country":"ne","lat":13.0666667,"lon":1.9666667},{"id":1974744,"name":"kodiere","country":"ne","lat":12.95,"lon":1.6166667},{"id":1972361,"name":"firoua","country":"ne","lat":13.3352778,"lon":2.2408333},{"id":1976649,"name":"sagati","country":"ne","lat":12.95,"lon":1.8833333},{"id":1972263,"name":"fantou","country":"ne","lat":12.75,"lon":2.0333333},{"id":1978125,"name":"windou","country":"ne","lat":13.4341667,"lon":2.0780556},{"id":1976861,"name":"sekoulou","country":"ne","lat":13.2716667,"lon":2.3655556},{"id":1975492,"name":"lougadyam","country":"ne","lat":13.4666667,"lon":1.9833333},{"id":1974980,"name":"koroze","country":"ne","lat":13.4161111,"lon":2.2133333},{"id":1972050,"name":"dounga-tareye","country":"ne","lat":13.3791667,"lon":2.2347222},{"id":1974724,"name":"kobiol","country":"ne","lat":13.1333333,"lon":2.4},{"id":1971919,"name":"doga","country":"ne","lat":13.3877778,"lon":2.175},{"id":1972094,"name":"dyagoga","country":"ne","lat":12.6666667,"lon":2.2666667},{"id":1977647,"name":"tiolol","country":"ne","lat":13.3802778,"lon":2.3208333},{"id":1976616,"name":"sadore","country":"ne","lat":13.2333333,"lon":2.2833333},{"id":1975130,"name":"kouloure","country":"ne","lat":13.3958333,"lon":2.2030556},{"id":232424,"name":"badedsi","country":"bf","lat":12.5,"lon":1.6},{"id":1976644,"name":"saga kourtey","country":"ne","lat":13.4833333,"lon":2.1480556},{"id":1976617,"name":"sadyema","country":"ne","lat":12.8666667,"lon":2.0666667},{"id":1975482,"name":"loudoudji","country":"ne","lat":13.0333333,"lon":1.95},{"id":1974631,"name":"kiki","country":"ne","lat":12.9833333,"lon":1.5666667},{"id":1972371,"name":"fogodji","country":"ne","lat":13.05,"lon":2.1666667},{"id":235559,"name":"ichenguilita","country":"bf","lat":12.6,"lon":1.8833333},{"id":1976458,"name":"petay","country":"ne","lat":12.8,"lon":1.9333333},{"id":1971180,"name":"dagari","country":"ne","lat":13.2,"lon":2.3833333},{"id":1978026,"name":"tyenetyaya","country":"ne","lat":13.4833333,"lon":1.9833333},{"id":1976026,"name":"mbagahidowa","country":"ne","lat":13.3,"lon":1.9666667},{"id":1972439,"name":"gabikane","country":"ne","lat":12.9166667,"lon":1.5833333},{"id":1972267,"name":"faounde banda","country":"ne","lat":13.3583333,"lon":2.2016667},{"id":1973147,"name":"gongozougou peul","country":"ne","lat":13.2333333,"lon":2.3833333},{"id":1976658,"name":"saguia","country":"ne","lat":13.4641667,"lon":2.1038889},{"id":1975253,"name":"koyina","country":"ne","lat":13.0833333,"lon":1.7833333},{"id":1974822,"name":"kokware djerma","country":"ne","lat":13.415,"lon":2.4472222},{"id":1971152,"name":"dabara","country":"ne","lat":13.3566667,"lon":2.2247222},{"id":1973354,"name":"gueriguinde kourtey","country":"ne","lat":13.4313889,"lon":2.1563889},{"id":1974769,"name":"kogorou","country":"ne","lat":13.3833333,"lon":1.75},{"id":1970490,"name":"banizoumbou","country":"ne","lat":13.2966667,"lon":2.4763889},{"id":238259,"name":"natougou","country":"bf","lat":12.6166667,"lon":1.6833333},{"id":1974667,"name":"kirtachi zeno","country":"ne","lat":12.8333333,"lon":2.4333333},{"id":241916,"name":"tyongol","country":"bf","lat":12.55,"lon":1.8166667},{"id":1970831,"name":"boki","country":"ne","lat":12.95,"lon":2.3333333},{"id":1976401,"name":"oure souldou","country":"ne","lat":12.75,"lon":1.95},{"id":1971965,"name":"doguel guede","country":"ne","lat":13.25,"lon":2.3333333},{"id":1978119,"name":"winde dyoumaro","country":"ne","lat":13.3166667,"lon":1.7333333},{"id":1970846,"name":"bolobadie","country":"ne","lat":13.2333333,"lon":1.8666667},{"id":1970430,"name":"bangoufida","country":"ne","lat":13.4166667,"lon":2.2166667},{"id":1975393,"name":"lebabare","country":"ne","lat":12.9166667,"lon":1.9666667},{"id":1972105,"name":"dyayel","country":"ne","lat":13.15,"lon":1.7},{"id":1976311,"name":"nyamba","country":"ne","lat":13.15,"lon":1.8},{"id":1978150,"name":"yadiagare","country":"ne","lat":13.3,"lon":1.7666667},{"id":1974661,"name":"kirkissa","country":"ne","lat":13.4791667,"lon":2.1052778},{"id":1975404,"name":"lele mamane niale","country":"ne","lat":13.3955556,"lon":2.1655556},{"id":1970054,"name":"ankara","country":"ne","lat":12.9333333,"lon":1.8833333},{"id":1976308,"name":"nyalagari","country":"ne","lat":13.3166667,"lon":1.7833333},{"id":1976416,"name":"ouro gueladio kounari","country":"ne","lat":13.1,"lon":2.0166667},{"id":1973293,"name":"gourao","country":"ne","lat":13.1333333,"lon":2.3166667},{"id":1978064,"name":"wakere","country":"ne","lat":13.2333333,"lon":2.3333333},{"id":1976414,"name":"ouro goume","country":"ne","lat":12.7333333,"lon":2.1666667},{"id":234925,"name":"gabouga","country":"bf","lat":12.5166667,"lon":2.0833333},{"id":1976425,"name":"ouro sanda","country":"ne","lat":12.75,"lon":2.1166667},{"id":242363,"name":"yendibore","country":"bf","lat":12.65,"lon":1.9666667},{"id":1972092,"name":"dyabou","country":"ne","lat":12.8833333,"lon":2.3166667},{"id":1975391,"name":"latti","country":"ne","lat":12.6833333,"lon":1.6666667},{"id":235710,"name":"kahel","country":"bf","lat":12.5333333,"lon":1.8666667},{"id":1976429,"name":"ouro sori","country":"ne","lat":13.0833333,"lon":1.9666667},{"id":1972607,"name":"garbagougou","country":"ne","lat":13.2166667,"lon":2.35},{"id":1975033,"name":"kouara koukou","country":"ne","lat":13.4341667,"lon":2.1805556},{"id":1970672,"name":"bella kouara","country":"ne","lat":13.4030556,"lon":2.4322222},{"id":1975630,"name":"makalondi","country":"ne","lat":12.8330556,"lon":1.6925},{"id":1975399,"name":"lele beri","country":"ne","lat":13.4166667,"lon":2.1666667},{"id":1970067,"name":"aoula kouara","country":"ne","lat":13.34,"lon":2.305},{"id":1969842,"name":"alareni","country":"ne","lat":13.3166667,"lon":1.5333333},{"id":1969916,"name":"alondi","country":"ne","lat":12.7666667,"lon":1.75},{"id":1971173,"name":"dadoba","country":"ne","lat":13.0666667,"lon":1.75},{"id":1970726,"name":"billingol","country":"ne","lat":13.4722222,"lon":2.3738889},{"id":1970810,"name":"bogodiotou","country":"ne","lat":13.0833333,"lon":1.8166667},{"id":1976316,"name":"nyoupelma","country":"ne","lat":12.6833333,"lon":1.65},{"id":1970705,"name":"bibia","country":"ne","lat":13.4166667,"lon":2.0166667},{"id":1971759,"name":"diankoundi","country":"ne","lat":13.15,"lon":1.9333333},{"id":237676,"name":"maridyiwaga","country":"bf","lat":12.5166667,"lon":1.95},{"id":234269,"name":"dibiti","country":"bf","lat":12.5833333,"lon":1.8},{"id":1970793,"name":"bobokari","country":"ne","lat":13.3166667,"lon":1.5833333},{"id":1975420,"name":"libore fou hinza","country":"ne","lat":13.4361111,"lon":2.1641667},{"id":1970943,"name":"boudyoga","country":"ne","lat":13.0666667,"lon":1.65},{"id":1976168,"name":"nagouwol","country":"ne","lat":13.25,"lon":1.9166667},{"id":1977522,"name":"tiaguirire","country":"ne","lat":13.2677778,"lon":2.325},{"id":1976751,"name":"sandagou","country":"ne","lat":12.7666667,"lon":1.8166667},{"id":1978017,"name":"tyeleda","country":"ne","lat":13.1833333,"lon":1.9333333},{"id":1969687,"name":"abada goungou","country":"ne","lat":13.3827778,"lon":2.2086111},{"id":1977523,"name":"tiahiguel","country":"ne","lat":13.3666667,"lon":1.6666667},{"id":241883,"name":"tyantyarhabouli","country":"bf","lat":12.65,"lon":2.1333333},{"id":1976567,"name":"sabadji","country":"ne","lat":13.2166667,"lon":1.85},{"id":1970676,"name":"benabrou","country":"ne","lat":13.1,"lon":1.65},{"id":1972352,"name":"finare","country":"ne","lat":13.2166667,"lon":2.2833333},{"id":1972836,"name":"gassira","country":"ne","lat":12.9166667,"lon":1.85},{"id":1976418,"name":"ouro hagati","country":"ne","lat":13.0166667,"lon":1.6833333},{"id":1976637,"name":"saga-aviation","country":"ne","lat":13.4697222,"lon":2.1852778},{"id":1970424,"name":"bangou banda","country":"ne","lat":13.4247222,"lon":2.1838889},{"id":1977738,"name":"tonde","country":"ne","lat":13.1333333,"lon":1.7333333},{"id":237117,"name":"kyendyaga","country":"bf","lat":12.5,"lon":2.0166667},{"id":1970626,"name":"bayo","country":"ne","lat":12.9833333,"lon":2.3},{"id":1971967,"name":"doguel keyna","country":"ne","lat":13.2905556,"lon":2.3219444},{"id":1969839,"name":"alambare","country":"ne","lat":12.6666667,"lon":2.2311111},{"id":1977614,"name":"tiloa","country":"ne","lat":13.35,"lon":2.2166667},{"id":1976272,"name":"niakatire","country":"ne","lat":12.9333333,"lon":1.8},{"id":1971988,"name":"dongare","country":"ne","lat":13.1833333,"lon":2.3166667},{"id":1971971,"name":"dokimana","country":"ne","lat":13.0333333,"lon":2.3333333},{"id":1975104,"name":"kouleba","country":"ne","lat":12.8166667,"lon":1.8333333},{"id":1978166,"name":"yambidyana","country":"ne","lat":12.7333333,"lon":2.2},{"id":1971743,"name":"diadire","country":"ne","lat":13.4702778,"lon":2.0097222},{"id":1971894,"name":"djiliki","country":"ne","lat":13.1166667,"lon":1.8166667},{"id":1972047,"name":"dounga goungou","country":"ne","lat":13.3508333,"lon":2.2483333},{"id":1974020,"name":"heda","country":"ne","lat":13.0833333,"lon":1.65},{"id":1973088,"name":"gogare","country":"ne","lat":13.35,"lon":2.2},{"id":1972854,"name":"gaweye","country":"ne","lat":13.4877778,"lon":2.1005556},{"id":1978021,"name":"tyelol baleol","country":"ne","lat":12.65,"lon":1.8},{"id":1974839,"name":"kollo","country":"ne","lat":13.0166667,"lon":1.8833333},{"id":1972335,"name":"fenfetou","country":"ne","lat":13.2666667,"lon":1.85},{"id":1972495,"name":"gala","country":"ne","lat":13.3708333,"lon":2.2241667},{"id":1974386,"name":"kankantouti","country":"ne","lat":13.0833333,"lon":1.75},{"id":1971751,"name":"diakindi","country":"ne","lat":13.1933333,"lon":2.2972222},{"id":1970203,"name":"baba andanare","country":"ne","lat":13.3636111,"lon":2.1744444},{"id":1976688,"name":"sakie","country":"ne","lat":13.2783333,"lon":2.4769444},{"id":1976404,"name":"ouro bambale","country":"ne","lat":12.7,"lon":1.8166667},{"id":1977380,"name":"tasya","country":"ne","lat":12.7,"lon":1.85},{"id":1975433,"name":"lilengou","country":"ne","lat":12.9833333,"lon":1.6},{"id":1974823,"name":"kokware peul","country":"ne","lat":13.3961111,"lon":2.4327778},{"id":1975364,"name":"lamorge","country":"ne","lat":13.1166667,"lon":1.8},{"id":1970509,"name":"banou djoumba","country":"ne","lat":12.7666667,"lon":2.0666667},{"id":236705,"name":"koubourgou","country":"bf","lat":12.5833333,"lon":2.05},{"id":1971236,"name":"damari","country":"ne","lat":13.2333333,"lon":2.2333333},{"id":1970384,"name":"banboma","country":"ne","lat":12.8,"lon":2.0333333},{"id":1974665,"name":"kirtachi","country":"ne","lat":12.7794444,"lon":2.4877778},{"id":1972051,"name":"doungel","country":"ne","lat":12.9333333,"lon":2.2},{"id":1977599,"name":"tilbi","country":"ne","lat":13.4008333,"lon":2.1663889},{"id":1978120,"name":"winde kaina","country":"ne","lat":13.3211111,"lon":2.4580556},{"id":1974462,"name":"karayel","country":"ne","lat":13.4966667,"lon":2.0055556},{"id":1976843,"name":"say","country":"ne","lat":13.1080556,"lon":2.3597222},{"id":1978006,"name":"tyalkoe","country":"ne","lat":12.65,"lon":2.2666667},{"id":1970618,"name":"battare","country":"ne","lat":13.3527778,"lon":2.1211111},{"id":237423,"name":"loguil","country":"bf","lat":12.7,"lon":1.95},{"id":1978020,"name":"tyellel","country":"ne","lat":13.0833333,"lon":1.6833333},{"id":1977626,"name":"timere","country":"ne","lat":13.4311111,"lon":2.1366667},{"id":1978115,"name":"wimane-tama","country":"ne","lat":13.45,"lon":2.2333333},{"id":1970337,"name":"bala","country":"ne","lat":12.9125,"lon":1.9252778},{"id":1977051,"name":"sounga keyna","country":"ne","lat":12.8833333,"lon":2.4166667},{"id":1972499,"name":"gala kaina","country":"ne","lat":13.3580556,"lon":2.2386111},{"id":1975485,"name":"loudounyaki","country":"ne","lat":13.2833333,"lon":1.85},{"id":238588,"name":"nombiti","country":"bf","lat":12.6166667,"lon":2.1333333},{"id":1975401,"name":"lele-kaina","country":"ne","lat":13.4111111,"lon":2.1547222},{"id":1975415,"name":"libiri","country":"ne","lat":13.0166667,"lon":1.5166667},{"id":1975000,"name":"kossey","country":"ne","lat":13.3166667,"lon":1.75},{"id":1977976,"name":"toutoure","country":"ne","lat":13.4166667,"lon":1.6833333},{"id":1972291,"name":"fari beri damari","country":"ne","lat":13.2333333,"lon":2.1833333},{"id":1976431,"name":"ouro-timbaso","country":"ne","lat":13.1333333,"lon":1.9666667},{"id":1975029,"name":"koua","country":"ne","lat":13.3166667,"lon":2.2833333},{"id":1975479,"name":"loubayel","country":"ne","lat":13.1666667,"lon":1.7},{"id":1970466,"name":"bani guiti","country":"ne","lat":13.2888889,"lon":2.0275},{"id":233142,"name":"birniolpori","country":"bf","lat":12.6333333,"lon":1.9166667},{"id":1976290,"name":"noddire","country":"ne","lat":13.35,"lon":1.8166667},{"id":1977872,"name":"toulouey","country":"ne","lat":13.0333333,"lon":2.4166667},{"id":1973927,"name":"guilael","country":"ne","lat":13.3202778,"lon":2.1658333},{"id":1975796,"name":"marna","country":"ne","lat":13.0833333,"lon":1.6},{"id":1971340,"name":"dandire","country":"ne","lat":13.1166667,"lon":1.9833333},{"id":232732,"name":"bantouani","country":"bf","lat":12.5333333,"lon":1.5333333},{"id":1978040,"name":"vendou mama","country":"ne","lat":12.7333333,"lon":1.9333333},{"id":238927,"name":"ounougou","country":"bf","lat":12.5333333,"lon":2.2},{"id":1977502,"name":"teroua","country":"ne","lat":13.0166667,"lon":2.1666667},{"id":1971804,"name":"dina hondo","country":"ne","lat":13.1166667,"lon":1.5666667},{"id":1975886,"name":"mayenga","country":"ne","lat":12.8,"lon":1.8333333},{"id":1971009,"name":"bounerire","country":"ne","lat":13.3677778,"lon":2.1936111},{"id":1973371,"name":"guessel bodi","country":"ne","lat":13.4144444,"lon":2.355},{"id":1976090,"name":"moli gourmanche","country":"ne","lat":12.5666667,"lon":2.3},{"id":235562,"name":"idyandyari","country":"bf","lat":12.5666667,"lon":2.1},{"id":1977594,"name":"tikko","country":"ne","lat":13.2333333,"lon":1.8333333},{"id":1972266,"name":"fanwargou","country":"ne","lat":12.7333333,"lon":2.0833333},{"id":1974853,"name":"kolo","country":"ne","lat":13.3086111,"lon":2.3308333},{"id":235926,"name":"karadye","country":"bf","lat":12.6,"lon":1.9166667},{"id":1971634,"name":"deba","country":"ne","lat":13.1166667,"lon":1.7333333},{"id":1977575,"name":"tientienga","country":"ne","lat":12.8988889,"lon":1.8880556},{"id":1972112,"name":"dyeyban","country":"ne","lat":13.3,"lon":1.8166667},{"id":1976092,"name":"moli haousa","country":"ne","lat":12.5333333,"lon":2.3166667},{"id":1978052,"name":"wadi soudou","country":"ne","lat":12.7833333,"lon":2.0},{"id":1971013,"name":"bountioulou","country":"ne","lat":13.0833333,"lon":1.7333333},{"id":1975448,"name":"litore","country":"ne","lat":13.43,"lon":2.1958333},{"id":1972259,"name":"fantafaouta","country":"ne","lat":13.2833333,"lon":1.9666667},{"id":239475,"name":"poupyena","country":"bf","lat":12.5333333,"lon":1.95},{"id":1970817,"name":"boguel","country":"ne","lat":13.2333333,"lon":1.9833333},{"id":1976463,"name":"pogogdji","country":"ne","lat":13.1,"lon":1.7666667},{"id":1978253,"name":"youri say","country":"ne","lat":13.3066667,"lon":2.2283333},{"id":1972337,"name":"fete kide","country":"ne","lat":13.2,"lon":2.3333333},{"id":1976858,"name":"sekire","country":"ne","lat":13.45,"lon":2.1833333},{"id":1976293,"name":"nonbokoli","country":"ne","lat":12.7333333,"lon":1.9833333},{"id":1978118,"name":"winde bidji","country":"ne","lat":13.2,"lon":1.9666667},{"id":1974730,"name":"kobouri","country":"ne","lat":12.9833333,"lon":2.15},{"id":239420,"name":"pori","country":"bf","lat":12.5833333,"lon":2.0333333},{"id":1970464,"name":"bani goungou","country":"ne","lat":13.4275,"lon":2.1672222},{"id":1975439,"name":"lilo","country":"ne","lat":12.8833333,"lon":2.0333333},{"id":1970811,"name":"bogodji","country":"ne","lat":13.0833333,"lon":2.0833333},{"id":1972526,"name":"gamkalle","country":"ne","lat":13.4936111,"lon":2.1408333},{"id":1973152,"name":"gonzare","country":"ne","lat":13.4611111,"lon":2.2369444},{"id":1974043,"name":"iboye","country":"ne","lat":13.3833333,"lon":1.9},{"id":1974448,"name":"karal","country":"ne","lat":13.2833333,"lon":2.0},{"id":238898,"name":"oukoulerou","country":"bf","lat":12.7166667,"lon":2.0833333},{"id":1971668,"name":"delewa","country":"ne","lat":13.3669444,"lon":2.2886111},{"id":1977806,"name":"torodi","country":"ne","lat":13.1191667,"lon":1.7994444},{"id":1973203,"name":"goubel","country":"ne","lat":13.3727778,"lon":2.1883333},{"id":1971825,"name":"dioga","country":"ne","lat":13.1166667,"lon":1.75},{"id":1972108,"name":"dyemeykoyire","country":"ne","lat":13.3333333,"lon":1.8},{"id":1971857,"name":"disiride","country":"ne","lat":12.9166667,"lon":2.1},{"id":1977023,"name":"soudingo","country":"ne","lat":12.6666667,"lon":2.25},{"id":1975701,"name":"mallaley","country":"ne","lat":13.4158333,"lon":2.1780556},{"id":1972121,"name":"dyongore","country":"ne","lat":12.95,"lon":2.2666667},{"id":1978009,"name":"tyampelgore","country":"ne","lat":13.05,"lon":1.95},{"id":1970642,"name":"beika","country":"ne","lat":13.2333333,"lon":2.1166667},{"id":1970747,"name":"birizanza","country":"ne","lat":13.4794444,"lon":2.3358333},{"id":1971649,"name":"deguema","country":"ne","lat":12.7166667,"lon":1.5166667},{"id":1971827,"name":"diolai","country":"ne","lat":13.1261111,"lon":2.0444444},{"id":1978023,"name":"tyelol tenga","country":"ne","lat":12.75,"lon":1.8666667},{"id":1969726,"name":"addare","country":"ne","lat":13.1,"lon":1.9166667},{"id":1971643,"name":"debon","country":"ne","lat":13.25,"lon":2.3166667},{"id":1969917,"name":"alore","country":"ne","lat":13.0833333,"lon":2.3166667},{"id":238002,"name":"naboula","country":"bf","lat":12.5,"lon":2.0333333},{"id":1976285,"name":"nikoye","country":"ne","lat":13.05,"lon":1.7333333},{"id":1977680,"name":"tokara","country":"ne","lat":13.3833333,"lon":2.2},{"id":1974438,"name":"karadje","country":"ne","lat":13.4936111,"lon":2.0908333},{"id":236774,"name":"koukankangou","country":"bf","lat":12.6333333,"lon":2.15},{"id":1978117,"name":"winde beri","country":"ne","lat":13.3305556,"lon":2.4363889},{"id":1972109,"name":"dyepenga","country":"ne","lat":12.9,"lon":1.8833333},{"id":1978024,"name":"tyelol","country":"ne","lat":13.3,"lon":1.7833333},{"id":1974905,"name":"kongou zarma","country":"ne","lat":13.3013889,"lon":2.3486111},{"id":1970297,"name":"bahonndou","country":"ne","lat":13.4666667,"lon":1.6666667},{"id":1977656,"name":"tirga","country":"ne","lat":13.2,"lon":1.9166667},{"id":1976866,"name":"senoubimpo","country":"ne","lat":13.2833333,"lon":1.9166667},{"id":1976197,"name":"nanbityi","country":"ne","lat":12.8833333,"lon":1.5166667},{"id":1970948,"name":"bougoum","country":"ne","lat":13.4333333,"lon":1.9833333},{"id":1975043,"name":"koubo","country":"ne","lat":13.1,"lon":1.8166667},{"id":237046,"name":"koyanga","country":"bf","lat":12.65,"lon":2.0166667},{"id":237611,"name":"mandiari","country":"bf","lat":12.6,"lon":1.9666667},{"id":1969840,"name":"alambare ouro alifone","country":"ne","lat":12.6833333,"lon":2.2666667},{"id":1978254,"name":"youri","country":"ne","lat":13.3355556,"lon":2.2455556},{"id":233668,"name":"boupengou","country":"bf","lat":12.5333333,"lon":1.6333333},{"id":1975005,"name":"kotaki","country":"ne","lat":12.9333333,"lon":2.0333333},{"id":1972104,"name":"dyaye","country":"ne","lat":12.9166667,"lon":1.5},{"id":1970942,"name":"boudourio","country":"ne","lat":13.1666667,"lon":2.2833333},{"id":1972289,"name":"farezedo","country":"ne","lat":12.7833333,"lon":2.4666667},{"id":1973301,"name":"gouria","country":"ne","lat":13.15,"lon":1.65},{"id":236568,"name":"kopendi","country":"bf","lat":12.5833333,"lon":1.7833333},{"id":1975465,"name":"longare","country":"ne","lat":13.1833333,"lon":1.7},{"id":1974395,"name":"kanlayenou","country":"ne","lat":12.7,"lon":2.1833333},{"id":240114,"name":"seneguele","country":"bf","lat":12.6666667,"lon":2.0},{"id":1978005,"name":"tyala","country":"ne","lat":12.8833333,"lon":2.25},{"id":1970512,"name":"banteri","country":"ne","lat":12.8666667,"lon":1.7},{"id":1976254,"name":"ngorouwa","country":"ne","lat":13.35,"lon":1.9333333},{"id":1970568,"name":"barkia","country":"ne","lat":13.0666667,"lon":2.0666667},{"id":1970812,"name":"bogol","country":"ne","lat":13.3525,"lon":2.3977778},{"id":1971814,"name":"diney","country":"ne","lat":12.7166667,"lon":2.3333333},{"id":232885,"name":"batagne","country":"bf","lat":12.5166667,"lon":1.7333333},{"id":1976407,"name":"ouro boyombo","country":"ne","lat":13.1,"lon":2.0},{"id":237615,"name":"mandyari","country":"bf","lat":12.6,"lon":2.0333333},{"id":1973146,"name":"gongoube","country":"ne","lat":12.8166667,"lon":1.7333333},{"id":1975125,"name":"koulou kwara","country":"ne","lat":13.3941667,"lon":2.2075},{"id":233446,"name":"boto","country":"bf","lat":12.665,"lon":2.0519444},{"id":1974978,"name":"korontanga","country":"ne","lat":13.15,"lon":1.95},{"id":1976426,"name":"ouro sawabe","country":"ne","lat":13.2166667,"lon":1.8833333},{"id":1976450,"name":"panoma","country":"ne","lat":13.05,"lon":1.8166667},{"id":238249,"name":"natabouanga","country":"bf","lat":12.5666667,"lon":1.9666667},{"id":1977568,"name":"tiendi farou","country":"ne","lat":13.4005556,"lon":2.1966667},{"id":1975469,"name":"lontia keyna","country":"ne","lat":13.1166667,"lon":2.3333333},{"id":1977746,"name":"tondifou","country":"ne","lat":13.0833333,"lon":2.4666667},{"id":1971583,"name":"daoundou","country":"ne","lat":13.25,"lon":1.75},{"id":1971217,"name":"daloue","country":"ne","lat":13.1666667,"lon":2.3166667},{"id":1977047,"name":"sounga beri","country":"ne","lat":12.9,"lon":2.4},{"id":1976998,"name":"songole","country":"ne","lat":13.0666667,"lon":1.7333333},{"id":1976468,"name":"powali","country":"ne","lat":12.6833333,"lon":1.8333333},{"id":1977053,"name":"sounga","country":"ne","lat":12.8833333,"lon":2.4333333},{"id":1975255,"name":"koyirya","country":"ne","lat":13.1,"lon":1.7833333},{"id":1976433,"name":"ourotyaka","country":"ne","lat":12.7333333,"lon":1.9666667},{"id":1976967,"name":"sissan","country":"ne","lat":12.85,"lon":2.2333333},{"id":1977893,"name":"toulware","country":"ne","lat":13.3,"lon":1.9333333},{"id":1970457,"name":"banidyoumbou","country":"ne","lat":13.1166667,"lon":1.8666667},{"id":1978022,"name":"tyelol doundoundie","country":"ne","lat":12.75,"lon":1.9166667},{"id":1971626,"name":"dar salam","country":"ne","lat":12.7666667,"lon":2.0166667},{"id":1970283,"name":"bagnobangou","country":"ne","lat":12.7666667,"lon":2.4666667},{"id":1972098,"name":"dyamyowe","country":"ne","lat":13.25,"lon":1.85},{"id":1976408,"name":"ouro dioube","country":"ne","lat":13.1,"lon":1.9},{"id":1976961,"name":"sirimbana","country":"ne","lat":13.1,"lon":1.8},{"id":1976377,"name":"oulendyan","country":"ne","lat":13.2833333,"lon":1.9},{"id":1975103,"name":"koulbori","country":"ne","lat":12.8,"lon":1.7166667},{"id":1974732,"name":"kobyon","country":"ne","lat":13.15,"lon":1.7666667},{"id":1970513,"name":"bantoulare","country":"ne","lat":12.85,"lon":2.0333333},{"id":241085,"name":"tantyana","country":"bf","lat":12.65,"lon":1.9333333},{"id":234969,"name":"gangana","country":"bf","lat":12.6833333,"lon":2.0666667},{"id":1977254,"name":"talladje","country":"ne","lat":13.4944444,"lon":2.1541667},{"id":1976294,"name":"nordire","country":"ne","lat":13.4913889,"lon":2.0683333},{"id":1970849,"name":"bomanga","country":"ne","lat":12.9666667,"lon":1.55},{"id":1977655,"name":"tiraferi","country":"ne","lat":12.95,"lon":2.4},{"id":1977318,"name":"tanmpanda rimaybe","country":"ne","lat":12.7666667,"lon":2.1},{"id":1976428,"name":"ouro sena","country":"ne","lat":13.2333333,"lon":2.2666667},{"id":1973912,"name":"guidel","country":"ne","lat":13.3333333,"lon":1.6666667},{"id":239140,"name":"partyaga","country":"bf","lat":12.6166667,"lon":2.0166667},{"id":1974793,"name":"koka","country":"ne","lat":13.4166667,"lon":1.75},{"id":1973367,"name":"guesse doundou","country":"ne","lat":12.8666667,"lon":1.7666667},{"id":1978123,"name":"winde korkoye","country":"ne","lat":13.15,"lon":2.3833333},{"id":1976897,"name":"serkire zarma","country":"ne","lat":13.4394444,"lon":2.1763889},{"id":1974722,"name":"kobio","country":"ne","lat":13.2166667,"lon":1.7},{"id":1972099,"name":"dyatyano","country":"ne","lat":13.2166667,"lon":1.8},{"id":1970503,"name":"bankata","country":"ne","lat":12.85,"lon":1.6666667},{"id":235813,"name":"kampyagui","country":"bf","lat":12.6,"lon":1.5666667},{"id":1976307,"name":"nyagoumaro","country":"ne","lat":13.3666667,"lon":1.9333333},{"id":1970801,"name":"bodyol","country":"ne","lat":12.9666667,"lon":1.65},{"id":234912,"name":"foveli","country":"bf","lat":12.5833333,"lon":1.9166667},{"id":1977288,"name":"tamu","country":"ne","lat":12.7491667,"lon":2.1736111}]});