callback({"markets":[{"id":2512565,"name":"shala","country":"ru","lat":61.796985,"lon":36.016799},{"id":2544253,"name":"unoyguba","country":"ru","lat":61.933333,"lon":35.883333},{"id":2467253,"name":"nikitinskaya","country":"ru","lat":61.983333,"lon":35.9},{"id":2408784,"name":"ismaki","country":"ru","lat":62.05,"lon":36.2},{"id":2467045,"name":"nigizhma","country":"ru","lat":61.669561,"lon":36.35831},{"id":2498579,"name":"pudozhgora-gorskaya","country":"ru","lat":62.283333,"lon":35.9},{"id":2460530,"name":"mokeyevskaya","country":"ru","lat":62.293607,"lon":35.900742},{"id":2455899,"name":"matkozha","country":"ru","lat":62.066667,"lon":36.083333},{"id":2427985,"name":"koppolozero","country":"ru","lat":62.166667,"lon":36.316667},{"id":2571150,"name":"zhilaya tambitsa","country":"ru","lat":62.493542,"lon":36.154594},{"id":2518116,"name":"silevskaya","country":"ru","lat":61.566667,"lon":36.45},{"id":2381953,"name":"burakovo","country":"ru","lat":62.022539,"lon":36.08041},{"id":2503518,"name":"roslyakovo","country":"ru","lat":61.666667,"lon":36.316667},{"id":2414057,"name":"karelgrani","country":"ru","lat":61.833333,"lon":36.15},{"id":2440285,"name":"kuzaranda-velikiye nivy","country":"ru","lat":62.366667,"lon":35.516667},{"id":2421838,"name":"kiprovniemi","country":"ru","lat":62.1,"lon":36.2},{"id":2416948,"name":"kerson","country":"ru","lat":61.816667,"lon":35.866667},{"id":2566883,"name":"zagubye","country":"ru","lat":62.166667,"lon":36.05},{"id":2441509,"name":"ladina","country":"ru","lat":62.033333,"lon":36.116667},{"id":2487672,"name":"peschanoye-kostinskaya","country":"ru","lat":62.154183,"lon":35.796742},{"id":2498590,"name":"pudozhskaya gora","country":"ru","lat":62.318284,"lon":35.860943},{"id":2428215,"name":"korchaginskaya","country":"ru","lat":61.666667,"lon":36.4},{"id":2540556,"name":"tuba","country":"ru","lat":62.251223,"lon":35.830922},{"id":2444869,"name":"lindema","country":"ru","lat":62.266667,"lon":35.583333},{"id":2505917,"name":"ryndozero","country":"ru","lat":62.133333,"lon":36.2},{"id":2417991,"name":"kharlovo","country":"ru","lat":61.583333,"lon":36.45},{"id":2535385,"name":"terebovskaya","country":"ru","lat":61.808031,"lon":36.043848},{"id":2365129,"name":"avdeyevskaya","country":"ru","lat":62.013224,"lon":36.051639},{"id":2457273,"name":"melentyevskaya","country":"ru","lat":62.029428,"lon":35.988},{"id":2456081,"name":"matveyevskaya nigizhma","country":"ru","lat":61.666667,"lon":36.35},{"id":2498588,"name":"pudozhgora-ulyanovskaya","country":"ru","lat":62.3,"lon":35.9},{"id":2487681,"name":"peschanoye","country":"ru","lat":62.166221,"lon":35.794856},{"id":2397002,"name":"filimonovskaya","country":"ru","lat":61.790835,"lon":36.477215},{"id":2487671,"name":"peschanoye-konnovskaya","country":"ru","lat":62.166667,"lon":35.8},{"id":2488507,"name":"petrovo","country":"ru","lat":62.37648,"lon":35.53972},{"id":2440276,"name":"kuzaranda-kargachevo","country":"ru","lat":62.35,"lon":35.55},{"id":2547863,"name":"valkeamaki","country":"ru","lat":62.195613,"lon":35.992801},{"id":2566882,"name":"zagubskaya","country":"ru","lat":62.066667,"lon":35.983333},{"id":2500228,"name":"ragnuksa","country":"ru","lat":62.006046,"lon":36.42716},{"id":2571375,"name":"zhitnitsa","country":"ru","lat":62.433333,"lon":35.566667},{"id":2379942,"name":"botselovo","country":"ru","lat":61.849542,"lon":36.238472},{"id":2421597,"name":"kilpoga","country":"ru","lat":62.05,"lon":36.05},{"id":2560370,"name":"yakusheva","country":"ru","lat":61.683228,"lon":36.303025},{"id":2447517,"name":"lukostrov","country":"ru","lat":61.966667,"lon":35.733333},{"id":2440277,"name":"kuzaranda","country":"ru","lat":62.356024,"lon":35.541018},{"id":2440286,"name":"kuzaranda-yusova gora","country":"ru","lat":62.383333,"lon":35.533333},{"id":2371857,"name":"besov nos","country":"ru","lat":61.666667,"lon":36.05},{"id":2360447,"name":"alekseyevskaya","country":"ru","lat":61.666667,"lon":36.366667},{"id":2491713,"name":"podporozhye","country":"ru","lat":61.823458,"lon":36.372796},{"id":2360420,"name":"alekseyevo","country":"ru","lat":62.038299,"lon":36.027565},{"id":2510306,"name":"semenovo","country":"ru","lat":61.826233,"lon":36.132666},{"id":2488746,"name":"petrushevskaya","country":"ru","lat":62.028331,"lon":35.852736},{"id":2533039,"name":"tambitsajoki","country":"ru","lat":62.233333,"lon":35.55},{"id":2549575,"name":"velikodvorskaya","country":"ru","lat":61.566667,"lon":36.433333},{"id":2487673,"name":"peschanoye-krezhevskaya","country":"ru","lat":62.15,"lon":35.8},{"id":2397919,"name":"gabnavolok","country":"ru","lat":62.232608,"lon":35.57049},{"id":2366861,"name":"baldina gora","country":"ru","lat":62.112795,"lon":36.220472},{"id":2410294,"name":"jalkaselka","country":"ru","lat":62.087674,"lon":35.756491},{"id":2424945,"name":"kodatsi","country":"ru","lat":62.432627,"lon":35.86231},{"id":2458469,"name":"mikhalevskaya","country":"ru","lat":61.583333,"lon":36.433333},{"id":2440278,"name":"kuzaranda-lisitsino","country":"ru","lat":62.35,"lon":35.533333},{"id":2499502,"name":"pyalma","country":"ru","lat":62.4016,"lon":35.8917},{"id":2455089,"name":"marnaniemi","country":"ru","lat":62.005119,"lon":35.73675},{"id":2487694,"name":"peschanoye-siverskaya","country":"ru","lat":62.166667,"lon":35.783333},{"id":2465861,"name":"nefedovskaja","country":"ru","lat":62.110785,"lon":36.202088},{"id":2498584,"name":"pudozhgora-rimskaya","country":"ru","lat":62.318552,"lon":35.932968},{"id":2440282,"name":"kuzaranda-shilovo","country":"ru","lat":62.383333,"lon":35.516667},{"id":2358552,"name":"afanasyevskaya","country":"ru","lat":61.829111,"lon":36.365515},{"id":2556465,"name":"voroniy ostrov","country":"ru","lat":62.181825,"lon":35.506703},{"id":2506214,"name":"saarijarvi","country":"ru","lat":61.983333,"lon":36.333333},{"id":2499131,"name":"pustoshkina-melnitsa","country":"ru","lat":61.933333,"lon":35.95},{"id":2500227,"name":"ragnozero","country":"ru","lat":62.117977,"lon":36.483502},{"id":2440280,"name":"kuzaranda-myalzino","country":"ru","lat":62.366667,"lon":35.533333},{"id":2385913,"name":"chernorechenskiy","country":"ru","lat":61.731595,"lon":36.453757},{"id":2384276,"name":"chazhva","country":"ru","lat":61.983333,"lon":35.816667}]});