callback({"markets":[{"id":1648435,"name":"l\u0027vovskoye","country":"kz","lat":53.243056,"lon":76.5025},{"id":1644115,"name":"dvadtsat\u0027 pyat\u0027 let oktyabrya","country":"kz","lat":52.633333,"lon":76.533333},{"id":1650207,"name":"petrovskoye","country":"kz","lat":52.516667,"lon":77.133333},{"id":1644898,"name":"imeni kalinina","country":"kz","lat":52.55,"lon":76.6},{"id":1644101,"name":"dukhovnitskiy","country":"kz","lat":52.633333,"lon":77.05},{"id":1652551,"name":"svetlichnoye","country":"kz","lat":53.382778,"lon":76.519167},{"id":1645586,"name":"kara-chilik","country":"kz","lat":52.844167,"lon":76.915},{"id":1650791,"name":"ravnopol\u0027ye","country":"kz","lat":52.783333,"lon":77.233333},{"id":1644778,"name":"il\u0027ichevka","country":"kz","lat":53.098056,"lon":77.449167},{"id":1643663,"name":"chernoyarskiy","country":"kz","lat":52.516667,"lon":76.85},{"id":1650902,"name":"rozovka","country":"kz","lat":52.6,"lon":77.433333},{"id":1652939,"name":"tavolzhan","country":"kz","lat":52.708333,"lon":77.4525},{"id":1648406,"name":"lugansk","country":"kz","lat":52.633333,"lon":77.333333},{"id":1648931,"name":"miloradovka","country":"kz","lat":53.166667,"lon":77.283333},{"id":1648619,"name":"malyy bereznyaki","country":"kz","lat":53.497222,"lon":77.208611},{"id":1649797,"name":"ol\u0027ginskoye","country":"kz","lat":52.916667,"lon":76.966667},{"id":1642769,"name":"berezovskiy","country":"kz","lat":53.435278,"lon":76.838611},{"id":1645700,"name":"karakol\u0027","country":"kz","lat":52.843889,"lon":76.595278},{"id":1644068,"name":"dostyk","country":"kz","lat":52.781111,"lon":76.650833},{"id":1649803,"name":"ol\u0027khovskoye","country":"kz","lat":52.95,"lon":77.116667},{"id":1644611,"name":"glubokoye","country":"kz","lat":52.716667,"lon":76.816667},{"id":1654799,"name":"zhaksen\u0027","country":"kz","lat":53.384167,"lon":76.798056},{"id":1644715,"name":"grigor\u0027yevka","country":"kz","lat":52.616667,"lon":76.733333},{"id":1645031,"name":"imeni timiryazeva","country":"kz","lat":53.071111,"lon":76.975833},{"id":1643174,"name":"borisovskiy","country":"kz","lat":52.878333,"lon":76.98},{"id":1643878,"name":"danilovskoye","country":"kz","lat":52.5,"lon":77.483333},{"id":1652571,"name":"sychevka","country":"kz","lat":52.6,"lon":76.75},{"id":1648807,"name":"maymasor","country":"kz","lat":53.321389,"lon":76.951944},{"id":1650407,"name":"presnyy","country":"kz","lat":52.858611,"lon":76.544444},{"id":1649243,"name":"natashino","country":"kz","lat":52.909167,"lon":76.975556},{"id":1643650,"name":"chernoretskoe","country":"kz","lat":52.748333,"lon":76.651944},{"id":1653317,"name":"travyanka","country":"kz","lat":52.983333,"lon":77.266667},{"id":1651131,"name":"sarbiya","country":"kz","lat":53.15,"lon":77.016667},{"id":1654355,"name":"yefremovskiy","country":"kz","lat":52.516667,"lon":77.333333},{"id":1642711,"name":"belousovskoye","country":"kz","lat":52.935278,"lon":77.313056},{"id":1642706,"name":"belotserkovka","country":"kz","lat":53.083333,"lon":77.433333},{"id":1644491,"name":"fedotovskoye","country":"kz","lat":52.6,"lon":77.4},{"id":1655229,"name":"zhaylyauagach","country":"kz","lat":53.430833,"lon":77.099444},{"id":1649200,"name":"naberezhnoye","country":"kz","lat":52.675,"lon":76.712778},{"id":1644528,"name":"frument\u0027yevka","country":"kz","lat":53.260556,"lon":76.713056},{"id":1653146,"name":"timofeyevskoye","country":"kz","lat":53.341667,"lon":76.514167},{"id":1655330,"name":"zhidkovskiy","country":"kz","lat":52.559444,"lon":76.587222},{"id":1653171,"name":"tleubay","country":"kz","lat":53.034167,"lon":76.659444},{"id":1653896,"name":"uspenskoye","country":"kz","lat":52.910556,"lon":77.4325},{"id":1654203,"name":"voskresenka","country":"kz","lat":53.353611,"lon":76.706389},{"id":1645564,"name":"karabura","country":"kz","lat":53.066667,"lon":77.016667},{"id":1648118,"name":"kyzyltan","country":"kz","lat":52.919722,"lon":76.510556},{"id":1643022,"name":"bogdanovskoye","country":"kz","lat":52.6,"lon":77.233333},{"id":1644076,"name":"drug-pakharya","country":"kz","lat":52.516667,"lon":76.65},{"id":1646981,"name":"konstantinovskiy","country":"kz","lat":52.786667,"lon":77.223889}]});