callback({"markets":[{"id":2094501,"name":"longmon","country":"pg","lat":-6.1,"lon":147.0333333},{"id":2089222,"name":"bulcara","country":"pg","lat":-5.9,"lon":146.9333333},{"id":2092045,"name":"kabwum","country":"pg","lat":-6.15,"lon":147.1833333},{"id":2098475,"name":"singorokai","country":"pg","lat":-5.8666667,"lon":146.9166667},{"id":2101317,"name":"zanggung","country":"pg","lat":-6.4,"lon":147.3},{"id":2096337,"name":"nian","country":"pg","lat":-5.95,"lon":146.6},{"id":2094872,"name":"mamguk","country":"pg","lat":-5.7166667,"lon":146.55},{"id":2101043,"name":"yapang","country":"pg","lat":-6.4333333,"lon":147.4666667},{"id":2101339,"name":"zitari","country":"pg","lat":-6.4333333,"lon":147.0166667},{"id":2098100,"name":"satneng","country":"pg","lat":-6.4333333,"lon":147.45},{"id":2088216,"name":"badibo","country":"pg","lat":-6.4333333,"lon":146.75},{"id":2097361,"name":"podzorong","country":"pg","lat":-6.3833333,"lon":147.4333333},{"id":2101093,"name":"yaut","country":"pg","lat":-5.8333333,"lon":146.5833333},{"id":2096251,"name":"nemau hamlet","country":"pg","lat":-5.9,"lon":146.95},{"id":2097982,"name":"sambori","country":"pg","lat":-6.1333333,"lon":147.2833333},{"id":2089628,"name":"dengando","country":"pg","lat":-6.2,"lon":147.1666667},{"id":2088717,"name":"bibera","country":"pg","lat":-6.4333333,"lon":146.6333333},{"id":2098278,"name":"seure","country":"pg","lat":-5.7166667,"lon":146.5833333},{"id":2095342,"name":"mengan","country":"pg","lat":-5.9833333,"lon":146.55},{"id":2098734,"name":"suevitne","country":"pg","lat":-6.4333333,"lon":147.4333333},{"id":2099302,"name":"timowong","country":"pg","lat":-6.1833333,"lon":147.0666667},{"id":2092566,"name":"kasanombe","country":"pg","lat":-6.3666667,"lon":147.0166667},{"id":2089775,"name":"domut","country":"pg","lat":-6.1,"lon":147.1666667},{"id":2096272,"name":"nengit","country":"pg","lat":-6.3833333,"lon":147.4666667},{"id":2094577,"name":"luya","country":"pg","lat":-5.6666667,"lon":146.55},{"id":2096084,"name":"nambariwa","country":"pg","lat":-5.95,"lon":147.3666667},{"id":2099015,"name":"tapen","country":"pg","lat":-5.85,"lon":146.6166667},{"id":2090933,"name":"gwang","country":"pg","lat":-6.45,"lon":146.6333333},{"id":2091676,"name":"indagen","country":"pg","lat":-6.2333333,"lon":147.25},{"id":2099223,"name":"teptep","country":"pg","lat":-5.95,"lon":146.5666667},{"id":2099870,"name":"upat","country":"pg","lat":-6.2166667,"lon":147.1833333},{"id":2088856,"name":"boana","country":"pg","lat":-6.4333333,"lon":146.8166667},{"id":2094110,"name":"labisap","country":"pg","lat":-6.35,"lon":146.6666667},{"id":2094224,"name":"langa","country":"pg","lat":-6.1666667,"lon":147.25},{"id":2090608,"name":"gitukia","country":"pg","lat":-6.0833333,"lon":147.4833333},{"id":2096357,"name":"nimbako","country":"pg","lat":-6.1166667,"lon":147.25},{"id":2094851,"name":"mama","country":"pg","lat":-6.3666667,"lon":146.5833333},{"id":2090760,"name":"gotet","country":"pg","lat":-6.15,"lon":146.85},{"id":2091293,"name":"hongo","country":"pg","lat":-6.05,"lon":147.1833333},{"id":2089558,"name":"darongge","country":"pg","lat":-5.8833333,"lon":146.8333333},{"id":2095906,"name":"mur","country":"pg","lat":-5.65,"lon":146.5166667},{"id":2088121,"name":"avengu","country":"pg","lat":-6.3666667,"lon":147.3833333},{"id":2096374,"name":"nineia","country":"pg","lat":-5.9166667,"lon":146.9},{"id":2088756,"name":"bilga","country":"pg","lat":-6.4666667,"lon":146.7166667},{"id":2090352,"name":"ganma","country":"pg","lat":-6.1333333,"lon":146.5833333},{"id":2097958,"name":"samanzing","country":"pg","lat":-6.4833333,"lon":147.0666667},{"id":2092448,"name":"kapungapang","country":"pg","lat":-5.8166667,"lon":146.5333333},{"id":2098142,"name":"scharnhorst","country":"pg","lat":-5.9666667,"lon":147.4333333},{"id":2095493,"name":"mindik","country":"pg","lat":-6.4666667,"lon":147.4333333},{"id":2098048,"name":"sape","country":"pg","lat":-6.2166667,"lon":147.2},{"id":2100409,"name":"wanimbun","country":"pg","lat":-6.2666667,"lon":146.5666667},{"id":2098114,"name":"saungne","country":"pg","lat":-6.1833333,"lon":147.25},{"id":2097972,"name":"sambangan","country":"pg","lat":-6.2166667,"lon":147.1166667},{"id":2093228,"name":"koilil","country":"pg","lat":-6.4166667,"lon":147.3},{"id":2093420,"name":"konimbo","country":"pg","lat":-6.1666667,"lon":147.2166667},{"id":2099537,"name":"tubup","country":"pg","lat":-5.9166667,"lon":146.5666667},{"id":2100449,"name":"wap","country":"pg","lat":-6.1333333,"lon":147.2166667},{"id":2100629,"name":"wekae","country":"pg","lat":-6.1666667,"lon":147.1833333},{"id":2091164,"name":"hendeneng","country":"pg","lat":-6.4166667,"lon":147.4333333},{"id":2089616,"name":"delbangat","country":"pg","lat":-5.7333333,"lon":146.5166667},{"id":2100134,"name":"wadabo","country":"pg","lat":-5.9,"lon":146.65},{"id":2091301,"name":"honziuknan","country":"pg","lat":-6.2,"lon":147.0833333},{"id":2100344,"name":"wampangan","country":"pg","lat":-6.4,"lon":146.85},{"id":2087841,"name":"aregenang","country":"pg","lat":-6.4833333,"lon":147.4},{"id":2100544,"name":"wasikokop","country":"pg","lat":-5.9666667,"lon":146.55},{"id":2090504,"name":"geraun","country":"pg","lat":-6.25,"lon":147.2333333},{"id":2094189,"name":"lama","country":"pg","lat":-6.2333333,"lon":147.2166667},{"id":2091816,"name":"isosargan","country":"pg","lat":-6.3833333,"lon":146.8333333},{"id":2093099,"name":"kisenden","country":"pg","lat":-6.35,"lon":146.7166667},{"id":2093698,"name":"kulavi","country":"pg","lat":-5.9666667,"lon":147.25},{"id":2098102,"name":"satpagna","country":"pg","lat":-6.15,"lon":147.2833333},{"id":2091533,"name":"igom","country":"pg","lat":-6.3166667,"lon":146.6333333},{"id":2092578,"name":"kasin","country":"pg","lat":-6.4166667,"lon":146.7666667},{"id":2100700,"name":"windiluk","country":"pg","lat":-5.8833333,"lon":146.6333333},{"id":2090112,"name":"ezanko","country":"pg","lat":-6.0333333,"lon":147.4833333},{"id":2094198,"name":"lambaip","country":"pg","lat":-6.4666667,"lon":146.9166667},{"id":2097523,"name":"puleng","country":"pg","lat":-6.25,"lon":147.3},{"id":2098201,"name":"sel","country":"pg","lat":-5.6833333,"lon":146.5666667},{"id":2093818,"name":"kumukio","country":"pg","lat":-6.05,"lon":147.4},{"id":2098196,"name":"selimbeng","country":"pg","lat":-6.4666667,"lon":147.3666667},{"id":2088994,"name":"bonggi","country":"pg","lat":-6.0166667,"lon":147.0333333},{"id":2101110,"name":"yawan","country":"pg","lat":-6.1333333,"lon":146.8666667},{"id":2090786,"name":"gua","country":"pg","lat":-5.9666667,"lon":146.5666667},{"id":2089256,"name":"bumbu","country":"pg","lat":-5.8666667,"lon":146.5},{"id":2091162,"name":"hem","country":"pg","lat":-6.1,"lon":147.0666667},{"id":2093552,"name":"koru","country":"pg","lat":-6.4,"lon":147.4166667},{"id":2095684,"name":"monara","country":"pg","lat":-5.7166667,"lon":146.5166667},{"id":2092765,"name":"keili","country":"pg","lat":-6.4666667,"lon":147.3166667},{"id":2096164,"name":"narawum","country":"pg","lat":-5.9,"lon":146.6166667},{"id":2094785,"name":"malalamai","country":"pg","lat":-5.75,"lon":146.65},{"id":2088984,"name":"boneia","country":"pg","lat":-5.9333333,"lon":146.85},{"id":2101331,"name":"zewitzan","country":"pg","lat":-6.4166667,"lon":147.3333333},{"id":2088419,"name":"bandit","country":"pg","lat":-5.6666667,"lon":146.5166667},{"id":2092588,"name":"kasu","country":"pg","lat":-5.6833333,"lon":146.5166667},{"id":2098419,"name":"simbeng","country":"pg","lat":-6.4333333,"lon":147.3333333},{"id":2090678,"name":"golangke","country":"pg","lat":-6.15,"lon":147.0833333},{"id":2095820,"name":"mula","country":"pg","lat":-6.05,"lon":147.3166667},{"id":2094173,"name":"lalang","country":"pg","lat":-6.3666667,"lon":147.4333333},{"id":2095885,"name":"munkip","country":"pg","lat":-6.45,"lon":146.75},{"id":2093106,"name":"kisituen","country":"pg","lat":-6.35,"lon":147.0166667},{"id":2088240,"name":"bagen","country":"pg","lat":-5.6833333,"lon":146.5},{"id":2090814,"name":"guiarak","country":"pg","lat":-5.7,"lon":146.5166667},{"id":2091643,"name":"imon","country":"pg","lat":-6.1166667,"lon":147.0166667},{"id":2087983,"name":"asolani","country":"pg","lat":-6.25,"lon":146.5},{"id":2093510,"name":"kor","country":"pg","lat":-6.45,"lon":147.3166667},{"id":2095030,"name":"maran","country":"pg","lat":-6.45,"lon":147.35},{"id":2089496,"name":"daku","country":"pg","lat":-6.3,"lon":146.5166667},{"id":2100519,"name":"warit","country":"pg","lat":-6.0833333,"lon":147.1666667},{"id":2092930,"name":"kewieng number 1","country":"pg","lat":-5.9833333,"lon":146.5666667},{"id":2098796,"name":"sunde","country":"pg","lat":-6.0666667,"lon":147.0166667},{"id":2090607,"name":"gitua","country":"pg","lat":-6.0166667,"lon":147.4833333},{"id":2092844,"name":"kepoiak","country":"pg","lat":-5.75,"lon":146.55},{"id":2099102,"name":"tauknawe","country":"pg","lat":-6.2333333,"lon":147.3166667},{"id":2093378,"name":"komutu","country":"pg","lat":-6.1,"lon":147.0},{"id":2098745,"name":"sugu","country":"pg","lat":-6.4,"lon":146.7166667},{"id":2088554,"name":"baup","country":"pg","lat":-5.9333333,"lon":146.6166667},{"id":2099335,"name":"tipsit","country":"pg","lat":-6.2166667,"lon":147.1666667},{"id":2097921,"name":"sakam","country":"pg","lat":-6.15,"lon":146.6833333},{"id":2090260,"name":"gabutamon","country":"pg","lat":-5.8333333,"lon":146.6166667},{"id":2101257,"name":"yowong","country":"pg","lat":-5.9166667,"lon":146.7833333},{"id":2095319,"name":"melandum","country":"pg","lat":-6.1666667,"lon":147.3166667},{"id":2089330,"name":"busian","country":"pg","lat":-6.1666667,"lon":147.0833333},{"id":2091172,"name":"hengune","country":"pg","lat":-6.1666667,"lon":147.1333333},{"id":2098101,"name":"satop","country":"pg","lat":-6.0833333,"lon":147.1833333},{"id":2099499,"name":"towat","country":"pg","lat":-6.0166667,"lon":147.1666667},{"id":2099865,"name":"ununu","country":"pg","lat":-6.2166667,"lon":147.2166667},{"id":2098950,"name":"talmiro","country":"pg","lat":-5.7333333,"lon":146.5666667},{"id":2100840,"name":"wununga","country":"pg","lat":-6.35,"lon":146.6},{"id":2091299,"name":"honpato","country":"pg","lat":-6.0833333,"lon":147.2333333},{"id":2090120,"name":"faigurup","country":"pg","lat":-5.7333333,"lon":146.5333333},{"id":2100902,"name":"yagomi","country":"pg","lat":-5.7333333,"lon":146.6166667},{"id":2088119,"name":"aven","country":"pg","lat":-6.3333333,"lon":146.9666667},{"id":2095895,"name":"mup","country":"pg","lat":-6.15,"lon":146.8},{"id":2098926,"name":"takop","country":"pg","lat":-6.15,"lon":147.0666667},{"id":2089009,"name":"bonkiman","country":"pg","lat":-5.9,"lon":146.6666667},{"id":2090642,"name":"gofan","country":"pg","lat":-6.35,"lon":146.6166667},{"id":2100702,"name":"windluk","country":"pg","lat":-5.8833333,"lon":146.6666667},{"id":2093453,"name":"kopa","country":"pg","lat":-6.2,"lon":147.25},{"id":2093246,"name":"koiyan","country":"pg","lat":-6.1,"lon":147.0166667},{"id":2090464,"name":"gehan","country":"pg","lat":-6.1,"lon":146.5},{"id":2089484,"name":"daia","country":"pg","lat":-6.3166667,"lon":146.7},{"id":2088431,"name":"bangdap","country":"pg","lat":-6.4166667,"lon":146.9166667},{"id":2092944,"name":"kiari","country":"pg","lat":-5.9666667,"lon":147.1833333},{"id":2088599,"name":"belambu","country":"pg","lat":-5.9333333,"lon":147.3},{"id":2087623,"name":"amien","country":"pg","lat":-6.3,"lon":146.95},{"id":2100365,"name":"wanam","country":"pg","lat":-6.25,"lon":147.25},{"id":2093780,"name":"kumdauron","country":"pg","lat":-6.05,"lon":146.8166667},{"id":2098615,"name":"sokelen","country":"pg","lat":-6.3333333,"lon":146.9333333},{"id":2087451,"name":"akandang","country":"pg","lat":-6.3666667,"lon":146.9333333},{"id":2093695,"name":"kulami","country":"pg","lat":-6.0,"lon":147.2833333},{"id":2098039,"name":"sanon","country":"pg","lat":-6.2333333,"lon":147.1666667},{"id":2091549,"name":"iioko","country":"pg","lat":-6.2666667,"lon":147.1666667},{"id":2094281,"name":"laumgei","country":"pg","lat":-6.2,"lon":147.1},{"id":2089377,"name":"bwana","country":"pg","lat":-5.85,"lon":146.65},{"id":2094370,"name":"lengbati","country":"pg","lat":-6.3833333,"lon":147.3666667},{"id":2100805,"name":"worin","country":"pg","lat":-6.1,"lon":146.8166667},{"id":2098562,"name":"siu","country":"pg","lat":-6.3666667,"lon":147.4},{"id":2097295,"name":"pinang","country":"pg","lat":-6.1833333,"lon":147.0833333},{"id":2092718,"name":"kawaren","country":"pg","lat":-6.3666667,"lon":146.8333333},{"id":2099601,"name":"tumung","country":"pg","lat":-6.1666667,"lon":147.1},{"id":2094799,"name":"malasanga","country":"pg","lat":-5.9166667,"lon":147.05},{"id":2094907,"name":"mangam","country":"pg","lat":-6.1666667,"lon":147.3},{"id":2094317,"name":"lebangande","country":"pg","lat":-6.0333333,"lon":147.3},{"id":2092481,"name":"karangan","country":"pg","lat":-6.0666667,"lon":147.2333333},{"id":2098477,"name":"singor","country":"pg","lat":-5.9666667,"lon":147.0833333},{"id":2090735,"name":"gorgiok","country":"pg","lat":-6.0833333,"lon":146.6666667},{"id":2090843,"name":"gumun","country":"pg","lat":-6.2333333,"lon":147.2},{"id":2093927,"name":"kurung","country":"pg","lat":-6.0333333,"lon":147.05},{"id":2100595,"name":"wavit","country":"pg","lat":-6.0333333,"lon":147.1666667},{"id":2090309,"name":"gali 2","country":"pg","lat":-5.8,"lon":146.7333333},{"id":2090556,"name":"giland","country":"pg","lat":-6.2,"lon":147.1833333},{"id":2091795,"name":"isan","country":"pg","lat":-5.9833333,"lon":146.6166667},{"id":2090077,"name":"etep","country":"pg","lat":-6.0333333,"lon":147.2},{"id":2098643,"name":"songgin","country":"pg","lat":-6.1166667,"lon":147.1},{"id":2092040,"name":"kabum","country":"pg","lat":-6.1166667,"lon":147.2333333},{"id":2093762,"name":"kumbip","country":"pg","lat":-6.1166667,"lon":147.3},{"id":2089752,"name":"dokaling","country":"pg","lat":-6.3833333,"lon":146.9833333},{"id":2090530,"name":"gevak","country":"pg","lat":-6.4333333,"lon":146.8833333},{"id":2089257,"name":"bumbu","country":"pg","lat":-6.05,"lon":147.1666667},{"id":2100048,"name":"vincketown","country":"pg","lat":-5.95,"lon":147.2333333},{"id":2095477,"name":"mimi","country":"pg","lat":-6.15,"lon":146.8166667},{"id":2091596,"name":"iloko","country":"pg","lat":-6.2333333,"lon":147.1833333},{"id":2100558,"name":"wasu","country":"pg","lat":-5.9666667,"lon":147.2},{"id":2090686,"name":"gomando","country":"pg","lat":-6.1666667,"lon":147.05},{"id":2089282,"name":"bungalumba","country":"pg","lat":-6.4333333,"lon":147.05},{"id":2089497,"name":"dakum","country":"pg","lat":-6.2666667,"lon":146.55},{"id":2096777,"name":"onggake","country":"pg","lat":-6.1833333,"lon":147.1},{"id":2090048,"name":"erendengan","country":"pg","lat":-6.1833333,"lon":147.2},{"id":2098367,"name":"sikam","country":"pg","lat":-6.2166667,"lon":147.2333333},{"id":2101056,"name":"yara","country":"pg","lat":-5.7666667,"lon":146.6666667},{"id":2098311,"name":"siang","country":"pg","lat":-5.9833333,"lon":146.9666667},{"id":2101289,"name":"yunggu","country":"pg","lat":-6.1333333,"lon":147.0333333},{"id":2088890,"name":"bogeba","country":"pg","lat":-6.35,"lon":146.5333333},{"id":2097776,"name":"roinji","country":"pg","lat":-5.85,"lon":146.7833333},{"id":2090169,"name":"finungwa","country":"pg","lat":-6.3333333,"lon":146.6166667},{"id":2087604,"name":"amelingan","country":"pg","lat":-6.05,"lon":146.9666667},{"id":2093555,"name":"korumba","country":"pg","lat":-6.4,"lon":147.4333333},{"id":2090899,"name":"gusak","country":"pg","lat":-6.3,"lon":146.65},{"id":2096421,"name":"nomanene","country":"pg","lat":-6.4166667,"lon":147.3166667},{"id":2092322,"name":"kampepe","country":"pg","lat":-6.4333333,"lon":146.5833333},{"id":2099752,"name":"ulap","country":"pg","lat":-5.9833333,"lon":146.95},{"id":2091043,"name":"hamdingnan","country":"pg","lat":-6.0333333,"lon":146.9},{"id":2089832,"name":"dubi","country":"pg","lat":-6.45,"lon":147.3333333},{"id":2089053,"name":"boroke","country":"pg","lat":-6.15,"lon":147.1166667},{"id":2090356,"name":"ganzengan","country":"pg","lat":-6.3666667,"lon":146.85},{"id":2090365,"name":"garamboin","country":"pg","lat":-6.2666667,"lon":146.5833333},{"id":2095579,"name":"moam","country":"pg","lat":-5.8166667,"lon":146.6666667},{"id":2091684,"name":"indum","country":"pg","lat":-6.1666667,"lon":147.1666667},{"id":2089503,"name":"dalugilomon","country":"pg","lat":-6.1333333,"lon":147.05},{"id":2098208,"name":"semgeta","country":"pg","lat":-6.4833333,"lon":147.3833333},{"id":2098738,"name":"sugan","country":"pg","lat":-6.1,"lon":146.7833333},{"id":2094051,"name":"kwenzenzeng","country":"pg","lat":-6.4666667,"lon":147.4833333},{"id":2089529,"name":"danatum","country":"pg","lat":-5.9833333,"lon":146.65},{"id":2098494,"name":"sio","country":"pg","lat":-5.9166667,"lon":147.3333333},{"id":2090689,"name":"gombwato","country":"pg","lat":-6.2,"lon":147.0666667},{"id":2095316,"name":"mek","country":"pg","lat":-6.0,"lon":146.65},{"id":2100941,"name":"yakot","country":"pg","lat":-6.1333333,"lon":147.0833333},{"id":2100309,"name":"walong","country":"pg","lat":-5.7833333,"lon":146.6},{"id":2090106,"name":"ewok","country":"pg","lat":-6.1666667,"lon":146.5166667},{"id":2099262,"name":"tiferan","country":"pg","lat":-6.4166667,"lon":146.75},{"id":2091160,"name":"hemang","country":"pg","lat":-6.1666667,"lon":147.0666667},{"id":2100546,"name":"wasin","country":"pg","lat":-6.4333333,"lon":146.7833333},{"id":2097858,"name":"sadou","country":"pg","lat":-6.4,"lon":146.7666667},{"id":2098663,"name":"sorong","country":"pg","lat":-6.15,"lon":147.2},{"id":2101019,"name":"yando","country":"pg","lat":-6.15,"lon":147.1},{"id":2101330,"name":"zenguru","country":"pg","lat":-6.45,"lon":147.4833333},{"id":2088653,"name":"berakwaiyu","country":"pg","lat":-6.4,"lon":147.4833333},{"id":2093026,"name":"kinalakna","country":"pg","lat":-6.05,"lon":147.45}]});