callback({"markets":[{"id":2079933,"name":"puesto colombia","country":"pe","lat":-2.1166667,"lon":-76.0333333},{"id":2062081,"name":"bartra nuevo","country":"pe","lat":-2.1,"lon":-76.0333333},{"id":822386,"name":"ayamu","country":"ec","lat":-1.65,"lon":-76.0666667},{"id":828203,"name":"porvenir","country":"ec","lat":-1.6166667,"lon":-75.7333333},{"id":2085785,"name":"valencia","country":"pe","lat":-2.1,"lon":-75.6666667},{"id":829339,"name":"santa rosa","country":"ec","lat":-2.05,"lon":-76.3166667},{"id":827930,"name":"pavacachi","country":"ec","lat":-1.6,"lon":-76.35},{"id":822604,"name":"bolivar","country":"ec","lat":-1.6166667,"lon":-76.2333333},{"id":823459,"name":"cononaco","country":"ec","lat":-1.5166667,"lon":-75.6},{"id":2062144,"name":"bellavista","country":"pe","lat":-1.55,"lon":-75.55},{"id":830397,"name":"zuevlan","country":"ec","lat":-1.5833333,"lon":-75.6833333},{"id":822984,"name":"ceilan","country":"ec","lat":-1.6,"lon":-75.6666667},{"id":2079922,"name":"puesto avanzado","country":"pe","lat":-2.4,"lon":-76.3333333},{"id":824531,"name":"guayusa","country":"ec","lat":-1.85,"lon":-76.3166667},{"id":822369,"name":"aucayacu","country":"ec","lat":-1.5833333,"lon":-75.6166667},{"id":829808,"name":"tenavera","country":"ec","lat":-1.65,"lon":-75.8666667},{"id":2082736,"name":"santo domingo","country":"pe","lat":-2.2333333,"lon":-76.0166667},{"id":827082,"name":"lorocachi","country":"ec","lat":-1.6166667,"lon":-75.95},{"id":828667,"name":"rio tigre","country":"ec","lat":-2.1166667,"lon":-76.0666667},{"id":828652,"name":"rio corrientes","country":"ec","lat":-2.3666667,"lon":-76.4166667},{"id":829513,"name":"shitihuaca","country":"ec","lat":-1.5666667,"lon":-76.4166667},{"id":2075513,"name":"marsella","country":"pe","lat":-2.4333333,"lon":-75.7666667},{"id":2083120,"name":"shiviyacu","country":"pe","lat":-2.4166667,"lon":-76.2},{"id":2081936,"name":"san jacinto","country":"pe","lat":-2.4166667,"lon":-75.75},{"id":826122,"name":"huayuri","country":"ec","lat":-2.4166667,"lon":-76.3},{"id":2068635,"name":"forestal","country":"pe","lat":-2.3166667,"lon":-76.1833333},{"id":822437,"name":"balaura","country":"ec","lat":-1.85,"lon":-76.4333333}]});