callback({"markets":[{"id":2782531,"name":"cinarli","country":"tr","lat":40.614917,"lon":27.536157},{"id":2775306,"name":"belgrat","country":"tr","lat":41.380556,"lon":28.3875},{"id":2806582,"name":"kepenekli","country":"tr","lat":41.102222,"lon":27.522222},{"id":2775885,"name":"beyciler","country":"tr","lat":41.233056,"lon":28.1175},{"id":2803775,"name":"karamehmet","country":"tr","lat":41.307024,"lon":27.789722},{"id":2792582,"name":"gokceli","country":"tr","lat":41.200578,"lon":28.44322},{"id":2775114,"name":"bekirli","country":"tr","lat":41.225923,"lon":28.300802},{"id":2802641,"name":"karacakoy","country":"tr","lat":41.402864,"lon":28.383381},{"id":2822859,"name":"sarilar","country":"tr","lat":41.148056,"lon":27.658611},{"id":2810784,"name":"koseilyas","country":"tr","lat":41.018889,"lon":27.583889},{"id":2830201,"name":"turkgucu","country":"tr","lat":41.091389,"lon":27.8175},{"id":2810345,"name":"kopruce ciftligi","country":"tr","lat":41.033333,"lon":27.75},{"id":2781518,"name":"cerkezkoy","country":"tr","lat":41.285,"lon":28.000278},{"id":2781766,"name":"cevrimkaya","country":"tr","lat":41.091944,"lon":27.608889},{"id":2773861,"name":"ballihoca","country":"tr","lat":41.215611,"lon":27.506071},{"id":2783391,"name":"covenli","country":"tr","lat":41.489018,"lon":27.694939},{"id":2814659,"name":"marmaracik","country":"tr","lat":41.206667,"lon":27.754444},{"id":2800615,"name":"istiranca","country":"tr","lat":41.413333,"lon":28.189167},{"id":2776242,"name":"bigados","country":"tr","lat":41.055838,"lon":28.378949},{"id":2817917,"name":"oklali","country":"tr","lat":41.224722,"lon":28.478333},{"id":2836981,"name":"yuvali","country":"tr","lat":41.445278,"lon":27.805278},{"id":2778144,"name":"buyukcavuslu","country":"tr","lat":41.242273,"lon":28.064625},{"id":2799679,"name":"imralli","country":"tr","lat":41.445953,"lon":27.547209},{"id":2798096,"name":"hisarbeyli","country":"tr","lat":41.37,"lon":28.476389},{"id":2794341,"name":"gunduzlu","country":"tr","lat":41.033333,"lon":27.642853},{"id":2771683,"name":"asmali","country":"tr","lat":40.616667,"lon":27.706374},{"id":2822467,"name":"saray","country":"tr","lat":41.444314,"lon":27.921944},{"id":2773550,"name":"balabanli","country":"tr","lat":41.116389,"lon":27.605},{"id":2776524,"name":"bisanthe","country":"tr","lat":40.978012,"lon":27.508524},{"id":2811750,"name":"kucukkilicli","country":"tr","lat":41.131973,"lon":28.204598},{"id":2785652,"name":"deregunduzlu","country":"tr","lat":41.097073,"lon":27.66866},{"id":2819183,"name":"ovayenice","country":"tr","lat":41.099981,"lon":28.420298},{"id":2790735,"name":"fetekoy","country":"tr","lat":41.093298,"lon":28.33328},{"id":2820581,"name":"polad","country":"tr","lat":40.651944,"lon":27.659167},{"id":2825878,"name":"sofular","country":"tr","lat":41.4,"lon":27.65},{"id":2771614,"name":"askos","country":"tr","lat":41.477195,"lon":28.295836},{"id":2811903,"name":"kucuk sinekli","country":"tr","lat":41.209722,"lon":28.215278},{"id":2818199,"name":"onerler","country":"tr","lat":41.158447,"lon":27.876809},{"id":2805049,"name":"kavacik","country":"tr","lat":41.483333,"lon":27.9},{"id":2820252,"name":"pinarca","country":"tr","lat":41.271944,"lon":28.323056},{"id":2790660,"name":"fenerkoy","country":"tr","lat":41.150517,"lon":28.237798},{"id":2766645,"name":"akalan","country":"tr","lat":41.257395,"lon":28.419752},{"id":2820254,"name":"pinarca","country":"tr","lat":41.340292,"lon":28.021809},{"id":2767359,"name":"akincilar","country":"tr","lat":41.459636,"lon":27.646438},{"id":2811730,"name":"kucukkaristiran","country":"tr","lat":41.3325,"lon":27.539167},{"id":2771250,"name":"asagisevindik","country":"tr","lat":41.2175,"lon":27.547778},{"id":2766430,"name":"ahimehmet","country":"tr","lat":41.319167,"lon":27.6775},{"id":2794126,"name":"gumuspinar","country":"tr","lat":41.314041,"lon":28.28397},{"id":2830901,"name":"ulas","country":"tr","lat":41.239336,"lon":27.709966},{"id":2816058,"name":"misinli","country":"tr","lat":41.308611,"lon":27.608611},{"id":2769185,"name":"alvanbey ciftligi","country":"tr","lat":41.256111,"lon":27.706389},{"id":2780855,"name":"cayla","country":"tr","lat":41.399065,"lon":27.886382},{"id":2832843,"name":"yapagca","country":"tr","lat":41.110614,"lon":28.220498},{"id":2836429,"name":"yukari sevindikli","country":"tr","lat":41.231544,"lon":27.581627},{"id":2820239,"name":"pinarbasi","country":"tr","lat":41.389167,"lon":27.618333},{"id":2809370,"name":"kocaburgaz","country":"tr","lat":40.50503,"lon":27.90626},{"id":2830526,"name":"tzurullum","country":"tr","lat":41.159167,"lon":27.8},{"id":2781057,"name":"celaliye","country":"tr","lat":41.045682,"lon":28.432325},{"id":2827573,"name":"tarfa","country":"tr","lat":41.33,"lon":28.483171},{"id":2818697,"name":"ortakoy","country":"tr","lat":41.101604,"lon":28.375869},{"id":2803066,"name":"karaevli","country":"tr","lat":41.037222,"lon":27.665833},{"id":2772263,"name":"aydinlar","country":"tr","lat":41.373832,"lon":28.208668},{"id":2899609,"name":"yulianovka","country":"ua","lat":41.216667,"lon":28.233333},{"id":2830240,"name":"turkmenli","country":"tr","lat":41.048902,"lon":27.853567},{"id":2836672,"name":"yulafli","country":"tr","lat":41.213056,"lon":27.833611},{"id":2803767,"name":"karamant","country":"tr","lat":41.340833,"lon":28.40647},{"id":2812232,"name":"kumburgaz","country":"tr","lat":41.02107,"lon":28.477154},{"id":2809312,"name":"klavuzlu","country":"tr","lat":41.056944,"lon":27.546944},{"id":2785067,"name":"demiler","country":"tr","lat":41.434417,"lon":27.760841},{"id":2799388,"name":"ilhankoy","country":"tr","lat":40.505781,"lon":27.695975},{"id":2811834,"name":"kucuk manika","country":"tr","lat":41.410888,"lon":27.968903},{"id":2831963,"name":"velimese","country":"tr","lat":41.253611,"lon":27.878333},{"id":2826682,"name":"suleymanli","country":"tr","lat":41.104308,"lon":27.699594},{"id":2766798,"name":"akca","country":"tr","lat":41.366667,"lon":27.55},{"id":2781593,"name":"cesmeli","country":"tr","lat":41.045556,"lon":27.829167},{"id":2797683,"name":"heraclea","country":"tr","lat":40.970034,"lon":27.955279},{"id":2788203,"name":"edir","country":"tr","lat":41.483333,"lon":27.866667},{"id":1507066,"name":"casale san antonio","country":"it","lat":41.483333,"lon":27.783333},{"id":2804090,"name":"karasinit","country":"tr","lat":41.233333,"lon":27.666667},{"id":2824803,"name":"seymen","country":"tr","lat":41.093611,"lon":27.948889},{"id":2834128,"name":"yeniciftlik","country":"tr","lat":41.011389,"lon":27.852222},{"id":2781179,"name":"celtik","country":"tr","lat":41.109444,"lon":28.117778},{"id":2825375,"name":"sinekli","country":"tr","lat":41.224722,"lon":28.211667},{"id":2825304,"name":"sinanli","country":"tr","lat":41.391667,"lon":27.772222},{"id":2791250,"name":"gazitepe","country":"tr","lat":41.128611,"lon":28.326111},{"id":2783537,"name":"cukurcengel","country":"tr","lat":41.166667,"lon":27.9},{"id":2778315,"name":"buyukkilicli","country":"tr","lat":41.156752,"lon":28.169609},{"id":2832496,"name":"yakuplu","country":"tr","lat":41.079661,"lon":27.904099},{"id":2823954,"name":"selymbria","country":"tr","lat":41.080217,"lon":28.226051},{"id":2801704,"name":"kamiloba","country":"tr","lat":41.046667,"lon":28.435556},{"id":2802221,"name":"karaagac","country":"tr","lat":41.294796,"lon":27.949045},{"id":2831954,"name":"velikoy","country":"tr","lat":41.259286,"lon":27.938469},{"id":2766515,"name":"ahmetbey","country":"tr","lat":41.438708,"lon":27.585658},{"id":2779740,"name":"canakca","country":"tr","lat":41.245941,"lon":28.494624},{"id":2829617,"name":"topagac","country":"tr","lat":40.60401,"lon":27.663732},{"id":2814662,"name":"marmara","country":"tr","lat":40.586329,"lon":27.555408},{"id":2773438,"name":"bakirca","country":"tr","lat":41.316667,"lon":27.766667},{"id":2805714,"name":"kayikoy","country":"tr","lat":41.026978,"lon":27.526611},{"id":2792330,"name":"gocerler","country":"tr","lat":41.333333,"lon":27.733333},{"id":2788595,"name":"elbasan","country":"tr","lat":41.138367,"lon":28.41546},{"id":2783690,"name":"cukuryurd","country":"tr","lat":41.426667,"lon":27.884444},{"id":2828294,"name":"tchataldja","country":"tr","lat":41.142019,"lon":28.463817},{"id":2789769,"name":"esenli","country":"tr","lat":41.223611,"lon":27.648889},{"id":2767927,"name":"akviran","country":"tr","lat":41.194624,"lon":28.331259},{"id":2818501,"name":"ormanli","country":"tr","lat":41.394057,"lon":28.45445},{"id":2808239,"name":"kirkkepenkli","country":"tr","lat":41.170278,"lon":27.588333},{"id":2778834,"name":"cakil","country":"tr","lat":41.125278,"lon":28.452778},{"id":2799800,"name":"incegiz","country":"tr","lat":41.185681,"lon":28.403478},{"id":2799159,"name":"igneler","country":"tr","lat":41.346389,"lon":27.61},{"id":2820685,"name":"prastia","country":"tr","lat":40.58083,"lon":27.597939},{"id":2774139,"name":"basakkoy","country":"tr","lat":41.332344,"lon":28.443136},{"id":2809168,"name":"kizilpinar","country":"tr","lat":41.2659,"lon":27.968125},{"id":2804544,"name":"karli","country":"tr","lat":41.37,"lon":27.866389},{"id":2823363,"name":"sayalik","country":"tr","lat":41.315833,"lon":28.1775},{"id":2806973,"name":"kestanelik","country":"tr","lat":41.237222,"lon":28.497222},{"id":2784063,"name":"dagyenice","country":"tr","lat":41.272679,"lon":28.483235},{"id":2784749,"name":"degirmankoy","country":"tr","lat":41.098794,"lon":28.009861},{"id":2784290,"name":"danamandira","country":"tr","lat":41.308638,"lon":28.241981},{"id":2778300,"name":"buyukkaristiran","country":"tr","lat":41.300278,"lon":27.545278},{"id":2826450,"name":"subasi","country":"tr","lat":41.226944,"lon":28.46},{"id":2816748,"name":"musellim","country":"tr","lat":41.122643,"lon":27.544919},{"id":2802015,"name":"kapakli","country":"tr","lat":41.329119,"lon":27.980637},{"id":2778387,"name":"buyuk manika","country":"tr","lat":41.377846,"lon":27.926158},{"id":2798871,"name":"husunlu","country":"tr","lat":41.046423,"lon":27.622196},{"id":2801447,"name":"kalekoy","country":"tr","lat":41.290278,"lon":28.439722},{"id":2780723,"name":"cayirderekoy","country":"tr","lat":41.280728,"lon":28.144158},{"id":2795951,"name":"halacci","country":"tr","lat":41.319167,"lon":28.099167},{"id":2794160,"name":"gumusyaka","country":"tr","lat":41.047222,"lon":28.042778},{"id":2766254,"name":"agirmese ciftligi","country":"tr","lat":41.2,"lon":27.983333},{"id":2826751,"name":"sultankoy","country":"tr","lat":41.021389,"lon":27.988611},{"id":2783448,"name":"cucesekban","country":"tr","lat":41.164167,"lon":28.189722},{"id":2818499,"name":"ormanli","country":"tr","lat":40.508673,"lon":27.840618},{"id":2779917,"name":"canta","country":"tr","lat":41.118137,"lon":28.080345},{"id":2787455,"name":"dragonda","country":"tr","lat":40.51789,"lon":27.750354},{"id":2812542,"name":"kurfalli","country":"tr","lat":41.20205,"lon":28.261268},{"id":2794573,"name":"gungormez","country":"tr","lat":41.493889,"lon":27.985556},{"id":2816549,"name":"muratbey","country":"tr","lat":41.094985,"lon":28.49403},{"id":2814291,"name":"maksutlu","country":"tr","lat":41.076111,"lon":27.66},{"id":2832781,"name":"yanikagil","country":"tr","lat":41.290833,"lon":27.905278},{"id":2832084,"name":"virankoy ciftligi","country":"tr","lat":40.633333,"lon":27.6},{"id":2791549,"name":"gelevri","country":"tr","lat":41.131111,"lon":28.131667},{"id":2831609,"name":"uzunhaci","country":"tr","lat":41.342709,"lon":27.833787},{"id":2821499,"name":"sahbaz","country":"tr","lat":41.083333,"lon":27.880182},{"id":2790772,"name":"fevziye","country":"tr","lat":41.426228,"lon":28.099516},{"id":2831787,"name":"vakiflar","country":"tr","lat":41.258902,"lon":27.64636},{"id":2800752,"name":"kabakca","country":"tr","lat":41.229468,"lon":28.370684},{"id":2773182,"name":"bahceagil","country":"tr","lat":41.349167,"lon":27.886111},{"id":2775841,"name":"beyazkoy","country":"tr","lat":41.348333,"lon":27.703889}]});