callback({"markets":[{"id":1901382,"name":"rancho flores munoz","country":"mx","lat":28.633333,"lon":-111.666667},{"id":1867682,"name":"coyoacan","country":"mx","lat":28.966667,"lon":-111.666667},{"id":1874028,"name":"el perico","country":"mx","lat":28.6,"lon":-111.55},{"id":1891216,"name":"manuel altamirano","country":"mx","lat":28.6,"lon":-111.666667},{"id":1916842,"name":"venecia","country":"mx","lat":28.816667,"lon":-111.583333},{"id":1867372,"name":"coronado","country":"mx","lat":29.266667,"lon":-111.683333},{"id":1878963,"name":"hermenegildo galeana","country":"mx","lat":28.566667,"lon":-111.583333},{"id":1911671,"name":"sinaloa","country":"mx","lat":28.583333,"lon":-111.516667},{"id":1900250,"name":"rancho ajonchi","country":"mx","lat":28.75,"lon":-111.7},{"id":1884909,"name":"la norte","country":"mx","lat":28.633333,"lon":-111.65},{"id":1902602,"name":"rancho porvenir","country":"mx","lat":28.916667,"lon":-111.616667},{"id":1892349,"name":"mexico","country":"mx","lat":28.633333,"lon":-111.633333},{"id":1903278,"name":"rancho veinte de noviembre","country":"mx","lat":28.55,"lon":-111.616667},{"id":1876997,"name":"ezcalqui","country":"mx","lat":29.083333,"lon":-111.733333},{"id":1883907,"name":"la horqueta","country":"mx","lat":29.016667,"lon":-111.516667},{"id":1868176,"name":"cuauhtemoc","country":"mx","lat":28.716667,"lon":-111.633333},{"id":1871311,"name":"el cimarron","country":"mx","lat":29.233333,"lon":-112.033333},{"id":1902319,"name":"rancho martha hedubijes","country":"mx","lat":29.083333,"lon":-111.533333},{"id":1875004,"name":"el sabueso","country":"mx","lat":28.966667,"lon":-111.55},{"id":1900452,"name":"rancho candelaria","country":"mx","lat":29.033333,"lon":-111.716667},{"id":1911389,"name":"sayula","country":"mx","lat":29.366667,"lon":-111.55},{"id":1903346,"name":"rancho zapata","country":"mx","lat":28.6,"lon":-111.633333},{"id":1887202,"name":"las playitas","country":"mx","lat":28.883333,"lon":-111.566667},{"id":1881619,"name":"kino nuevo","country":"mx","lat":28.866667,"lon":-112.033333},{"id":1900376,"name":"rancho bellavista","country":"mx","lat":28.783333,"lon":-111.733333},{"id":1902975,"name":"rancho san rafael","country":"mx","lat":28.566667,"lon":-111.666667},{"id":1902938,"name":"rancho san martin","country":"mx","lat":28.683333,"lon":-111.55},{"id":1888667,"name":"loma linda","country":"mx","lat":28.983333,"lon":-111.716667},{"id":1863716,"name":"casas de bombas","country":"mx","lat":28.95,"lon":-111.733333},{"id":1874424,"name":"el progreso","country":"mx","lat":29.016667,"lon":-111.716667},{"id":1902987,"name":"rancho san salvador","country":"mx","lat":28.5,"lon":-111.5},{"id":1916404,"name":"ursula","country":"mx","lat":29.183333,"lon":-112.183333},{"id":1901377,"name":"rancho favela","country":"mx","lat":28.933333,"lon":-111.8},{"id":1892963,"name":"mohino","country":"mx","lat":29.05,"lon":-111.6},{"id":1904598,"name":"sahuripa uno","country":"mx","lat":28.8,"lon":-111.6},{"id":1882576,"name":"la choya","country":"mx","lat":28.833333,"lon":-111.566667},{"id":1908052,"name":"san luis","country":"mx","lat":28.616667,"lon":-111.716667},{"id":1861007,"name":"bella vista","country":"mx","lat":29.116667,"lon":-111.783333},{"id":1906324,"name":"san gabriel","country":"mx","lat":29.383333,"lon":-112.066667},{"id":1914505,"name":"tierra nova","country":"mx","lat":28.9,"lon":-111.6},{"id":1885413,"name":"la pradera","country":"mx","lat":29.0,"lon":-111.833333},{"id":1900857,"name":"rancho el chalate","country":"mx","lat":29.133333,"lon":-111.716667},{"id":1917001,"name":"viboras","country":"mx","lat":29.166667,"lon":-112.2},{"id":1909894,"name":"santa elena","country":"mx","lat":28.85,"lon":-111.55},{"id":1903077,"name":"rancho santa silvia","country":"mx","lat":28.666667,"lon":-111.733333},{"id":1877237,"name":"francisco eusebio kino","country":"mx","lat":28.683333,"lon":-111.666667},{"id":1878938,"name":"hediondilla","country":"mx","lat":29.316667,"lon":-111.633333},{"id":1904700,"name":"salinas san clemente","country":"mx","lat":28.766667,"lon":-111.833333},{"id":1869829,"name":"e kilowatt","country":"mx","lat":28.866667,"lon":-111.716667},{"id":1903083,"name":"rancho santa teresita","country":"mx","lat":28.966667,"lon":-111.75},{"id":1906124,"name":"san francisco de costa rica","country":"mx","lat":28.916667,"lon":-111.6},{"id":1910467,"name":"santa martha","country":"mx","lat":28.816667,"lon":-111.7},{"id":1913095,"name":"tecomate","country":"mx","lat":29.183333,"lon":-112.416667},{"id":1908640,"name":"san nicolas de kino","country":"mx","lat":28.75,"lon":-111.916667},{"id":1880840,"name":"jesus garcia","country":"mx","lat":28.55,"lon":-111.583333},{"id":1905923,"name":"san enrique","country":"mx","lat":28.85,"lon":-111.633333},{"id":1887042,"name":"las palmitas","country":"mx","lat":28.833333,"lon":-111.516667},{"id":1878047,"name":"guadalajara","country":"mx","lat":28.766667,"lon":-111.766667},{"id":1883505,"name":"la gorrita","country":"mx","lat":29.15,"lon":-111.633333},{"id":1916643,"name":"valle verde","country":"mx","lat":28.733333,"lon":-111.716667},{"id":1888176,"name":"libertad","country":"mx","lat":29.083333,"lon":-111.883333},{"id":1911458,"name":"seis de marzo","country":"mx","lat":28.616667,"lon":-111.5},{"id":1904951,"name":"san agustin","country":"mx","lat":29.4,"lon":-111.65},{"id":1875013,"name":"el sacrificio","country":"mx","lat":28.666667,"lon":-111.6},{"id":1903021,"name":"rancho santa elena","country":"mx","lat":28.85,"lon":-111.783333},{"id":1885658,"name":"la reforma","country":"mx","lat":28.566667,"lon":-111.6},{"id":1899088,"name":"providencia","country":"mx","lat":28.716667,"lon":-111.583333},{"id":1864698,"name":"chaparral","country":"mx","lat":29.216667,"lon":-112.016667},{"id":1917367,"name":"villa san ignacio","country":"mx","lat":28.766667,"lon":-111.7},{"id":1909537,"name":"santa anita","country":"mx","lat":28.816667,"lon":-111.733333},{"id":1897306,"name":"perseverancia","country":"mx","lat":28.816667,"lon":-111.55},{"id":1893893,"name":"navolatos","country":"mx","lat":28.866667,"lon":-111.7},{"id":1902422,"name":"rancho nueva york","country":"mx","lat":28.966667,"lon":-111.816667},{"id":1900435,"name":"rancho california","country":"mx","lat":28.966667,"lon":-111.8},{"id":1884749,"name":"la morena","country":"mx","lat":28.85,"lon":-111.533333},{"id":1900809,"name":"rancho el botas","country":"mx","lat":28.983333,"lon":-111.783333},{"id":1891376,"name":"maria del carmen","country":"mx","lat":28.916667,"lon":-111.566667},{"id":1906135,"name":"san francisco de la playas","country":"mx","lat":28.866667,"lon":-111.55},{"id":1900538,"name":"rancho chula vista","country":"mx","lat":29.1,"lon":-111.8},{"id":1903040,"name":"rancho santa hedubijes","country":"mx","lat":29.066667,"lon":-111.516667},{"id":1881617,"name":"kino del mar","country":"mx","lat":28.816667,"lon":-111.75},{"id":1880838,"name":"jesus de saracho","country":"mx","lat":28.916667,"lon":-111.75},{"id":1875473,"name":"el tatay","country":"mx","lat":28.866667,"lon":-111.683333},{"id":1866611,"name":"colonia bellavista","country":"mx","lat":28.766667,"lon":-111.716667},{"id":1892543,"name":"miguel hidalgo","country":"mx","lat":29.116667,"lon":-111.716667},{"id":1882143,"name":"la cabana","country":"mx","lat":28.983333,"lon":-111.95},{"id":1901773,"name":"rancho la mocha","country":"mx","lat":28.983333,"lon":-111.633333},{"id":1901708,"name":"rancho la india","country":"mx","lat":28.816667,"lon":-111.533333},{"id":1910508,"name":"santa patricia","country":"mx","lat":28.933333,"lon":-111.733333},{"id":1860249,"name":"bahia kino","country":"mx","lat":28.833333,"lon":-111.933333},{"id":1911976,"name":"soto","country":"mx","lat":28.95,"lon":-111.75},{"id":1875582,"name":"el tepeyac","country":"mx","lat":28.666667,"lon":-111.766667},{"id":1902150,"name":"rancho los angeles","country":"mx","lat":28.933333,"lon":-111.816667},{"id":1899652,"name":"puerto rico","country":"mx","lat":28.616667,"lon":-111.566667},{"id":1885385,"name":"la ponderosa","country":"mx","lat":29.266667,"lon":-112.033333},{"id":1891214,"name":"manudo","country":"mx","lat":29.083333,"lon":-111.65},{"id":1866674,"name":"colonia el abanico","country":"mx","lat":28.75,"lon":-111.716667},{"id":1900209,"name":"rancho aereo kino","country":"mx","lat":28.933333,"lon":-111.75},{"id":1897970,"name":"plan de ayala","country":"mx","lat":28.55,"lon":-111.55},{"id":1900913,"name":"rancho el cuatro","country":"mx","lat":28.516667,"lon":-111.55},{"id":1902613,"name":"rancho pozo del negro","country":"mx","lat":29.483333,"lon":-111.516667},{"id":1903274,"name":"rancho valparaiso","country":"mx","lat":28.7,"lon":-111.55},{"id":1916605,"name":"valle grande","country":"mx","lat":28.783333,"lon":-111.633333},{"id":1888117,"name":"leonides","country":"mx","lat":29.4,"lon":-111.55},{"id":1898709,"name":"poza rica","country":"mx","lat":28.783333,"lon":-111.6},{"id":1909422,"name":"santa amalia","country":"mx","lat":29.433333,"lon":-111.883333},{"id":1866592,"name":"colonia aldama","country":"mx","lat":28.583333,"lon":-111.5},{"id":1903024,"name":"rancho santa ernestina","country":"mx","lat":28.983333,"lon":-111.7},{"id":1900733,"name":"rancho dolores","country":"mx","lat":29.05,"lon":-111.716667},{"id":1900741,"name":"rancho eibar","country":"mx","lat":28.966667,"lon":-111.716667},{"id":1906747,"name":"san jorge","country":"mx","lat":28.65,"lon":-111.583333},{"id":1903076,"name":"rancho santa rosita","country":"mx","lat":29.166667,"lon":-111.75},{"id":1866819,"name":"colonia pilares","country":"mx","lat":28.75,"lon":-111.633333},{"id":1887465,"name":"las viboras","country":"mx","lat":28.716667,"lon":-111.833333},{"id":1887991,"name":"la yuta","country":"mx","lat":29.083333,"lon":-111.716667},{"id":1898733,"name":"pozo carrizal","country":"mx","lat":28.883333,"lon":-111.966667},{"id":1892720,"name":"mineros de pilares","country":"mx","lat":28.733333,"lon":-111.666667},{"id":1890809,"name":"magale","country":"mx","lat":28.883333,"lon":-111.583333},{"id":1906078,"name":"san fernando","country":"mx","lat":28.9,"lon":-111.516667},{"id":1900817,"name":"rancho el cacullo","country":"mx","lat":29.033333,"lon":-111.516667},{"id":1904540,"name":"sacramento","country":"mx","lat":28.566667,"lon":-111.533333},{"id":1862619,"name":"campo dolar","country":"mx","lat":29.333333,"lon":-112.366667},{"id":1900491,"name":"rancho centavito","country":"mx","lat":28.983333,"lon":-111.75},{"id":1863721,"name":"casas grandes","country":"mx","lat":29.183333,"lon":-111.7},{"id":1902171,"name":"rancho los carrillos","country":"mx","lat":29.116667,"lon":-111.766667},{"id":1884958,"name":"la oposura","country":"mx","lat":29.0,"lon":-111.65},{"id":1904981,"name":"san alfonso","country":"mx","lat":28.783333,"lon":-111.7}]});