callback({"markets":[{"id":1728119,"name":"lauciene","country":"lv","lat":57.2333333,"lon":22.75},{"id":1731709,"name":"slagunas","country":"lv","lat":56.6169444,"lon":23.0680556},{"id":1729467,"name":"myza kuksha","country":"lv","lat":56.9666667,"lon":22.8666667},{"id":1732445,"name":"tselmi","country":"lv","lat":56.5166667,"lon":22.5666667},{"id":1732864,"name":"veci","country":"lv","lat":56.7666667,"lon":22.5333333},{"id":1729546,"name":"myza nive","country":"lv","lat":57.4333333,"lon":22.5333333},{"id":1730699,"name":"pundurmuyzha","country":"lv","lat":56.8833333,"lon":23.3666667},{"id":1725174,"name":"bedres","country":"lv","lat":56.7666667,"lon":22.9833333},{"id":1727676,"name":"korgeltsiems","country":"lv","lat":57.1333333,"lon":22.9166667},{"id":1727537,"name":"kisterciems","country":"lv","lat":57.3508333,"lon":23.0897222},{"id":1731003,"name":"rocezi","country":"lv","lat":57.2833333,"lon":22.6333333},{"id":1730846,"name":"raudas muiza","country":"lv","lat":57.0086111,"lon":23.1813889},{"id":1731683,"name":"skujumuiza","country":"lv","lat":56.7969444,"lon":23.0066667},{"id":1733528,"name":"zalie","country":"lv","lat":56.8169444,"lon":23.3816667},{"id":1732053,"name":"strazdini","country":"lv","lat":56.9372222,"lon":23.2011111},{"id":1730570,"name":"popervale","country":"lv","lat":57.4166667,"lon":22.5833333},{"id":1729660,"name":"myza strazde","country":"lv","lat":57.1333333,"lon":22.7333333},{"id":1732995,"name":"velki","country":"lv","lat":56.9663889,"lon":23.1202778},{"id":1725273,"name":"berzuciems","country":"lv","lat":57.0666667,"lon":22.6666667},{"id":1731884,"name":"springu muiza","country":"lv","lat":56.7,"lon":22.85},{"id":1730460,"name":"plevas","country":"lv","lat":57.25,"lon":22.8666667},{"id":1729662,"name":"myza struteles","country":"lv","lat":56.7833333,"lon":22.9333333},{"id":1725261,"name":"berzkrasti","country":"lv","lat":56.5955556,"lon":23.2894444},{"id":1731265,"name":"saldus","country":"lv","lat":56.6666667,"lon":22.5},{"id":1725018,"name":"ayzstrautniyeki","country":"lv","lat":56.6888889,"lon":23.21},{"id":1725822,"name":"daigone","country":"lv","lat":57.05,"lon":22.8666667},{"id":1727494,"name":"kiegelceplis","country":"lv","lat":56.5333333,"lon":22.8333333},{"id":1728333,"name":"lielblidienes muiza","country":"lv","lat":56.65,"lon":22.7833333},{"id":1729684,"name":"myza tserkstes","country":"lv","lat":57.0294444,"lon":23.2522222},{"id":1729492,"name":"myza lestenes","country":"lv","lat":56.7733333,"lon":23.1441667},{"id":1728941,"name":"maztendes","country":"lv","lat":57.1833333,"lon":22.5666667},{"id":1726438,"name":"gardene","country":"lv","lat":56.6486111,"lon":23.2158333},{"id":1730784,"name":"ragatsiyems","country":"lv","lat":57.0244444,"lon":23.4944444},{"id":1730394,"name":"piyenava","country":"lv","lat":56.7413889,"lon":23.2519444},{"id":1731651,"name":"skrimbas","country":"lv","lat":57.0166667,"lon":22.9166667},{"id":1727152,"name":"kajagi","country":"lv","lat":57.0,"lon":22.55},{"id":1724537,"name":"abragciems","country":"lv","lat":57.2027778,"lon":23.2036111},{"id":1724522,"name":"abava","country":"lv","lat":56.95,"lon":22.9666667},{"id":1729397,"name":"myza dursupe","country":"lv","lat":57.2,"lon":22.8666667},{"id":1726319,"name":"ezerkauki","country":"lv","lat":56.9911111,"lon":23.1352778},{"id":1728135,"name":"lauki","country":"lv","lat":56.75,"lon":22.9666667},{"id":1726734,"name":"iles","country":"lv","lat":56.5333333,"lon":23.0},{"id":1726411,"name":"galautse","country":"lv","lat":56.5333333,"lon":22.7833333},{"id":1733714,"name":"zusumuiza","country":"lv","lat":56.65,"lon":22.9666667},{"id":1728650,"name":"lukas","country":"lv","lat":56.6513889,"lon":23.0997222},{"id":1730466,"name":"pliyen\u0027tsiyem","country":"lv","lat":57.0827778,"lon":23.2641667},{"id":1727427,"name":"kazenieki","country":"lv","lat":56.7,"lon":22.5833333},{"id":1732682,"name":"valdeki","country":"lv","lat":57.0,"lon":22.7666667},{"id":1731615,"name":"skedes","country":"lv","lat":57.25,"lon":22.7333333},{"id":1726722,"name":"igene","country":"lv","lat":57.3,"lon":22.8333333},{"id":1728625,"name":"lubezere","country":"lv","lat":57.4166667,"lon":22.6333333},{"id":1731403,"name":"seme","country":"lv","lat":57.0422222,"lon":23.1277778},{"id":1729614,"name":"myza rumene","country":"lv","lat":57.05,"lon":22.7333333},{"id":1728149,"name":"lausti","country":"lv","lat":56.5666667,"lon":22.9},{"id":1731399,"name":"selisi","country":"lv","lat":56.9538889,"lon":23.0786111},{"id":1731873,"name":"spoleni","country":"lv","lat":56.6166667,"lon":22.5333333},{"id":1727855,"name":"krumuli","country":"lv","lat":56.9833333,"lon":22.55},{"id":1727249,"name":"kalnseta","country":"lv","lat":56.6666667,"lon":22.5166667},{"id":1724932,"name":"audze","country":"lv","lat":56.5522222,"lon":23.4175},{"id":1725019,"name":"ayzupe","country":"lv","lat":56.9166667,"lon":22.6},{"id":1728676,"name":"lustes muiza","country":"lv","lat":56.7,"lon":23.35},{"id":1729376,"name":"myza brotseny","country":"lv","lat":56.7,"lon":22.5333333},{"id":1727419,"name":"kayve","country":"lv","lat":57.0605556,"lon":23.0272222},{"id":1731975,"name":"stendes muizas centrs","country":"lv","lat":57.1833333,"lon":22.55},{"id":1733211,"name":"villas","country":"lv","lat":57.2166667,"lon":22.6},{"id":1731997,"name":"stirnas muiza","country":"lv","lat":56.5333333,"lon":22.9333333},{"id":1725236,"name":"(( berzalne ))","country":"lv","lat":56.6333333,"lon":23.4},{"id":1728708,"name":"maarktsiyems","country":"lv","lat":57.45,"lon":22.7333333},{"id":1728160,"name":"laydze","country":"lv","lat":57.2833333,"lon":22.6666667},{"id":1728882,"name":"mazduras","country":"lv","lat":56.6333333,"lon":22.85},{"id":1730752,"name":"putninu","country":"lv","lat":57.2,"lon":22.5833333},{"id":1725769,"name":"cimas","country":"lv","lat":57.0166667,"lon":22.8},{"id":1725764,"name":"cikuntes","country":"lv","lat":57.0166667,"lon":22.7},{"id":1733237,"name":"virbi","country":"lv","lat":57.1,"lon":22.6},{"id":1726792,"name":"irlava","country":"lv","lat":56.8416667,"lon":23.04},{"id":1728232,"name":"lemzere","country":"lv","lat":56.6,"lon":22.6166667},{"id":1728200,"name":"leisi","country":"lv","lat":56.85,"lon":22.8},{"id":1733164,"name":"vikstrauti","country":"lv","lat":56.7166667,"lon":22.6},{"id":1726965,"name":"jaunokte","country":"lv","lat":57.2666667,"lon":22.85},{"id":1726420,"name":"galtene","country":"lv","lat":57.1666667,"lon":22.85},{"id":1727478,"name":"kerklini","country":"lv","lat":56.5166667,"lon":22.6666667},{"id":1733663,"name":"zilu pusmuiza","country":"lv","lat":56.6333333,"lon":22.7166667},{"id":1731243,"name":"(( sakukrogs ))","country":"lv","lat":56.55,"lon":23.2666667},{"id":1732371,"name":"tiruli","country":"lv","lat":56.7166667,"lon":22.5},{"id":1725325,"name":"birzes","country":"lv","lat":57.3166667,"lon":22.5333333},{"id":1727555,"name":"klapkalns","country":"lv","lat":57.0408333,"lon":23.3636111},{"id":1729550,"name":"myza oksle","country":"lv","lat":57.1333333,"lon":22.8333333},{"id":1732387,"name":"tojati","country":"lv","lat":57.0333333,"lon":22.6333333},{"id":1725048,"name":"bakuli","country":"lv","lat":56.6147222,"lon":23.4538889},{"id":1730725,"name":"purvakalves","country":"lv","lat":56.9833333,"lon":22.5833333},{"id":1732440,"name":"tsauktsiems","country":"lv","lat":57.0038889,"lon":23.4177778},{"id":1728520,"name":"lives","country":"lv","lat":56.7163889,"lon":23.4936111},{"id":1732206,"name":"sventes","country":"lv","lat":57.0833333,"lon":22.5333333},{"id":1726474,"name":"gaujas","country":"lv","lat":56.6655556,"lon":23.0383333},{"id":1725706,"name":"centrs","country":"lv","lat":56.9675,"lon":23.1566667},{"id":1730171,"name":"pastende","country":"lv","lat":57.2166667,"lon":22.5166667},{"id":1725269,"name":"berzskiy","country":"lv","lat":56.6872222,"lon":23.4402778},{"id":1726217,"name":"dzukste","country":"lv","lat":56.7883333,"lon":23.2458333},{"id":1733010,"name":"ventuli","country":"lv","lat":56.8666667,"lon":22.95},{"id":1730265,"name":"perkone","country":"lv","lat":56.9125,"lon":23.3605556},{"id":1729948,"name":"nurmuiza","country":"lv","lat":57.2333333,"lon":22.7666667},{"id":1728956,"name":"mazvirbi muizas centrs","country":"lv","lat":57.0666667,"lon":22.5833333},{"id":1726041,"name":"(( drukas ))","country":"lv","lat":56.6,"lon":23.45},{"id":1726956,"name":"(( jaunmokas ))","country":"lv","lat":56.9833333,"lon":23.05},{"id":1730242,"name":"pekelciems","country":"lv","lat":57.3611111,"lon":23.1063889},{"id":1733188,"name":"viljete","country":"lv","lat":57.0666667,"lon":22.9166667},{"id":1728177,"name":"ledas","country":"lv","lat":57.1333333,"lon":22.6666667},{"id":1726218,"name":"dzukstesmuiza","country":"lv","lat":56.795,"lon":23.2569444},{"id":1730067,"name":"ozolkalni","country":"lv","lat":56.9166667,"lon":22.8333333},{"id":1732019,"name":"(( strabakas ))","country":"lv","lat":56.8833333,"lon":23.2833333},{"id":1733407,"name":"yaunsezhi","country":"lv","lat":56.7180556,"lon":23.0563889},{"id":1733201,"name":"vilksalas","country":"lv","lat":57.0330556,"lon":23.0105556},{"id":1732120,"name":"sturukrogs","country":"lv","lat":56.6,"lon":22.75},{"id":1729066,"name":"mesterini","country":"lv","lat":56.5333333,"lon":22.8833333},{"id":1732951,"name":"(( vecvagari ))","country":"lv","lat":56.8788889,"lon":23.2225},{"id":1726791,"name":"irlava grenci","country":"lv","lat":56.8833333,"lon":23.0},{"id":1729746,"name":"myza vyatssatyti","country":"lv","lat":56.8,"lon":22.5333333},{"id":1733640,"name":"ziemeli","country":"lv","lat":56.9,"lon":22.6166667},{"id":1732121,"name":"sturukrogs","country":"lv","lat":56.7666667,"lon":22.9},{"id":1729161,"name":"miegaini","country":"lv","lat":56.8833333,"lon":22.9333333},{"id":1728273,"name":"libagi muizas centrs","country":"lv","lat":57.1666667,"lon":22.65},{"id":1729908,"name":"nikuzi","country":"lv","lat":57.4166667,"lon":22.5333333},{"id":1727517,"name":"kipattsiyems","country":"lv","lat":57.33,"lon":23.0519444},{"id":1730974,"name":"rinkule","country":"lv","lat":57.05,"lon":22.6166667},{"id":1731590,"name":"skamestes","country":"lv","lat":56.8,"lon":22.95},{"id":1726353,"name":"fol\u0027vark ladezre","country":"lv","lat":57.3,"lon":22.7333333},{"id":1733578,"name":"zebrene","country":"lv","lat":56.6,"lon":22.8833333},{"id":1730922,"name":"rezestsiems","country":"lv","lat":57.0833333,"lon":22.6666667},{"id":1727466,"name":"kemeri","country":"lv","lat":56.945,"lon":23.4872222},{"id":1732692,"name":"valgalesciems","country":"lv","lat":57.4166667,"lon":22.95},{"id":1727161,"name":"kakisi","country":"lv","lat":57.15,"lon":22.7833333},{"id":1729286,"name":"murmuiza","country":"lv","lat":57.05,"lon":22.9666667},{"id":1729498,"name":"myza lielsatyti","country":"lv","lat":56.8166667,"lon":22.55},{"id":1732052,"name":"strazdini","country":"lv","lat":56.6613889,"lon":23.3127778},{"id":1729976,"name":"okte","country":"lv","lat":57.2833333,"lon":22.85},{"id":1728958,"name":"mazzante","country":"lv","lat":56.8333333,"lon":22.8},{"id":1732152,"name":"sukturi","country":"lv","lat":57.2333333,"lon":22.6333333},{"id":1733079,"name":"vetstsiems","country":"lv","lat":57.1333333,"lon":22.8666667},{"id":1730411,"name":"plani","country":"lv","lat":56.85,"lon":22.6666667},{"id":1729825,"name":"narinuciems","country":"lv","lat":57.25,"lon":22.9},{"id":1729061,"name":"mersya","country":"lv","lat":57.34,"lon":23.1213889},{"id":1732739,"name":"vane","country":"lv","lat":56.9166667,"lon":22.5666667},{"id":1732584,"name":"upesgriva","country":"lv","lat":57.3863889,"lon":23.0138889},{"id":1732504,"name":"turkmuiza","country":"lv","lat":57.2333333,"lon":22.55},{"id":1727989,"name":"kursakas","country":"lv","lat":57.2,"lon":22.6},{"id":1733134,"name":"viesati","country":"lv","lat":56.8,"lon":22.85},{"id":1731189,"name":"russas","country":"lv","lat":57.25,"lon":22.55},{"id":1730492,"name":"podnieki","country":"lv","lat":57.2,"lon":22.7},{"id":1732291,"name":"telsy","country":"lv","lat":57.25,"lon":22.6},{"id":1732861,"name":"vecgaiki","country":"lv","lat":56.7833333,"lon":22.5833333},{"id":1730368,"name":"pincupes","country":"lv","lat":57.45,"lon":22.6666667},{"id":1731200,"name":"rutyni","country":"lv","lat":56.6666667,"lon":22.9666667},{"id":1728869,"name":"mazblydieke","country":"lv","lat":56.65,"lon":22.85},{"id":1726393,"name":"gaili","country":"lv","lat":56.9447222,"lon":23.1291667},{"id":1726948,"name":"jaunlestenes muiza","country":"lv","lat":56.7947222,"lon":23.1427778},{"id":1726281,"name":"engure","country":"lv","lat":57.1630556,"lon":23.2241667},{"id":1731298,"name":"sareji","country":"lv","lat":57.3333333,"lon":22.7},{"id":1733555,"name":"zantes muiza","country":"lv","lat":56.8333333,"lon":22.7333333},{"id":1728423,"name":"lielvirbi","country":"lv","lat":57.0833333,"lon":22.5666667},{"id":1726752,"name":"imantas","country":"lv","lat":56.65,"lon":22.6166667},{"id":1732737,"name":"vandzene","country":"lv","lat":57.3333333,"lon":22.8},{"id":1729295,"name":"murvidini","country":"lv","lat":57.0,"lon":22.85},{"id":1730295,"name":"petertale","country":"lv","lat":56.8188889,"lon":23.0188889},{"id":1730663,"name":"puces","country":"lv","lat":56.9666667,"lon":22.6166667},{"id":1727236,"name":"kalni","country":"lv","lat":57.0166667,"lon":22.65},{"id":1731261,"name":"(( salas ))","country":"lv","lat":57.1472222,"lon":23.2294444},{"id":1724610,"name":"aizpure","country":"lv","lat":56.9469444,"lon":23.2925},{"id":1728134,"name":"lauki","country":"lv","lat":57.2333333,"lon":22.5666667},{"id":1725905,"name":"degole","country":"lv","lat":56.8872222,"lon":23.0719444},{"id":1729002,"name":"meiniki","country":"lv","lat":57.0,"lon":22.9166667},{"id":1727259,"name":"kaltene","country":"lv","lat":57.4666667,"lon":22.9},{"id":1733159,"name":"viksele","country":"lv","lat":56.8694444,"lon":23.3166667},{"id":1732754,"name":"variebas muiza","country":"lv","lat":56.8666667,"lon":22.5833333},{"id":1727920,"name":"kule","country":"lv","lat":57.2666667,"lon":22.6833333},{"id":1724662,"name":"alava","country":"lv","lat":56.5025,"lon":23.2147222},{"id":1728293,"name":"lidtsiems","country":"lv","lat":57.1,"lon":22.7333333},{"id":1728465,"name":"ligaskrogs","country":"lv","lat":57.0666667,"lon":22.8166667},{"id":1727102,"name":"jurgi","country":"lv","lat":56.7333333,"lon":22.8666667},{"id":1728208,"name":"lejasmuiza","country":"lv","lat":57.0,"lon":22.75},{"id":1731640,"name":"sknabe","country":"lv","lat":57.15,"lon":22.6833333},{"id":1731145,"name":"ruki","country":"lv","lat":56.6,"lon":22.8333333},{"id":1732548,"name":"(( udze ))","country":"lv","lat":56.6666667,"lon":23.4333333},{"id":1727809,"name":"krivi","country":"lv","lat":56.9452778,"lon":23.1097222},{"id":1732837,"name":"vecapgulde","country":"lv","lat":56.5344444,"lon":23.2391667},{"id":1727169,"name":"kaleji","country":"lv","lat":57.35,"lon":22.5},{"id":1726872,"name":"jaunamuiza","country":"lv","lat":56.7,"lon":22.95},{"id":1725366,"name":"blazmas","country":"lv","lat":56.7788889,"lon":23.0919444},{"id":1728185,"name":"legzdini","country":"lv","lat":57.45,"lon":22.7666667},{"id":1725853,"name":"darta","country":"lv","lat":57.35,"lon":22.8},{"id":1725270,"name":"berzspile","country":"lv","lat":56.7255556,"lon":23.3894444},{"id":1729768,"name":"myza yaunsati","country":"lv","lat":56.9666667,"lon":22.9666667},{"id":1729224,"name":"modri","country":"lv","lat":56.5833333,"lon":22.8666667},{"id":1728843,"name":"matkules muiza","country":"lv","lat":56.9666667,"lon":22.6},{"id":1727923,"name":"kuli","country":"lv","lat":57.2655556,"lon":23.0319444},{"id":1728324,"name":"lielautse","country":"lv","lat":56.5166667,"lon":22.9},{"id":1732296,"name":"tenni","country":"lv","lat":56.9833333,"lon":22.7833333},{"id":1730209,"name":"paulsbergi","country":"lv","lat":57.35,"lon":22.5333333},{"id":1732272,"name":"taurini","country":"lv","lat":56.7388889,"lon":23.3186111},{"id":1730748,"name":"putnene","country":"lv","lat":57.0833333,"lon":22.9},{"id":1731048,"name":"roynieki","country":"lv","lat":57.3333333,"lon":22.5833333},{"id":1726452,"name":"garlene muizas centrs","country":"lv","lat":57.2666667,"lon":22.8},{"id":1731566,"name":"(( sipele ))","country":"lv","lat":56.6833333,"lon":23.3},{"id":1726316,"name":"ezerkalne","country":"lv","lat":57.2333333,"lon":22.6},{"id":1730441,"name":"plavnieki","country":"lv","lat":56.6166667,"lon":22.9666667},{"id":1729956,"name":"odre","country":"lv","lat":57.2333333,"lon":22.7},{"id":1730084,"name":"ozolpils","country":"lv","lat":56.9216667,"lon":23.2641667},{"id":1724843,"name":"apshutsiyems","country":"lv","lat":57.0616667,"lon":23.3055556},{"id":1727780,"name":"krievragtsiems","country":"lv","lat":57.2888889,"lon":23.0597222},{"id":1730775,"name":"radzini","country":"lv","lat":56.9841667,"lon":23.2597222},{"id":1729200,"name":"mines","country":"lv","lat":56.5166667,"lon":22.85},{"id":1728518,"name":"livberzes stacija","country":"lv","lat":56.7044444,"lon":23.4558333},{"id":1725961,"name":"dizciems","country":"lv","lat":57.3613889,"lon":23.1280556},{"id":1732455,"name":"tserpi","country":"lv","lat":56.7833333,"lon":22.8},{"id":1733088,"name":"vevervezes","country":"lv","lat":56.8,"lon":22.8833333},{"id":1729785,"name":"myza zemites","country":"lv","lat":56.9333333,"lon":22.8},{"id":1728878,"name":"mazcieceres muiza","country":"lv","lat":56.6666667,"lon":22.55},{"id":1732489,"name":"tume","country":"lv","lat":56.9338889,"lon":23.0902778},{"id":1732358,"name":"tingere muizas centrs","country":"lv","lat":57.45,"lon":22.5333333},{"id":1726673,"name":"(( gulbji ))","country":"lv","lat":56.7,"lon":23.1333333},{"id":1732477,"name":"tukkum","country":"lv","lat":56.9669444,"lon":23.1552778},{"id":1728329,"name":"lielberze","country":"lv","lat":56.6444444,"lon":23.2425},{"id":1729791,"name":"myza zvare","country":"lv","lat":57.0333333,"lon":22.9666667},{"id":1732581,"name":"upenieki","country":"lv","lat":56.65,"lon":22.9},{"id":1732341,"name":"tilmani","country":"lv","lat":56.8280556,"lon":23.2408333},{"id":1731768,"name":"smarde-kudra","country":"lv","lat":56.9677778,"lon":23.3580556},{"id":1724671,"name":"alksnajs","country":"lv","lat":57.31,"lon":23.0458333},{"id":1728312,"name":"lielaisciems","country":"lv","lat":57.0119444,"lon":23.2775},{"id":1726378,"name":"fridriki pusmuizas centrs","country":"lv","lat":57.2333333,"lon":22.9},{"id":1732596,"name":"upes\u0027yani","country":"lv","lat":57.0833333,"lon":22.7666667},{"id":1733120,"name":"vidusmuyzha","country":"lv","lat":56.6333333,"lon":22.9166667},{"id":1726096,"name":"dumpietes","country":"lv","lat":57.165,"lon":23.0069444},{"id":1731330,"name":"sati","country":"lv","lat":56.9166667,"lon":22.95},{"id":1727768,"name":"kreyya","country":"lv","lat":56.6408333,"lon":23.3808333},{"id":1725974,"name":"dizseni","country":"lv","lat":57.2166667,"lon":22.8666667},{"id":1725906,"name":"degsnas","country":"lv","lat":57.0833333,"lon":22.6333333},{"id":1730352,"name":"pilsblidiene","country":"lv","lat":56.7,"lon":22.7},{"id":1725955,"name":"dipteri","country":"lv","lat":56.7077778,"lon":23.4747222},{"id":1727825,"name":"krogeli","country":"lv","lat":56.7,"lon":22.6},{"id":1725306,"name":"bikstu muiza","country":"lv","lat":56.7,"lon":22.9666667},{"id":1728802,"name":"marinmuiza","country":"lv","lat":56.7822222,"lon":23.1613889},{"id":1725308,"name":"bilavi","country":"lv","lat":57.4166667,"lon":22.7},{"id":1725908,"name":"degummuiza","country":"lv","lat":56.5408333,"lon":23.4475},{"id":1730056,"name":"ozolini","country":"lv","lat":56.9811111,"lon":23.155},{"id":1724820,"name":"anuzi","country":"lv","lat":57.4166667,"lon":22.6},{"id":1727789,"name":"krimunas","country":"lv","lat":56.5713889,"lon":23.3758333},{"id":1731215,"name":"saarkaste","country":"lv","lat":57.45,"lon":22.5666667},{"id":1726034,"name":"driguli","country":"lv","lat":56.5333333,"lon":22.5333333},{"id":1730026,"name":"(( osleja ))","country":"lv","lat":56.9402778,"lon":23.1697222},{"id":1729196,"name":"miltini","country":"lv","lat":56.63,"lon":23.3411111},{"id":1731976,"name":"stende","country":"lv","lat":57.15,"lon":22.5333333},{"id":1725658,"name":"cakstes","country":"lv","lat":57.0166667,"lon":22.55},{"id":1725863,"name":"darzini","country":"lv","lat":56.5166667,"lon":22.8666667},{"id":1725977,"name":"dobele","country":"lv","lat":56.625,"lon":23.2786111},{"id":1732933,"name":"vecsmardes pusmuizas centrs","country":"lv","lat":56.9547222,"lon":23.3386111},{"id":1727836,"name":"kronmuiza","country":"lv","lat":57.3833333,"lon":22.6166667},{"id":1725762,"name":"ciemklabi","country":"lv","lat":57.2666667,"lon":22.5666667},{"id":1730894,"name":"remte","country":"lv","lat":56.75,"lon":22.7},{"id":1726572,"name":"grauzde","country":"lv","lat":56.795,"lon":23.3275},{"id":1724974,"name":"aunini","country":"lv","lat":56.6166667,"lon":22.9},{"id":1731323,"name":"saslauku muizas centrs","country":"lv","lat":57.3666667,"lon":22.6666667},{"id":1725449,"name":"brandavi","country":"lv","lat":56.7455556,"lon":23.0669444},{"id":1726201,"name":"dzirciema muizas centrs","country":"lv","lat":57.1205556,"lon":23.0125},{"id":1726895,"name":"jaunberze","country":"lv","lat":56.7377778,"lon":23.3919444},{"id":1731360,"name":"sautini","country":"lv","lat":56.9333333,"lon":22.8833333},{"id":1726143,"name":"dzedri","country":"lv","lat":57.2486111,"lon":23.0266667},{"id":1733722,"name":"zvarde","country":"lv","lat":56.5666667,"lon":22.6333333},{"id":1728128,"name":"laugali","country":"lv","lat":56.6166667,"lon":22.8},{"id":1728090,"name":"lapsas","country":"lv","lat":56.6,"lon":22.55},{"id":1725850,"name":"dankumi","country":"lv","lat":57.0,"lon":22.6166667},{"id":1732072,"name":"striki","country":"lv","lat":56.6,"lon":22.5166667},{"id":1726923,"name":"jaundziras","country":"lv","lat":56.8833333,"lon":22.7333333},{"id":1727019,"name":"jauntukums","country":"lv","lat":56.9575,"lon":23.1594444},{"id":1724867,"name":"arlava","country":"lv","lat":57.4,"lon":22.6},{"id":1728715,"name":"macitajmuiza","country":"lv","lat":56.7855556,"lon":23.2261111},{"id":1727761,"name":"kreplinkroags","country":"lv","lat":57.3166667,"lon":22.7833333},{"id":1733195,"name":"vilkaya","country":"lv","lat":56.9677778,"lon":23.095},{"id":1725278,"name":"besberty","country":"lv","lat":56.6697222,"lon":23.2558333},{"id":1725627,"name":"burtnieki","country":"lv","lat":56.7941667,"lon":23.0702778},{"id":1728136,"name":"laukrugaji","country":"lv","lat":57.0,"lon":22.8666667},{"id":1732681,"name":"valdegale","country":"lv","lat":57.2833333,"lon":22.5666667},{"id":1731797,"name":"snapji","country":"lv","lat":56.85,"lon":22.9833333},{"id":1724980,"name":"auru","country":"lv","lat":56.5641667,"lon":23.2933333},{"id":1726983,"name":"jaunplavas","country":"lv","lat":57.2058333,"lon":23.0547222},{"id":1732683,"name":"valdemarpils","country":"lv","lat":57.3666667,"lon":22.5833333},{"id":1725370,"name":"blidiene","country":"lv","lat":56.65,"lon":22.8166667},{"id":1727642,"name":"kokmuiza","country":"lv","lat":56.5,"lon":22.75},{"id":1726431,"name":"garaushi","country":"lv","lat":56.9116667,"lon":23.1366667},{"id":1728262,"name":"leveste","country":"lv","lat":56.7166667,"lon":22.9833333},{"id":1733400,"name":"yaunpils","country":"lv","lat":56.7325,"lon":23.0136111},{"id":1724914,"name":"auces muiza","country":"lv","lat":56.51,"lon":23.3391667},{"id":1730482,"name":"plyavniyeki","country":"lv","lat":56.6666667,"lon":23.2336111},{"id":1724985,"name":"ausatu muiza","country":"lv","lat":56.6505556,"lon":23.1461111},{"id":1730931,"name":"riebiki","country":"lv","lat":57.0166667,"lon":22.7833333},{"id":1731712,"name":"slampe","country":"lv","lat":56.8486111,"lon":23.2958333},{"id":1728025,"name":"(( laci ))","country":"lv","lat":56.85,"lon":23.3666667},{"id":1728186,"name":"leibinas","country":"lv","lat":56.6666667,"lon":22.5333333},{"id":1726856,"name":"janukrogs","country":"lv","lat":57.4,"lon":22.8333333},{"id":1733469,"name":"zabeln","country":"lv","lat":57.05,"lon":22.5833333},{"id":1730929,"name":"rideli","country":"lv","lat":57.1372222,"lon":23.1005556},{"id":1727527,"name":"kirpeni","country":"lv","lat":56.5322222,"lon":23.3263889},{"id":1731439,"name":"shkibe","country":"lv","lat":56.6230556,"lon":23.4088889},{"id":1730370,"name":"pindzele","country":"lv","lat":57.1405556,"lon":23.0491667},{"id":1724786,"name":"annenieki","country":"lv","lat":56.6722222,"lon":23.0897222},{"id":1726999,"name":"(( jaunsesava ))","country":"lv","lat":56.5458333,"lon":23.1288889},{"id":1733420,"name":"yauntsiyem","country":"lv","lat":57.3833333,"lon":22.75},{"id":1728487,"name":"limbuzi","country":"lv","lat":57.3166667,"lon":22.5},{"id":1728951,"name":"mazvane","country":"lv","lat":56.9166667,"lon":22.55},{"id":1724656,"name":"akmeni","country":"lv","lat":56.9166667,"lon":22.9666667},{"id":1729477,"name":"myza lamini","country":"lv","lat":57.1,"lon":22.9666667},{"id":1727484,"name":"kestertsiyems","country":"lv","lat":57.1147222,"lon":23.2311111},{"id":1725063,"name":"balgale","country":"lv","lat":57.1666667,"lon":22.9},{"id":1725728,"name":"cerpas","country":"lv","lat":57.3166667,"lon":22.7},{"id":1727314,"name":"kapukrogs","country":"lv","lat":56.8,"lon":22.7166667},{"id":1732047,"name":"strautleyas","country":"lv","lat":56.8636111,"lon":23.0377778},{"id":1727533,"name":"kisi","country":"lv","lat":56.9166667,"lon":23.0},{"id":1730445,"name":"plavnieku pusmuiza","country":"lv","lat":56.7333333,"lon":22.9},{"id":1727544,"name":"(( kivuli ))","country":"lv","lat":56.9166667,"lon":23.2166667},{"id":1733577,"name":"zebras","country":"lv","lat":56.6475,"lon":23.0358333},{"id":1730712,"name":"purgali","country":"lv","lat":57.1666667,"lon":22.6},{"id":1730708,"name":"pure muizas centrs","country":"lv","lat":57.0333333,"lon":22.9},{"id":1732521,"name":"tylas","country":"lv","lat":57.0833333,"lon":22.7166667},{"id":1731902,"name":"spurgi","country":"lv","lat":56.5772222,"lon":23.4916667},{"id":1729630,"name":"myza sentene","country":"lv","lat":57.1333333,"lon":22.9833333},{"id":1729130,"name":"mezinieki","country":"lv","lat":56.7705556,"lon":23.4711111},{"id":1727026,"name":"jaunvarieba","country":"lv","lat":56.8666667,"lon":22.6},{"id":1728615,"name":"luba","country":"lv","lat":57.4333333,"lon":22.6333333},{"id":1730309,"name":"pidole","country":"lv","lat":57.0333333,"lon":22.5666667},{"id":1729086,"name":"mezamuiza","country":"lv","lat":56.8666667,"lon":22.9},{"id":1727685,"name":"korshi","country":"lv","lat":56.6333333,"lon":22.5166667},{"id":1727740,"name":"krastini","country":"lv","lat":57.2,"lon":22.7333333},{"id":1728079,"name":"lantseniyeki","country":"lv","lat":56.8127778,"lon":23.35},{"id":1729525,"name":"myza mazberze","country":"lv","lat":56.6333333,"lon":23.1833333},{"id":1726537,"name":"gluda","country":"lv","lat":56.6019444,"lon":23.4961111},{"id":1724801,"name":"antin\u0027tsiyem","country":"lv","lat":56.9769444,"lon":23.4594444},{"id":1724846,"name":"apsuciems","country":"lv","lat":57.4833333,"lon":22.7666667},{"id":1733641,"name":"ziemelnieki","country":"lv","lat":56.55,"lon":22.6666667},{"id":1726831,"name":"jadeksas","country":"lv","lat":57.2666667,"lon":22.9666667},{"id":1725272,"name":"berztsiyems","country":"lv","lat":57.2463889,"lon":23.1736111},{"id":1727188,"name":"(( kalnacimas ))","country":"lv","lat":56.5166667,"lon":23.4},{"id":1730701,"name":"puni","country":"lv","lat":57.35,"lon":22.5166667},{"id":1724649,"name":"aklaistsiems","country":"lv","lat":57.1833333,"lon":22.6666667},{"id":1725277,"name":"berzupe","country":"lv","lat":56.6897222,"lon":23.1044444},{"id":1733281,"name":"vitini","country":"lv","lat":56.75,"lon":22.85},{"id":1728138,"name":"lauktehnika","country":"lv","lat":56.9533333,"lon":23.125},{"id":1726968,"name":"jaunpagasta muizas centrs","country":"lv","lat":57.1333333,"lon":22.6333333},{"id":1729723,"name":"myza vetsmoku","country":"lv","lat":57.0008333,"lon":23.0802778},{"id":1731123,"name":"rudzisi","country":"lv","lat":56.6833333,"lon":22.9666667},{"id":1733086,"name":"veveri","country":"lv","lat":57.0833333,"lon":22.8166667},{"id":1731755,"name":"slokleyas","country":"lv","lat":56.9602778,"lon":23.0194444},{"id":1729547,"name":"myza nogale","country":"lv","lat":57.3666667,"lon":22.7333333},{"id":1728337,"name":"lielciecere","country":"lv","lat":56.65,"lon":22.5833333},{"id":1727040,"name":"jaunzvarde","country":"lv","lat":56.5333333,"lon":22.7166667},{"id":1726591,"name":"grenchi","country":"lv","lat":56.9,"lon":22.8833333},{"id":1727388,"name":"kaulicas","country":"lv","lat":56.7166667,"lon":22.65},{"id":1731604,"name":"skarves","country":"lv","lat":56.5,"lon":22.9333333},{"id":1727070,"name":"josti","country":"lv","lat":56.7,"lon":22.8333333},{"id":1731753,"name":"slokenbeka","country":"lv","lat":56.9777778,"lon":23.2255556},{"id":1733130,"name":"vieniba","country":"lv","lat":56.9025,"lon":23.1347222},{"id":1732551,"name":"ugunciems","country":"lv","lat":57.3833333,"lon":22.95},{"id":1733101,"name":"vicezi","country":"lv","lat":57.2166667,"lon":22.6333333},{"id":1731178,"name":"rusas","country":"lv","lat":56.5347222,"lon":23.1952778},{"id":1727256,"name":"kalny","country":"lv","lat":57.4333333,"lon":22.9},{"id":1726660,"name":"gubeni","country":"lv","lat":56.5333333,"lon":22.8166667},{"id":1728948,"name":"mazushi","country":"lv","lat":56.5,"lon":22.5666667},{"id":1727279,"name":"kandava","country":"lv","lat":57.0333333,"lon":22.7666667},{"id":1730080,"name":"ozolnieki","country":"lv","lat":56.9205556,"lon":23.2202778},{"id":1731297,"name":"sarcene","country":"lv","lat":57.2833333,"lon":22.7},{"id":1727368,"name":"katrinmuiza","country":"lv","lat":56.6166667,"lon":22.9166667},{"id":1728614,"name":"luba","country":"lv","lat":56.5666667,"lon":22.7666667},{"id":1731546,"name":"silmuyzha","country":"lv","lat":57.4,"lon":22.5333333},{"id":1728919,"name":"mazplani","country":"lv","lat":56.8333333,"lon":22.7166667},{"id":1730574,"name":"poprags","country":"lv","lat":57.35,"lon":22.65},{"id":1725520,"name":"brizule","country":"lv","lat":57.0905556,"lon":23.0880556},{"id":1731450,"name":"shterstnieki","country":"lv","lat":57.05,"lon":22.6833333},{"id":1727101,"name":"jurgi","country":"lv","lat":57.1333333,"lon":22.5333333},{"id":1728223,"name":"leli","country":"lv","lat":56.8833333,"lon":22.6833333},{"id":1725784,"name":"ciroles muiza","country":"lv","lat":56.5166667,"lon":23.0833333},{"id":1732454,"name":"tsere","country":"lv","lat":57.1166667,"lon":22.8666667},{"id":1724599,"name":"aizdzire","country":"lv","lat":57.0,"lon":22.7333333},{"id":1725470,"name":"(( breki ))","country":"lv","lat":56.7166667,"lon":23.4833333},{"id":1729651,"name":"myza spirgus","country":"lv","lat":56.8461111,"lon":23.2136111}]});