callback({"markets":[{"id":2522882,"name":"sosvinskaya kultbaza","country":"ru","lat":63.648611,"lon":62.109722},{"id":2485213,"name":"patrasuy","country":"ru","lat":63.617222,"lon":61.839722},{"id":2444157,"name":"letniki rakhtyn","country":"ru","lat":63.683333,"lon":61.85},{"id":2565727,"name":"yurty shomy","country":"ru","lat":63.6,"lon":62.2},{"id":2419939,"name":"khorsay-paul","country":"ru","lat":63.516667,"lon":62.166667},{"id":2565714,"name":"yurty pakhtynya","country":"ru","lat":63.683333,"lon":61.866667},{"id":2565716,"name":"yurty posoldino","country":"ru","lat":63.583333,"lon":61.6}]});