callback({"markets":[{"id":650446,"name":"zhanzi","country":"cn","lat":44.916667,"lon":124.066667},{"id":489092,"name":"hsiehchiawopeng","country":"cn","lat":45.333333,"lon":123.666667},{"id":485989,"name":"houdagangzi","country":"cn","lat":45.216667,"lon":123.55},{"id":480884,"name":"heidimiao","country":"cn","lat":44.633333,"lon":123.733333},{"id":480299,"name":"hashihtu","country":"cn","lat":44.7,"lon":124.45},{"id":604938,"name":"ulan jalag","country":"cn","lat":44.65,"lon":124.4},{"id":643857,"name":"yucheng","country":"cn","lat":45.15,"lon":124.083333},{"id":558467,"name":"qianyu","country":"cn","lat":45.35,"lon":124.116667},{"id":589831,"name":"suoxue","country":"cn","lat":44.816667,"lon":123.75},{"id":453522,"name":"datuozi","country":"cn","lat":44.766667,"lon":124.283333},{"id":551076,"name":"palangtun","country":"cn","lat":45.366667,"lon":124.4},{"id":421048,"name":"anzijing","country":"cn","lat":44.833333,"lon":124.016667},{"id":651546,"name":"zhende","country":"cn","lat":44.8,"lon":123.583333},{"id":452281,"name":"daqingzijing","country":"cn","lat":44.733333,"lon":123.9},{"id":478968,"name":"haizijing","country":"cn","lat":45.083333,"lon":124.3},{"id":561170,"name":"qingwai","country":"cn","lat":44.766667,"lon":123.883333},{"id":637461,"name":"yaojingzi","country":"cn","lat":44.583333,"lon":123.616667},{"id":543145,"name":"naizijing","country":"cn","lat":45.066667,"lon":123.816667},{"id":473533,"name":"gongnonghu","country":"cn","lat":44.85,"lon":123.633333},{"id":499604,"name":"jangtzu","country":"cn","lat":45.016667,"lon":124.266667},{"id":604952,"name":"ulan tug","country":"cn","lat":44.566667,"lon":124.4},{"id":556797,"name":"qagan hua","country":"cn","lat":44.6,"lon":124.016667},{"id":529163,"name":"longzhao","country":"cn","lat":45.116667,"lon":123.6},{"id":440743,"name":"chienanchen","country":"cn","lat":44.993243,"lon":124.058109},{"id":478817,"name":"haito","country":"cn","lat":45.233333,"lon":123.966667},{"id":419924,"name":"anchang","country":"cn","lat":44.833333,"lon":124.033333},{"id":525311,"name":"liujinyou","country":"cn","lat":44.583333,"lon":123.8},{"id":448960,"name":"dahuofang","country":"cn","lat":45.4,"lon":123.9},{"id":515299,"name":"lantzuching","country":"cn","lat":44.866667,"lon":123.55},{"id":431071,"name":"caizijing","country":"cn","lat":44.933333,"lon":123.8},{"id":557007,"name":"qiananzhan","country":"cn","lat":45.1,"lon":123.866667},{"id":623476,"name":"xidawa","country":"cn","lat":45.4,"lon":124.2}]});