callback({"markets":[{"id":1118329,"name":"felsocsardai dulo","country":"hu","lat":46.666667,"lon":20.85},{"id":1114332,"name":"annaliget","country":"hu","lat":46.866667,"lon":20.533333},{"id":1128263,"name":"sap","country":"hu","lat":47.25,"lon":21.366667},{"id":1123101,"name":"korhany","country":"hu","lat":46.966667,"lon":21.083333},{"id":1123202,"name":"koselyszeg","country":"hu","lat":47.466667,"lon":21.25},{"id":1121868,"name":"kephalom","country":"hu","lat":47.316667,"lon":20.516667},{"id":1130181,"name":"tatarsanc","country":"hu","lat":46.5,"lon":20.766667},{"id":1115585,"name":"bihartordai tanyak","country":"hu","lat":47.216667,"lon":21.366667},{"id":1130712,"name":"torzsokos","country":"hu","lat":46.783333,"lon":21.266667},{"id":1119640,"name":"gyoparhalom","country":"hu","lat":46.566667,"lon":20.616667},{"id":1130587,"name":"tolgyfastanya","country":"hu","lat":46.883333,"lon":21.45},{"id":1119244,"name":"gerlai tanyak","country":"hu","lat":46.716667,"lon":21.2},{"id":1114718,"name":"bakonszeg","country":"hu","lat":47.183333,"lon":21.45},{"id":1129898,"name":"szorhalom","country":"hu","lat":46.766667,"lon":20.683333},{"id":1126992,"name":"penzeskert","country":"hu","lat":47.35,"lon":20.616667},{"id":1132294,"name":"zsoldos","country":"hu","lat":47.15,"lon":21.45},{"id":1119608,"name":"gyokeresitanyak","country":"hu","lat":46.6,"lon":20.633333},{"id":1129325,"name":"szendreimajor","country":"hu","lat":46.583333,"lon":20.533333},{"id":1122318,"name":"kisfas","country":"hu","lat":46.933333,"lon":21.166667},{"id":1115284,"name":"bekesierdo","country":"hu","lat":46.783333,"lon":21.3},{"id":1117399,"name":"diter","country":"hu","lat":46.783333,"lon":21.2},{"id":1117071,"name":"csukas","country":"hu","lat":46.883333,"lon":20.966667},{"id":1113988,"name":"alsocsarda dulo","country":"hu","lat":46.65,"lon":20.85},{"id":1117160,"name":"dancshaza","country":"hu","lat":47.233333,"lon":21.316667},{"id":1127331,"name":"polyakhalom","country":"hu","lat":46.883333,"lon":20.75},{"id":1129542,"name":"szerep","country":"hu","lat":47.233333,"lon":21.15},{"id":1117068,"name":"csudabala","country":"hu","lat":47.066667,"lon":20.833333},{"id":1128105,"name":"rudolfmajor","country":"hu","lat":46.65,"lon":20.783333},{"id":1123166,"name":"korosujfalu","country":"hu","lat":46.966667,"lon":21.4},{"id":1122372,"name":"kishalom","country":"hu","lat":46.55,"lon":20.583333},{"id":1130700,"name":"torokzug","country":"hu","lat":46.65,"lon":21.25},{"id":1117011,"name":"csorba","country":"hu","lat":47.166667,"lon":20.616667},{"id":1114861,"name":"balinttanya","country":"hu","lat":46.716667,"lon":21.45},{"id":1124085,"name":"loffler-major","country":"hu","lat":46.5,"lon":20.95},{"id":1129537,"name":"szeregyhaza","country":"hu","lat":46.683333,"lon":21.266667},{"id":1119444,"name":"gorzsasdulo","country":"hu","lat":47.366667,"lon":21.233333},{"id":1116457,"name":"csardaszallas","country":"hu","lat":46.866667,"lon":20.933333},{"id":1128765,"name":"sosto","country":"hu","lat":46.5,"lon":20.583333},{"id":1117397,"name":"disznoret","country":"hu","lat":47.383333,"lon":21.0},{"id":1129895,"name":"szorfu","country":"hu","lat":47.216667,"lon":20.666667},{"id":1122234,"name":"kiscsako","country":"hu","lat":46.7,"lon":20.75},{"id":1128561,"name":"sitka","country":"hu","lat":46.7,"lon":21.35},{"id":1129822,"name":"szollostanya","country":"hu","lat":47.183333,"lon":20.95},{"id":1130248,"name":"telekdulo","country":"hu","lat":47.4,"lon":21.45},{"id":1123886,"name":"lebukipuszta","country":"hu","lat":46.566667,"lon":20.583333},{"id":1116646,"name":"csereszentlaszlo","country":"hu","lat":46.683333,"lon":20.566667},{"id":1124795,"name":"mehes","country":"hu","lat":46.916667,"lon":21.133333},{"id":1117953,"name":"erpart","country":"hu","lat":46.733333,"lon":20.6},{"id":1124876,"name":"meszarostanya","country":"hu","lat":46.733333,"lon":20.7},{"id":1131587,"name":"vekerd","country":"hu","lat":47.1,"lon":21.4},{"id":1121909,"name":"kerektiszta","country":"hu","lat":47.25,"lon":21.05},{"id":1115423,"name":"benzfoldek","country":"hu","lat":46.766667,"lon":20.8},{"id":1119018,"name":"gacshat","country":"hu","lat":46.916667,"lon":21.066667},{"id":1125254,"name":"murvahely","country":"hu","lat":46.733333,"lon":21.05},{"id":1113803,"name":"agotazug","country":"hu","lat":47.366667,"lon":21.083333},{"id":1114930,"name":"banhalmi major","country":"hu","lat":47.3,"lon":20.616667},{"id":1122005,"name":"keselyusitanyak","country":"hu","lat":46.85,"lon":20.866667},{"id":1116010,"name":"borzidulo","country":"hu","lat":47.166667,"lon":20.95},{"id":1116459,"name":"csardazug","country":"hu","lat":46.866667,"lon":20.95},{"id":1118525,"name":"felso sostanyai foldek","country":"hu","lat":46.633333,"lon":20.666667},{"id":1119419,"name":"gorogallas","country":"hu","lat":46.983333,"lon":20.783333},{"id":1127784,"name":"redeyoros","country":"hu","lat":47.133333,"lon":21.4},{"id":1119067,"name":"galgoczy-major","country":"hu","lat":46.766667,"lon":20.866667},{"id":1114628,"name":"bagditanya","country":"hu","lat":47.25,"lon":21.15},{"id":1115571,"name":"bicopuszta","country":"hu","lat":47.116667,"lon":21.433333},{"id":1116180,"name":"bundasziget","country":"hu","lat":46.85,"lon":21.166667},{"id":1127574,"name":"pusztatorda","country":"hu","lat":46.983333,"lon":21.333333},{"id":1125861,"name":"negyegyenesdulo","country":"hu","lat":46.783333,"lon":20.933333},{"id":1129417,"name":"szentivanhalom","country":"hu","lat":47.4,"lon":21.15},{"id":1129279,"name":"szeleshat","country":"hu","lat":47.133333,"lon":20.666667},{"id":1132228,"name":"zsellerfoldek","country":"hu","lat":46.816667,"lon":21.033333},{"id":1116720,"name":"cserormagy","country":"hu","lat":46.85,"lon":21.266667},{"id":1116847,"name":"csillag-puszta","country":"hu","lat":47.25,"lon":20.55},{"id":1117390,"name":"disznohalom","country":"hu","lat":46.733333,"lon":20.516667},{"id":1130252,"name":"telekgerendas","country":"hu","lat":46.65,"lon":20.966667},{"id":1128001,"name":"rokkantret","country":"hu","lat":47.25,"lon":20.516667},{"id":1131266,"name":"vadas","country":"hu","lat":46.9,"lon":21.25},{"id":1121289,"name":"kakasszek","country":"hu","lat":46.566667,"lon":20.6},{"id":1119811,"name":"hajduszovat","country":"hu","lat":47.383333,"lon":21.483333},{"id":1120484,"name":"homokos","country":"hu","lat":46.566667,"lon":20.8},{"id":1129888,"name":"szopor","country":"hu","lat":46.916667,"lon":21.316667},{"id":1122588,"name":"kisorosi tanya","country":"hu","lat":46.883333,"lon":21.483333},{"id":1115883,"name":"bolza-major","country":"hu","lat":46.766667,"lon":20.766667},{"id":1128698,"name":"soprony","country":"hu","lat":46.7,"lon":20.883333},{"id":1114847,"name":"balazsujtelep","country":"hu","lat":46.9,"lon":21.366667},{"id":1119218,"name":"gerendas","country":"hu","lat":46.6,"lon":20.866667},{"id":1121896,"name":"kerekitelep","country":"hu","lat":46.883333,"lon":21.35},{"id":1120364,"name":"hidkoz","country":"hu","lat":47.2,"lon":21.483333},{"id":1119966,"name":"harangos","country":"hu","lat":46.55,"lon":20.8},{"id":1126299,"name":"olyvostanya","country":"hu","lat":47.133333,"lon":21.466667},{"id":1129606,"name":"szikhattanya","country":"hu","lat":46.55,"lon":20.7},{"id":1117110,"name":"cukorgyar","country":"hu","lat":46.733333,"lon":21.383333},{"id":1123070,"name":"koplalokert","country":"hu","lat":47.0,"lon":21.183333},{"id":1114931,"name":"banhalom","country":"hu","lat":47.316667,"lon":20.583333},{"id":1128590,"name":"solymosmajor","country":"hu","lat":46.666667,"lon":21.383333},{"id":1121890,"name":"kereki","country":"hu","lat":46.866667,"lon":21.116667},{"id":1123445,"name":"krisztinazug","country":"hu","lat":46.8,"lon":21.116667},{"id":1119003,"name":"gabonas","country":"hu","lat":46.9,"lon":21.35},{"id":1128279,"name":"sargagat","country":"hu","lat":46.85,"lon":21.116667},{"id":1121433,"name":"kapolna","country":"hu","lat":46.533333,"lon":20.6},{"id":1119013,"name":"gabortelep","country":"hu","lat":46.533333,"lon":20.916667},{"id":1118820,"name":"forras","country":"hu","lat":46.533333,"lon":20.8},{"id":1125813,"name":"nagyvenkert","country":"hu","lat":47.333333,"lon":20.916667},{"id":1118785,"name":"foldvaridulo","country":"hu","lat":46.75,"lon":21.0},{"id":1117206,"name":"darvas","country":"hu","lat":47.1,"lon":21.35},{"id":1122897,"name":"kodmonos","country":"hu","lat":47.116667,"lon":20.966667},{"id":1121565,"name":"karolinamajor","country":"hu","lat":46.866667,"lon":21.016667},{"id":1124264,"name":"magtarlapos","country":"hu","lat":46.933333,"lon":20.833333},{"id":1128106,"name":"rudolf-major","country":"hu","lat":46.75,"lon":21.3},{"id":1115882,"name":"bolza","country":"hu","lat":46.733333,"lon":20.766667},{"id":1124262,"name":"magsaritanyak","country":"hu","lat":46.75,"lon":21.2},{"id":1124219,"name":"macskas","country":"hu","lat":46.816667,"lon":21.216667},{"id":1125556,"name":"nagykiralysag","country":"hu","lat":46.7,"lon":20.5},{"id":1125391,"name":"nagy-csiker-tanya","country":"hu","lat":47.066667,"lon":21.233333},{"id":1129369,"name":"szentetornya","country":"hu","lat":46.583333,"lon":20.633333},{"id":1125682,"name":"nagyrabe","country":"hu","lat":47.2,"lon":21.333333},{"id":1114153,"name":"alsonyomas","country":"hu","lat":46.683333,"lon":21.083333},{"id":1126714,"name":"palmater","country":"hu","lat":46.7,"lon":20.7},{"id":2314574,"name":"ant","country":"ro","lat":46.666667,"lon":21.466667},{"id":1130634,"name":"topartpuszta","country":"hu","lat":47.283333,"lon":20.533333},{"id":1125572,"name":"nagy kuria-puszta","country":"hu","lat":47.066667,"lon":20.583333},{"id":1126475,"name":"orosipuszta","country":"hu","lat":46.9,"lon":21.45},{"id":1126773,"name":"paphalomtanyak","country":"hu","lat":46.933333,"lon":20.983333},{"id":1113920,"name":"almar","country":"hu","lat":46.8,"lon":21.3},{"id":1127875,"name":"rethy-tanya","country":"hu","lat":46.633333,"lon":21.133333},{"id":1131607,"name":"venkert","country":"hu","lat":47.1,"lon":20.75},{"id":1115570,"name":"bicere","country":"hu","lat":46.666667,"lon":21.233333},{"id":1126971,"name":"pejret","country":"hu","lat":46.633333,"lon":21.216667},{"id":1123733,"name":"lajosszenas","country":"hu","lat":46.683333,"lon":20.65},{"id":1127378,"name":"postelek","country":"hu","lat":46.7,"lon":21.233333},{"id":1116399,"name":"csanadapaca","country":"hu","lat":46.55,"lon":20.883333},{"id":1122215,"name":"kisbogarzo","country":"hu","lat":46.5,"lon":20.666667},{"id":1120829,"name":"iskolafold","country":"hu","lat":46.883333,"lon":20.516667},{"id":1122392,"name":"kishegy","country":"hu","lat":46.583333,"lon":20.616667},{"id":1121542,"name":"karcagi puszta","country":"hu","lat":47.266667,"lon":20.85},{"id":1127008,"name":"pereces","country":"hu","lat":46.95,"lon":21.266667},{"id":1121823,"name":"kenderessziget","country":"hu","lat":47.166667,"lon":20.916667},{"id":1128220,"name":"sandorhegy","country":"hu","lat":46.633333,"lon":21.25},{"id":1128305,"name":"sarkadkeresztur","country":"hu","lat":46.8,"lon":21.383333},{"id":1132289,"name":"zsofiamajor","country":"hu","lat":46.933333,"lon":20.916667},{"id":1118948,"name":"furugyi szollok","country":"hu","lat":46.833333,"lon":20.516667},{"id":1131892,"name":"vizesbanom","country":"hu","lat":46.8,"lon":21.166667},{"id":1130279,"name":"telek","country":"hu","lat":47.016667,"lon":20.866667},{"id":1117064,"name":"csucs","country":"hu","lat":46.533333,"lon":20.766667},{"id":1121228,"name":"kaba","country":"hu","lat":47.35,"lon":21.283333},{"id":1127573,"name":"pusztatomaj","country":"hu","lat":47.416667,"lon":20.65},{"id":1115958,"name":"borosszek","country":"hu","lat":46.566667,"lon":20.533333},{"id":1128757,"name":"sostofark","country":"hu","lat":46.516667,"lon":20.533333},{"id":1128680,"name":"soosdulo","country":"hu","lat":47.45,"lon":21.433333},{"id":1120017,"name":"harmas","country":"hu","lat":47.45,"lon":20.866667},{"id":1121774,"name":"kelemenzug","country":"hu","lat":47.1,"lon":20.916667},{"id":1124860,"name":"merzatanya","country":"hu","lat":47.216667,"lon":21.333333},{"id":1128753,"name":"sosszik","country":"hu","lat":46.733333,"lon":21.233333},{"id":1122300,"name":"kiserzug","country":"hu","lat":47.016667,"lon":21.416667},{"id":1129573,"name":"szigetmajor","country":"hu","lat":46.633333,"lon":21.35},{"id":1118168,"name":"fas","country":"hu","lat":46.9,"lon":21.166667},{"id":1128540,"name":"siniglatanya","country":"hu","lat":47.316667,"lon":21.316667},{"id":1115899,"name":"bonum-tanya","country":"hu","lat":46.55,"lon":20.65},{"id":1125668,"name":"nagypeli hatarresz","country":"hu","lat":46.55,"lon":21.25},{"id":1116444,"name":"csardalapos","country":"hu","lat":46.883333,"lon":20.933333},{"id":1125694,"name":"nagyret","country":"hu","lat":46.683333,"lon":21.366667},{"id":1121243,"name":"kacsas","country":"hu","lat":47.483333,"lon":20.733333},{"id":1123350,"name":"kozephalom","country":"hu","lat":46.85,"lon":20.6},{"id":1123565,"name":"kungyocs","country":"hu","lat":47.466667,"lon":20.6},{"id":1126607,"name":"ozes","country":"hu","lat":47.416667,"lon":21.033333},{"id":1124420,"name":"malomfoki gatorhaz","country":"hu","lat":46.983333,"lon":21.266667},{"id":1121219,"name":"justhmajor","country":"hu","lat":46.633333,"lon":20.616667},{"id":1129313,"name":"szenaskert","country":"hu","lat":47.216667,"lon":20.766667},{"id":1126478,"name":"orospuszta","country":"hu","lat":47.133333,"lon":21.366667},{"id":1127370,"name":"posahalom","country":"hu","lat":46.533333,"lon":20.566667},{"id":1124097,"name":"lokosihatar","country":"hu","lat":46.533333,"lon":21.25},{"id":1120899,"name":"ivanyi sor","country":"hu","lat":46.783333,"lon":20.883333},{"id":1122651,"name":"kisret","country":"hu","lat":47.183333,"lon":20.833333},{"id":1121913,"name":"kerekto","country":"hu","lat":46.966667,"lon":20.983333},{"id":1114451,"name":"aranyospuszta","country":"hu","lat":47.383333,"lon":20.683333},{"id":1122967,"name":"kolcser","country":"hu","lat":47.133333,"lon":21.433333},{"id":1129622,"name":"sziladmajor","country":"hu","lat":46.95,"lon":21.3},{"id":1120699,"name":"ihraz","country":"hu","lat":46.95,"lon":21.4},{"id":1117400,"name":"divikizug","country":"hu","lat":47.166667,"lon":21.083333},{"id":1121541,"name":"karcagigyogyfurdo","country":"hu","lat":47.383333,"lon":20.85},{"id":1123181,"name":"kortvelyes","country":"hu","lat":46.883333,"lon":21.066667},{"id":1120165,"name":"hegyeshalom","country":"hu","lat":47.45,"lon":21.45},{"id":1127322,"name":"polgartanya","country":"hu","lat":47.266667,"lon":20.566667},{"id":1114467,"name":"arkussziget-major","country":"hu","lat":46.95,"lon":21.0},{"id":1124258,"name":"magor","country":"hu","lat":46.95,"lon":21.2},{"id":1118951,"name":"fustpuszta","country":"hu","lat":47.183333,"lon":21.383333},{"id":1118159,"name":"farkasvolgyifurdo","country":"hu","lat":47.283333,"lon":21.216667},{"id":1125300,"name":"nadorer","country":"hu","lat":46.983333,"lon":21.116667},{"id":1127517,"name":"pusztakettos","country":"hu","lat":47.45,"lon":20.75},{"id":1118131,"name":"farkashalom","country":"hu","lat":46.533333,"lon":21.15},{"id":1116264,"name":"cifradulo","country":"hu","lat":46.85,"lon":20.783333},{"id":1129089,"name":"szaparfalu","country":"hu","lat":47.233333,"lon":20.533333},{"id":1129221,"name":"szeghalom","country":"hu","lat":47.033333,"lon":21.166667},{"id":1116297,"name":"cinalapos","country":"hu","lat":46.8,"lon":21.016667},{"id":1120162,"name":"hegyeshalmizugdulo","country":"hu","lat":47.4,"lon":21.483333},{"id":1117920,"name":"erdozug","country":"hu","lat":46.883333,"lon":21.033333},{"id":1125743,"name":"nagyszentmiklospuszta","country":"hu","lat":46.716667,"lon":20.95},{"id":1121403,"name":"kanye","country":"hu","lat":46.833333,"lon":21.383333},{"id":1131278,"name":"vadkert","country":"hu","lat":46.683333,"lon":20.533333},{"id":1122975,"name":"koleshalom","country":"hu","lat":47.016667,"lon":20.95},{"id":1115842,"name":"bolcsipuszta","country":"hu","lat":46.933333,"lon":21.433333},{"id":1126048,"name":"nyarzug","country":"hu","lat":47.45,"lon":21.15},{"id":1119738,"name":"gyulay-tanya","country":"hu","lat":46.933333,"lon":20.95},{"id":1115655,"name":"birotanya","country":"hu","lat":47.2,"lon":20.566667},{"id":1125686,"name":"nagyratamajor","country":"hu","lat":46.783333,"lon":20.616667},{"id":1126391,"name":"oregszik","country":"hu","lat":46.55,"lon":21.183333},{"id":1124158,"name":"ludad","country":"hu","lat":46.816667,"lon":21.166667},{"id":1119135,"name":"gatalypuszta","country":"hu","lat":47.266667,"lon":21.15},{"id":1124755,"name":"medgyesegyhazi tanyak","country":"hu","lat":46.5,"lon":21.033333},{"id":1128785,"name":"spilkamajor","country":"hu","lat":46.65,"lon":20.616667},{"id":1115666,"name":"blankamajor","country":"hu","lat":46.816667,"lon":21.05},{"id":1128857,"name":"susanhat","country":"hu","lat":46.933333,"lon":20.783333},{"id":1128526,"name":"simasziget","country":"hu","lat":47.033333,"lon":21.016667},{"id":1122608,"name":"kisperjes","country":"hu","lat":46.95,"lon":20.966667},{"id":1128522,"name":"simapuszta","country":"hu","lat":47.0,"lon":20.716667},{"id":1118869,"name":"frigyesmajor","country":"hu","lat":46.566667,"lon":21.066667},{"id":1114241,"name":"alsotanyak","country":"hu","lat":46.533333,"lon":20.683333},{"id":1119107,"name":"garahalom","country":"hu","lat":47.35,"lon":20.533333},{"id":1119542,"name":"gyalpar","country":"hu","lat":47.216667,"lon":20.816667},{"id":1118624,"name":"fenyesi tanyak","country":"hu","lat":46.65,"lon":21.15},{"id":1121571,"name":"karolyderek","country":"hu","lat":47.033333,"lon":21.1},{"id":1121383,"name":"kanaszhalom","country":"hu","lat":46.516667,"lon":20.6},{"id":1126176,"name":"nyulzug","country":"hu","lat":47.033333,"lon":21.3},{"id":1118163,"name":"farkaszug","country":"hu","lat":47.1,"lon":20.783333},{"id":1126876,"name":"pasztordulo","country":"hu","lat":46.516667,"lon":20.8},{"id":1125366,"name":"nagybogarzo","country":"hu","lat":46.5,"lon":20.65},{"id":1127543,"name":"pusztaperes","country":"hu","lat":46.95,"lon":20.7},{"id":1114485,"name":"arpadtelep","country":"hu","lat":46.583333,"lon":20.5},{"id":1123807,"name":"laposifoldek","country":"hu","lat":46.583333,"lon":20.6},{"id":1116004,"name":"borzas","country":"hu","lat":47.466667,"lon":21.0},{"id":1129199,"name":"szecso","country":"hu","lat":46.883333,"lon":21.266667},{"id":1119757,"name":"gyurpuszta","country":"hu","lat":46.733333,"lon":20.966667},{"id":1127400,"name":"povad","country":"hu","lat":46.816667,"lon":21.15},{"id":1119206,"name":"gereblyes","country":"hu","lat":46.833333,"lon":21.233333},{"id":1130271,"name":"telekmegyer","country":"hu","lat":46.883333,"lon":21.183333},{"id":1124978,"name":"mihalytelek","country":"hu","lat":46.683333,"lon":20.683333},{"id":1125316,"name":"nagyallas","country":"hu","lat":46.95,"lon":20.816667},{"id":1130778,"name":"toviskes","country":"hu","lat":47.1,"lon":21.083333},{"id":1131259,"name":"vadas-major","country":"hu","lat":46.866667,"lon":21.233333},{"id":1114032,"name":"alsofutak","country":"hu","lat":47.316667,"lon":21.116667},{"id":1132235,"name":"zsenyeitanya","country":"hu","lat":47.266667,"lon":20.533333},{"id":1126860,"name":"paskomfoldek","country":"hu","lat":46.566667,"lon":20.683333},{"id":1125451,"name":"nagygerendaspuszta","country":"hu","lat":46.616667,"lon":20.9},{"id":1119393,"name":"gorbe haz","country":"hu","lat":47.433333,"lon":20.733333},{"id":1123036,"name":"konta","country":"hu","lat":47.183333,"lon":20.716667},{"id":1124962,"name":"mihalyhalma","country":"hu","lat":47.45,"lon":21.083333},{"id":1120316,"name":"hethalmitanyak","country":"hu","lat":46.616667,"lon":20.6},{"id":1124050,"name":"liptak-tanya","country":"hu","lat":46.533333,"lon":20.95},{"id":1124390,"name":"makosdulo","country":"hu","lat":46.516667,"lon":20.816667},{"id":1128027,"name":"rosszerdo","country":"hu","lat":46.766667,"lon":21.183333},{"id":1126016,"name":"nyakashat","country":"hu","lat":47.416667,"lon":20.516667},{"id":1121006,"name":"janosmajor","country":"hu","lat":47.166667,"lon":21.133333},{"id":1129725,"name":"szlanyi","country":"hu","lat":46.616667,"lon":21.266667},{"id":1116893,"name":"csizmadiafold","country":"hu","lat":46.716667,"lon":20.666667},{"id":1124596,"name":"marokaszman","country":"hu","lat":46.75,"lon":21.166667},{"id":1123985,"name":"levelekifoldek","country":"hu","lat":46.516667,"lon":20.966667},{"id":1122070,"name":"kigyospuszta","country":"hu","lat":47.083333,"lon":21.383333},{"id":2331973,"name":"otlaca","country":"ro","lat":46.516667,"lon":21.3},{"id":1131468,"name":"varsanyhely","country":"hu","lat":46.816667,"lon":21.433333},{"id":1123668,"name":"kutret","country":"hu","lat":47.0,"lon":20.633333},{"id":1126806,"name":"papret","country":"hu","lat":46.516667,"lon":21.2},{"id":1122581,"name":"kisnyomas","country":"hu","lat":47.083333,"lon":21.466667},{"id":1121673,"name":"katonaszeglet","country":"hu","lat":46.55,"lon":21.266667},{"id":1129496,"name":"szentmikloszug","country":"hu","lat":47.033333,"lon":20.7},{"id":1129229,"name":"szekacs-major","country":"hu","lat":46.65,"lon":20.683333},{"id":1117402,"name":"dobaipuszta","country":"hu","lat":46.966667,"lon":21.45},{"id":1122631,"name":"kispuszta","country":"hu","lat":47.3,"lon":21.366667},{"id":1122352,"name":"kisgyante","country":"hu","lat":46.866667,"lon":21.466667},{"id":1125444,"name":"nagyfiter-puszta","country":"hu","lat":46.7,"lon":21.466667},{"id":1124456,"name":"malyvad","country":"hu","lat":46.65,"lon":21.333333},{"id":1114509,"name":"asvany","country":"hu","lat":47.15,"lon":21.466667},{"id":1117273,"name":"denesmajor","country":"hu","lat":46.65,"lon":21.416667},{"id":1120157,"name":"hegyesbor","country":"hu","lat":47.283333,"lon":20.916667},{"id":1128560,"name":"sitkaitanyak","country":"hu","lat":46.7,"lon":21.383333},{"id":1113832,"name":"akaszto","country":"hu","lat":47.133333,"lon":21.083333},{"id":1114955,"name":"bankut-rozsamajor","country":"hu","lat":46.5,"lon":21.1},{"id":1125612,"name":"nagymajor","country":"hu","lat":46.666667,"lon":20.816667},{"id":1123426,"name":"kozseg sor","country":"hu","lat":46.816667,"lon":20.8},{"id":1128509,"name":"sikkony","country":"hu","lat":46.733333,"lon":21.116667},{"id":1126241,"name":"okigyos","country":"hu","lat":46.616667,"lon":21.1},{"id":1129943,"name":"szucstanya","country":"hu","lat":47.216667,"lon":21.233333},{"id":1119236,"name":"gergelyresz","country":"hu","lat":47.35,"lon":20.816667},{"id":1125435,"name":"nagyfenek","country":"hu","lat":46.683333,"lon":21.283333},{"id":1127051,"name":"perjes","country":"hu","lat":47.183333,"lon":20.916667},{"id":1117066,"name":"csucsdulok","country":"hu","lat":46.75,"lon":20.933333},{"id":1127295,"name":"pohamara","country":"hu","lat":47.066667,"lon":20.633333},{"id":1119243,"name":"gerla","country":"hu","lat":46.683333,"lon":21.1},{"id":1127833,"name":"remete","country":"hu","lat":46.683333,"lon":21.3},{"id":1116367,"name":"csakisziget","country":"hu","lat":46.783333,"lon":21.35},{"id":1125150,"name":"mondok","country":"hu","lat":46.866667,"lon":21.2},{"id":1117234,"name":"decsipuszta","country":"hu","lat":46.866667,"lon":20.666667},{"id":1119203,"name":"gerebcsen","country":"hu","lat":46.866667,"lon":21.0},{"id":1126343,"name":"ordogarka","country":"hu","lat":47.15,"lon":20.666667},{"id":1122884,"name":"kocsordostanyak","country":"hu","lat":47.283333,"lon":20.583333},{"id":1125767,"name":"nagy-tanya","country":"hu","lat":46.883333,"lon":20.983333},{"id":1118230,"name":"feketeer","country":"hu","lat":46.733333,"lon":21.333333},{"id":1123629,"name":"kustyanpuszta","country":"hu","lat":46.733333,"lon":21.483333},{"id":1122077,"name":"kilences","country":"hu","lat":47.25,"lon":20.683333},{"id":1130569,"name":"to koze","country":"hu","lat":47.133333,"lon":21.483333},{"id":1130631,"name":"toniszallas","country":"hu","lat":46.85,"lon":20.733333},{"id":1130902,"name":"udvarnoki tanya","country":"hu","lat":47.016667,"lon":20.766667},{"id":1120637,"name":"hunya","country":"hu","lat":46.816667,"lon":20.85},{"id":1124802,"name":"mehkerek","country":"hu","lat":46.783333,"lon":21.45},{"id":1122440,"name":"kiskaba","country":"hu","lat":47.15,"lon":20.733333},{"id":1124117,"name":"lore","country":"hu","lat":47.433333,"lon":21.1},{"id":1122963,"name":"kolbaszi legelo","country":"hu","lat":47.316667,"lon":20.716667},{"id":1131934,"name":"volgyeskert","country":"hu","lat":47.316667,"lon":20.933333},{"id":1126603,"name":"ozedmajor","country":"hu","lat":46.966667,"lon":20.883333},{"id":1126752,"name":"panyad-major","country":"hu","lat":46.9,"lon":21.2},{"id":1123774,"name":"langmajor","country":"hu","lat":46.766667,"lon":20.883333},{"id":1125475,"name":"nagyharang","country":"hu","lat":47.1,"lon":21.216667},{"id":1127558,"name":"pusztaszentgyorgy","country":"hu","lat":47.466667,"lon":20.733333},{"id":1122476,"name":"kiskondoros","country":"hu","lat":46.75,"lon":20.866667},{"id":1127569,"name":"pusztataskony","country":"hu","lat":47.466667,"lon":20.516667},{"id":1118198,"name":"feherhat","country":"hu","lat":46.833333,"lon":21.15},{"id":1113948,"name":"alomzug","country":"hu","lat":47.1,"lon":21.433333},{"id":1118174,"name":"fattyasitanyak","country":"hu","lat":46.916667,"lon":20.866667},{"id":1119172,"name":"geistmajor","country":"hu","lat":46.733333,"lon":20.633333},{"id":1129650,"name":"szilas","country":"hu","lat":46.816667,"lon":21.25},{"id":1131060,"name":"uj romogy-puszta","country":"hu","lat":46.866667,"lon":21.366667},{"id":1124562,"name":"mari-major","country":"hu","lat":47.2,"lon":21.016667},{"id":1125527,"name":"nagykaba","country":"hu","lat":47.133333,"lon":20.783333},{"id":1129848,"name":"szolospuszta","country":"hu","lat":46.5,"lon":20.816667},{"id":2332949,"name":"pilu","country":"ro","lat":46.566667,"lon":21.35},{"id":1123169,"name":"korpaddulo","country":"hu","lat":47.466667,"lon":21.283333},{"id":1121172,"name":"jozsefmajor","country":"hu","lat":46.583333,"lon":21.05},{"id":1123125,"name":"kormo","country":"hu","lat":47.35,"lon":20.55},{"id":1119641,"name":"gyoparosfurdo","country":"hu","lat":46.566667,"lon":20.65},{"id":1122149,"name":"kis andahaza-puszta","country":"hu","lat":47.266667,"lon":21.433333},{"id":1118478,"name":"felsonyomas","country":"hu","lat":46.683333,"lon":21.0},{"id":1122044,"name":"ketsoprony","country":"hu","lat":46.716667,"lon":20.866667},{"id":1127207,"name":"pinces","country":"hu","lat":47.433333,"lon":20.8},{"id":1124337,"name":"magyarytanya","country":"hu","lat":47.433333,"lon":20.7},{"id":1122359,"name":"kisgyocs","country":"hu","lat":47.433333,"lon":20.6},{"id":1118093,"name":"falusziget","country":"hu","lat":47.066667,"lon":21.483333},{"id":1125457,"name":"nagygyante","country":"hu","lat":46.866667,"lon":21.433333},{"id":1123558,"name":"kuncsorba","country":"hu","lat":47.133333,"lon":20.566667},{"id":1115568,"name":"bibichat","country":"hu","lat":47.433333,"lon":20.5},{"id":1126058,"name":"nyekpuszta","country":"hu","lat":46.816667,"lon":21.35},{"id":1123347,"name":"kozepdulo","country":"hu","lat":46.816667,"lon":20.65},{"id":1119707,"name":"gyula","country":"hu","lat":46.65,"lon":21.283333},{"id":1125626,"name":"nagymegyer","country":"hu","lat":46.7,"lon":20.966667},{"id":1117999,"name":"erzsebet ter","country":"hu","lat":46.716667,"lon":20.833333},{"id":1125418,"name":"nagyegyhazhalma","country":"hu","lat":47.15,"lon":20.916667},{"id":1121954,"name":"kerhalom","country":"hu","lat":46.85,"lon":21.033333},{"id":1119023,"name":"gadoros","country":"hu","lat":46.666667,"lon":20.6},{"id":1116329,"name":"csabacsud","country":"hu","lat":46.833333,"lon":20.65},{"id":1122121,"name":"kiralysag","country":"hu","lat":46.666667,"lon":20.5},{"id":1123250,"name":"kotpuszta","country":"hu","lat":46.966667,"lon":21.366667},{"id":1130247,"name":"telekalja","country":"hu","lat":47.15,"lon":21.066667},{"id":1132194,"name":"zoltanter","country":"hu","lat":46.616667,"lon":20.533333},{"id":1122579,"name":"kisnyek","country":"hu","lat":46.833333,"lon":21.35},{"id":1128962,"name":"szakallasdulo","country":"hu","lat":47.2,"lon":20.533333},{"id":1121299,"name":"kakucspuszta","country":"hu","lat":46.533333,"lon":21.116667},{"id":1127215,"name":"pinter-dulo","country":"hu","lat":46.8,"lon":20.833333},{"id":1115974,"name":"borshalom","country":"hu","lat":47.366667,"lon":20.55},{"id":1125373,"name":"nagybozsod","country":"hu","lat":47.066667,"lon":21.366667},{"id":1121531,"name":"karaszmegyer","country":"hu","lat":46.85,"lon":21.183333},{"id":1115868,"name":"bolmogyer","country":"hu","lat":46.866667,"lon":21.183333},{"id":1118879,"name":"fudertanya","country":"hu","lat":47.083333,"lon":21.033333},{"id":1115607,"name":"bikazug","country":"hu","lat":46.883333,"lon":21.233333},{"id":1120577,"name":"hosszuhat","country":"hu","lat":47.266667,"lon":20.733333},{"id":1127176,"name":"piko","country":"hu","lat":46.666667,"lon":21.333333},{"id":1127026,"name":"peresitanyak","country":"hu","lat":46.85,"lon":20.816667},{"id":1116744,"name":"csete","country":"hu","lat":47.0,"lon":20.983333},{"id":1120367,"name":"hidlab","country":"hu","lat":47.35,"lon":21.05},{"id":1120317,"name":"hethalom","country":"hu","lat":46.65,"lon":20.6},{"id":1122221,"name":"kisbucsa","country":"hu","lat":47.183333,"lon":20.983333},{"id":1117067,"name":"csucstelep","country":"hu","lat":46.65,"lon":20.5},{"id":1119399,"name":"gorbesziget","country":"hu","lat":47.15,"lon":21.033333},{"id":1129934,"name":"szucsdulo","country":"hu","lat":47.416667,"lon":21.4},{"id":1124394,"name":"maksar","country":"hu","lat":46.75,"lon":21.233333},{"id":1122531,"name":"kismajor","country":"hu","lat":46.65,"lon":20.8},{"id":1115257,"name":"bekas","country":"hu","lat":47.25,"lon":20.766667},{"id":1131894,"name":"vizesfas","country":"hu","lat":46.816667,"lon":21.266667},{"id":1131108,"name":"ujtanya","country":"hu","lat":46.75,"lon":21.383333},{"id":1119383,"name":"gorbed","country":"hu","lat":46.566667,"lon":20.933333},{"id":1131162,"name":"ukmos","country":"hu","lat":46.9,"lon":21.233333},{"id":1115281,"name":"bekesbelenceres","country":"hu","lat":46.816667,"lon":21.1},{"id":1128776,"name":"sovanyhat","country":"hu","lat":46.766667,"lon":21.066667},{"id":1128708,"name":"sorefold","country":"hu","lat":47.333333,"lon":21.183333},{"id":1123390,"name":"kozepszallas","country":"hu","lat":46.85,"lon":20.966667},{"id":1119684,"name":"gyorpuszta","country":"hu","lat":46.833333,"lon":21.433333},{"id":1130301,"name":"templom sor","country":"hu","lat":46.8,"lon":20.85},{"id":1115490,"name":"berke","country":"hu","lat":46.8,"lon":21.216667},{"id":1114385,"name":"apati","country":"hu","lat":46.566667,"lon":21.116667},{"id":1127441,"name":"pusarfoldek","country":"hu","lat":46.983333,"lon":20.866667},{"id":1117678,"name":"ebullopuszta","country":"hu","lat":46.883333,"lon":21.3},{"id":1121989,"name":"kertmeg","country":"hu","lat":46.95,"lon":21.316667},{"id":1116850,"name":"csillagtanya","country":"hu","lat":47.183333,"lon":21.216667},{"id":1120575,"name":"hosszuhat","country":"hu","lat":47.233333,"lon":21.1},{"id":1131120,"name":"ujtelep","country":"hu","lat":47.233333,"lon":21.2},{"id":1128548,"name":"sioret","country":"hu","lat":46.65,"lon":21.2},{"id":1114969,"name":"banomkert","country":"hu","lat":47.333333,"lon":21.116667},{"id":1118936,"name":"furjes","country":"hu","lat":46.65,"lon":21.0},{"id":1128872,"name":"svabmajor","country":"hu","lat":46.666667,"lon":20.666667},{"id":1126157,"name":"nyomas","country":"hu","lat":46.983333,"lon":21.066667},{"id":1131208,"name":"urmoshat","country":"hu","lat":47.266667,"lon":21.1},{"id":1120599,"name":"hosszusziget","country":"hu","lat":46.783333,"lon":21.216667},{"id":1122648,"name":"kisret","country":"hu","lat":46.7,"lon":21.083333},{"id":1124299,"name":"magyarka","country":"hu","lat":47.266667,"lon":20.9},{"id":1122042,"name":"ketkertkoz","country":"hu","lat":47.033333,"lon":20.966667},{"id":1119899,"name":"haleszkert","country":"hu","lat":46.866667,"lon":20.55},{"id":1126668,"name":"palffytanya","country":"hu","lat":47.383333,"lon":20.516667},{"id":1120372,"name":"hiller","country":"hu","lat":47.266667,"lon":20.5},{"id":1123163,"name":"korossziget","country":"hu","lat":47.066667,"lon":21.3},{"id":1130843,"name":"turkedd","country":"hu","lat":47.066667,"lon":20.733333},{"id":1122497,"name":"kis kuria-puszta","country":"hu","lat":47.033333,"lon":20.616667},{"id":1114510,"name":"asvany","country":"hu","lat":47.366667,"lon":20.633333},{"id":1122363,"name":"kisgyorpuszta","country":"hu","lat":46.833333,"lon":21.416667},{"id":1129260,"name":"szekkutas","country":"hu","lat":46.5,"lon":20.533333},{"id":1114880,"name":"ballatanya","country":"hu","lat":47.4,"lon":20.516667},{"id":1131024,"name":"ujmajor","country":"hu","lat":46.733333,"lon":21.366667},{"id":1114841,"name":"balazstanya","country":"hu","lat":46.75,"lon":20.816667},{"id":1117788,"name":"ellamajor","country":"hu","lat":46.65,"lon":21.383333},{"id":1119395,"name":"gorbekutlapos","country":"hu","lat":46.916667,"lon":20.816667},{"id":1121834,"name":"kendergyar","country":"hu","lat":46.95,"lon":21.45},{"id":1115324,"name":"belentaitanyak","country":"hu","lat":46.8,"lon":21.033333},{"id":1116491,"name":"csatarkert","country":"hu","lat":46.766667,"lon":21.133333},{"id":1122035,"name":"kethalom","country":"hu","lat":47.0,"lon":21.0},{"id":1118611,"name":"felto","country":"hu","lat":46.783333,"lon":21.233333},{"id":1130121,"name":"tarjanpuszta","country":"hu","lat":46.75,"lon":21.45},{"id":1127354,"name":"porosallas","country":"hu","lat":47.183333,"lon":20.8},{"id":1117306,"name":"derzstomajor","country":"hu","lat":47.433333,"lon":20.716667},{"id":1121377,"name":"kamutdulo","country":"hu","lat":46.733333,"lon":20.95},{"id":1118209,"name":"feherto","country":"hu","lat":47.166667,"lon":20.7},{"id":1123360,"name":"kozepkert","country":"hu","lat":47.383333,"lon":20.666667},{"id":1114780,"name":"balaton","country":"hu","lat":46.766667,"lon":21.05},{"id":1130338,"name":"tereziamajor","country":"hu","lat":46.866667,"lon":20.983333},{"id":1123158,"name":"korosospuszta","country":"hu","lat":46.866667,"lon":21.333333},{"id":1132295,"name":"zsombekakol","country":"hu","lat":47.15,"lon":20.983333},{"id":1131264,"name":"vadastanya","country":"hu","lat":47.216667,"lon":20.6},{"id":1129009,"name":"szalay-tanya","country":"hu","lat":46.583333,"lon":20.95},{"id":1121164,"name":"jozsefbenedek","country":"hu","lat":46.55,"lon":21.216667},{"id":1126948,"name":"pece","country":"hu","lat":46.733333,"lon":21.016667},{"id":1125523,"name":"nagyivani tanyak","country":"hu","lat":47.483333,"lon":20.933333},{"id":1121747,"name":"kecskestanyak","country":"hu","lat":47.2,"lon":21.0},{"id":1123796,"name":"laponyag","country":"hu","lat":47.1,"lon":20.933333},{"id":1119081,"name":"galtanya","country":"hu","lat":47.1,"lon":21.333333},{"id":1114200,"name":"alsosashalomdulo","country":"hu","lat":46.633333,"lon":20.833333},{"id":1123226,"name":"kosziget","country":"hu","lat":47.0,"lon":20.9},{"id":1122219,"name":"kisbozsod","country":"hu","lat":47.05,"lon":21.35},{"id":1126535,"name":"osveny","country":"hu","lat":47.15,"lon":21.1},{"id":1124929,"name":"mezomegyeri tanyak","country":"hu","lat":46.716667,"lon":21.066667},{"id":1121619,"name":"kastelyi szollok","country":"hu","lat":46.666667,"lon":21.133333},{"id":1126278,"name":"olasztanya","country":"hu","lat":47.083333,"lon":21.4},{"id":1122885,"name":"kocsorhegy","country":"hu","lat":46.95,"lon":20.783333},{"id":1122145,"name":"kisallas","country":"hu","lat":46.933333,"lon":20.733333},{"id":1124979,"name":"mihalytelep","country":"hu","lat":46.983333,"lon":21.483333},{"id":1126450,"name":"ormenyes","country":"hu","lat":47.2,"lon":20.583333},{"id":2337644,"name":"socodor","country":"ro","lat":46.516667,"lon":21.433333},{"id":1121904,"name":"kereksziget","country":"hu","lat":47.116667,"lon":21.1},{"id":1125304,"name":"nadudvar","country":"hu","lat":47.416667,"lon":21.166667},{"id":1120680,"name":"igario","country":"hu","lat":47.166667,"lon":20.733333},{"id":1116177,"name":"bundasi sor","country":"hu","lat":46.8,"lon":20.816667},{"id":1122031,"name":"ketegyhaza","country":"hu","lat":46.533333,"lon":21.183333},{"id":1115718,"name":"bodishat","country":"hu","lat":46.866667,"lon":21.05},{"id":1119705,"name":"gyulaeperjes","country":"hu","lat":46.566667,"lon":21.016667},{"id":1123642,"name":"kutas","country":"hu","lat":47.05,"lon":21.45},{"id":1128306,"name":"sarkadosipuszta","country":"hu","lat":46.733333,"lon":21.433333},{"id":1116127,"name":"budoslapos","country":"hu","lat":47.216667,"lon":20.55},{"id":1126474,"name":"oroshazi","country":"hu","lat":46.566667,"lon":20.666667},{"id":1123835,"name":"laszlomajor","country":"hu","lat":47.4,"lon":20.716667},{"id":1129761,"name":"szokehalom","country":"hu","lat":46.533333,"lon":20.633333},{"id":1115815,"name":"bojtartelek","country":"hu","lat":46.6,"lon":20.533333},{"id":1130255,"name":"telekipuszta","country":"hu","lat":47.1,"lon":21.483333},{"id":1130694,"name":"toroksziget","country":"hu","lat":46.766667,"lon":21.083333},{"id":1118992,"name":"fuzszeg","country":"hu","lat":46.766667,"lon":21.25},{"id":1125803,"name":"nagyujvaros","country":"hu","lat":46.716667,"lon":20.566667},{"id":1117411,"name":"dobogohat","country":"hu","lat":47.416667,"lon":20.5},{"id":1114404,"name":"apponyi foldek","country":"hu","lat":46.75,"lon":20.85},{"id":1114968,"name":"banomkert","country":"hu","lat":46.683333,"lon":21.316667},{"id":1121645,"name":"kaszmanykert","country":"hu","lat":46.733333,"lon":21.15},{"id":1130578,"name":"toldikut","country":"hu","lat":47.116667,"lon":20.666667},{"id":1126260,"name":"oktalan","country":"hu","lat":47.433333,"lon":20.783333},{"id":1125696,"name":"nagyret","country":"hu","lat":47.183333,"lon":20.883333},{"id":1125740,"name":"nagyszenas","country":"hu","lat":46.683333,"lon":20.666667},{"id":1131049,"name":"ujosztas","country":"hu","lat":46.6,"lon":21.1},{"id":1132181,"name":"zoldlapositanyak","country":"hu","lat":46.95,"lon":20.866667},{"id":1117699,"name":"egeihalom","country":"hu","lat":46.9,"lon":20.883333},{"id":1124772,"name":"meggyespuszta","country":"hu","lat":46.8,"lon":21.416667},{"id":1127062,"name":"pernyestanya","country":"hu","lat":47.166667,"lon":21.316667},{"id":1115954,"name":"borosdulo","country":"hu","lat":46.8,"lon":20.766667},{"id":1119602,"name":"gyocs","country":"hu","lat":47.416667,"lon":20.566667},{"id":1115835,"name":"bokros","country":"hu","lat":47.133333,"lon":20.883333},{"id":2341786,"name":"varsand","country":"ro","lat":46.616667,"lon":21.35},{"id":1130367,"name":"tetetlen","country":"hu","lat":47.316667,"lon":21.3},{"id":1116776,"name":"csiff","country":"hu","lat":47.116667,"lon":21.316667},{"id":1117837,"name":"eotvosi tanyak","country":"hu","lat":46.616667,"lon":20.65},{"id":1126298,"name":"olyved","country":"hu","lat":46.733333,"lon":21.25},{"id":1128558,"name":"siskas","country":"hu","lat":47.016667,"lon":21.116667},{"id":1131627,"name":"vereshattanya","country":"hu","lat":47.15,"lon":21.483333},{"id":1117233,"name":"decsipaskum","country":"hu","lat":46.916667,"lon":20.75},{"id":1126156,"name":"nyomasi tanya","country":"hu","lat":46.583333,"lon":21.033333},{"id":1131692,"name":"veszto","country":"hu","lat":46.916667,"lon":21.266667},{"id":1115022,"name":"barand","country":"hu","lat":47.3,"lon":21.233333},{"id":1123068,"name":"koplaloi tanyak","country":"hu","lat":47.0,"lon":20.733333},{"id":1127294,"name":"pohalom","country":"hu","lat":47.0,"lon":20.816667},{"id":1116319,"name":"cirko","country":"hu","lat":47.033333,"lon":21.333333},{"id":1114477,"name":"arpadhalom","country":"hu","lat":46.616667,"lon":20.55},{"id":1122136,"name":"kirito","country":"hu","lat":47.15,"lon":20.9},{"id":1121379,"name":"kamutkert","country":"hu","lat":46.766667,"lon":20.983333},{"id":1125627,"name":"nagymerges","country":"hu","lat":46.916667,"lon":21.033333},{"id":1118051,"name":"ezustszollok","country":"hu","lat":46.85,"lon":20.616667},{"id":1117525,"name":"dondorog","country":"hu","lat":47.016667,"lon":21.183333},{"id":1128884,"name":"szabadka","country":"hu","lat":46.583333,"lon":21.183333},{"id":1117841,"name":"eperjeshalom","country":"hu","lat":47.283333,"lon":20.55},{"id":1116199,"name":"butetanya","country":"hu","lat":47.416667,"lon":21.133333},{"id":1119907,"name":"halmagy","country":"hu","lat":46.95,"lon":20.916667},{"id":1118757,"name":"fogthuy dulo","country":"hu","lat":47.483333,"lon":21.383333},{"id":1125588,"name":"nagylapos","country":"hu","lat":46.9,"lon":20.966667},{"id":1131626,"name":"veresgyurus","country":"hu","lat":46.933333,"lon":21.483333},{"id":1117216,"name":"david sor","country":"hu","lat":46.783333,"lon":20.866667},{"id":1116902,"name":"csobanka","country":"hu","lat":47.25,"lon":20.5},{"id":1127541,"name":"pusztaottlaka","country":"hu","lat":46.55,"lon":20.983333},{"id":1130310,"name":"tenkerpart","country":"hu","lat":46.95,"lon":21.083333},{"id":1131571,"name":"vegesstanya","country":"hu","lat":47.383333,"lon":20.5},{"id":1128364,"name":"sarto","country":"hu","lat":47.066667,"lon":20.883333},{"id":1121533,"name":"karaszos","country":"hu","lat":47.383333,"lon":20.6},{"id":1128714,"name":"sore","country":"hu","lat":47.45,"lon":21.4},{"id":1131081,"name":"uj szent-gyorgy puszta","country":"hu","lat":47.45,"lon":20.733333},{"id":1126382,"name":"oreg-homokkert","country":"hu","lat":47.45,"lon":20.816667},{"id":1120596,"name":"hosszusor","country":"hu","lat":46.583333,"lon":20.75},{"id":1121380,"name":"kamutpuszta","country":"hu","lat":46.733333,"lon":20.916667},{"id":1129713,"name":"szivattyu","country":"hu","lat":46.983333,"lon":21.15},{"id":1117029,"name":"csordasferto","country":"hu","lat":47.466667,"lon":20.65},{"id":1124329,"name":"magyartanya","country":"hu","lat":47.216667,"lon":21.433333},{"id":1127806,"name":"rehely","country":"hu","lat":47.1,"lon":20.966667},{"id":1118277,"name":"felhalom","country":"hu","lat":46.883333,"lon":20.916667},{"id":1124188,"name":"lukacsfenek","country":"hu","lat":47.216667,"lon":20.866667},{"id":1130993,"name":"ujiraz","country":"hu","lat":46.983333,"lon":21.366667}]});