callback({"markets":[{"id":1648454,"name":"madani","country":"kz","lat":50.7,"lon":76.25},{"id":1648789,"name":"maykuben","country":"kz","lat":51.2,"lon":75.516667},{"id":1641138,"name":"aksan","country":"kz","lat":50.7,"lon":75.716667},{"id":1645848,"name":"karasorskiy","country":"kz","lat":50.916667,"lon":75.833333},{"id":1649753,"name":"oktyabr\u0027","country":"kz","lat":50.7,"lon":75.683333},{"id":1645338,"name":"kalimola","country":"kz","lat":50.55,"lon":76.383333},{"id":1651963,"name":"shoptykul\u0027","country":"kz","lat":51.256667,"lon":75.7675},{"id":1641365,"name":"aleksandrovskiy zavod","country":"kz","lat":50.983333,"lon":75.6},{"id":1645977,"name":"karazhar","country":"kz","lat":50.7,"lon":75.5},{"id":1655406,"name":"zhosaly","country":"kz","lat":50.633333,"lon":76.2},{"id":1646127,"name":"kaydaul\u0027skiy","country":"kz","lat":51.483333,"lon":76.183333},{"id":1645544,"name":"karabiye","country":"kz","lat":51.116667,"lon":75.716667},{"id":1641352,"name":"aleksandrovka","country":"kz","lat":50.965556,"lon":75.637222},{"id":1653330,"name":"tret\u0027ya pyatiletka","country":"kz","lat":50.9,"lon":75.766667},{"id":1648778,"name":"maykainskiy","country":"kz","lat":51.4625,"lon":75.798611},{"id":1654379,"name":"yegindy","country":"kz","lat":51.133333,"lon":75.733333},{"id":1651308,"name":"sarytavskiy piket","country":"kz","lat":50.6,"lon":75.7},{"id":1642921,"name":"birlik","country":"kz","lat":51.139722,"lon":75.735},{"id":1642447,"name":"bayanaul","country":"kz","lat":50.788889,"lon":75.695556},{"id":1643511,"name":"chakchanskiy","country":"kz","lat":51.15,"lon":75.983333}]});