callback({"markets":[{"id":3155780,"name":"ilungu","country":"zr","lat":0.2166667,"lon":24.4666667},{"id":3172331,"name":"yeye","country":"zr","lat":-0.4166667,"lon":23.8166667},{"id":3171579,"name":"yaesea i","country":"zr","lat":0.4,"lon":24.4666667},{"id":356846,"name":"ekoli","country":"cd","lat":-0.383333,"lon":24.266667},{"id":3172094,"name":"yaolinga","country":"zr","lat":-0.0333333,"lon":23.9},{"id":3172093,"name":"yaolinda","country":"zr","lat":0.05,"lon":23.8333333},{"id":373853,"name":"yafala","country":"cd","lat":0.05,"lon":23.933333},{"id":373835,"name":"yaengo","country":"cd","lat":-0.183333,"lon":23.85},{"id":374368,"name":"yaondaie","country":"cd","lat":0.1,"lon":23.816667},{"id":373903,"name":"yakoko i","country":"cd","lat":-0.166667,"lon":24.4},{"id":373913,"name":"yakongolo","country":"cd","lat":-0.433333,"lon":24.316667},{"id":370495,"name":"owama","country":"cd","lat":-0.166667,"lon":23.566667},{"id":3171603,"name":"yahisuli","country":"zr","lat":-0.0833333,"lon":24.1333333},{"id":3172213,"name":"yawaka","country":"zr","lat":-0.2666667,"lon":24.3833333},{"id":374119,"name":"yambembe","country":"cd","lat":-0.466667,"lon":24.016667},{"id":373842,"name":"yaesea i","country":"cd","lat":0.4,"lon":24.466667},{"id":3171767,"name":"yalongira","country":"zr","lat":0.0333333,"lon":23.95},{"id":363741,"name":"lefundero","country":"cd","lat":-0.25,"lon":24.366667},{"id":364194,"name":"lokandu","country":"cd","lat":-0.416667,"lon":23.883333},{"id":374128,"name":"yambiau","country":"cd","lat":-0.166667,"lon":23.983333},{"id":374246,"name":"yandia","country":"cd","lat":-0.083333,"lon":24.033333},{"id":374351,"name":"yaolenga","country":"cd","lat":-0.033333,"lon":23.9},{"id":3171756,"name":"yalokwa","country":"zr","lat":-0.3833333,"lon":24.4333333},{"id":3172130,"name":"yaoyela","country":"zr","lat":0.2833333,"lon":24.4833333},{"id":3171536,"name":"yabetuta","country":"zr","lat":0.1,"lon":23.8333333},{"id":3171625,"name":"yakanga","country":"zr","lat":-0.0666667,"lon":23.8833333},{"id":3172255,"name":"yelambi","country":"zr","lat":-0.3,"lon":23.5666667},{"id":3171696,"name":"yalifoka","country":"zr","lat":-0.1166667,"lon":24.4},{"id":3171602,"name":"yahilonde","country":"zr","lat":0.05,"lon":23.8},{"id":3165054,"name":"mondila","country":"zr","lat":0.05,"lon":23.8666667},{"id":3167673,"name":"nongo-moke","country":"zr","lat":-0.4166667,"lon":23.5833333},{"id":367314,"name":"mondiba","country":"cd","lat":0.05,"lon":23.866667},{"id":3168222,"name":"otoko","country":"zr","lat":-0.4,"lon":24.1166667},{"id":364003,"name":"lileko","country":"cd","lat":-0.116667,"lon":24.25},{"id":374423,"name":"yasendu","country":"cd","lat":0.45,"lon":24.333333},{"id":3171819,"name":"yamangi","country":"zr","lat":-0.1166667,"lon":23.5166667},{"id":3172184,"name":"yatola","country":"zr","lat":-0.1166667,"lon":23.9666667},{"id":364064,"name":"liotu","country":"cd","lat":-0.133333,"lon":23.9},{"id":3152326,"name":"bolinga","country":"zr","lat":0.4833333,"lon":24.0833333},{"id":3171588,"name":"yafakituru","country":"zr","lat":-0.2166667,"lon":24.1666667},{"id":374462,"name":"yauko","country":"cd","lat":0.066667,"lon":23.783333},{"id":374399,"name":"yapehe","country":"cd","lat":-0.216667,"lon":24.45},{"id":373715,"name":"wenge bas","country":"cd","lat":0.066667,"lon":24.066667},{"id":374021,"name":"yalola","country":"cd","lat":-0.216667,"lon":23.633333},{"id":365533,"name":"makandja","country":"cd","lat":-0.433333,"lon":23.583333},{"id":3172020,"name":"yanga","country":"zr","lat":-0.4833333,"lon":24.3},{"id":374447,"name":"yatola","country":"cd","lat":-0.116667,"lon":23.966667},{"id":3171983,"name":"yandia","country":"zr","lat":-0.0833333,"lon":24.0333333},{"id":374686,"name":"yow","country":"cd","lat":-0.183333,"lon":24.216667},{"id":373716,"name":"wenge haut","country":"cd","lat":-0.033333,"lon":24.1},{"id":374115,"name":"yambeke","country":"cd","lat":-0.016667,"lon":24.1},{"id":363838,"name":"liasa","country":"cd","lat":-0.366667,"lon":24.0},{"id":374000,"name":"yalofombo","country":"cd","lat":-0.033333,"lon":24.2},{"id":363957,"name":"likolo","country":"cd","lat":0.016667,"lon":23.65},{"id":3171452,"name":"wenge bas","country":"zr","lat":0.0666667,"lon":24.0666667},{"id":3171610,"name":"yailombo","country":"zr","lat":0.1833333,"lon":24.0166667},{"id":374153,"name":"yambwa","country":"cd","lat":-0.4,"lon":24.3},{"id":3172187,"name":"yatosere","country":"zr","lat":-0.4833333,"lon":24.1333333},{"id":374355,"name":"yaolila","country":"cd","lat":0.333333,"lon":24.083333},{"id":374476,"name":"yawaka","country":"cd","lat":-0.266667,"lon":24.383333},{"id":373841,"name":"yaesea ii","country":"cd","lat":0.416667,"lon":24.433333},{"id":373834,"name":"yaenge","country":"cd","lat":0.483333,"lon":23.916667},{"id":3172182,"name":"yatiri rive","country":"zr","lat":-0.05,"lon":24.1833333},{"id":370505,"name":"oyoleyole","country":"cd","lat":-0.316667,"lon":24.416667},{"id":364082,"name":"lisuma","country":"cd","lat":-0.333333,"lon":24.05},{"id":3172092,"name":"yaolila","country":"zr","lat":0.3333333,"lon":24.0833333},{"id":373724,"name":"wete","country":"cd","lat":-0.066667,"lon":23.866667},{"id":3172136,"name":"yapehe","country":"zr","lat":-0.2166667,"lon":24.45},{"id":374594,"name":"yeye","country":"cd","lat":-0.416667,"lon":23.816667},{"id":358019,"name":"ilonga","country":"cd","lat":0.216667,"lon":24.466667},{"id":374014,"name":"yalokula","country":"cd","lat":0.1,"lon":24.433333},{"id":373932,"name":"yalamboto","country":"cd","lat":-0.25,"lon":23.633333},{"id":3171651,"name":"yakoo","country":"zr","lat":0.4333333,"lon":24.3333333},{"id":3155632,"name":"ikengo","country":"zr","lat":-0.3333333,"lon":24.2333333},{"id":3172200,"name":"yaula-moke","country":"zr","lat":0.4666667,"lon":23.9833333},{"id":374441,"name":"yate","country":"cd","lat":-0.366667,"lon":24.35},{"id":3172342,"name":"yohila","country":"zr","lat":-0.15,"lon":23.5666667},{"id":374063,"name":"yaluwe","country":"cd","lat":-0.116667,"lon":24.183333},{"id":370306,"name":"olife","country":"cd","lat":-0.3,"lon":24.383333},{"id":3161478,"name":"lefundero","country":"zr","lat":-0.25,"lon":24.3666667},{"id":3171852,"name":"yambeke","country":"zr","lat":-0.0166667,"lon":24.1},{"id":3161724,"name":"likundu","country":"zr","lat":-0.15,"lon":24.3333333},{"id":3171615,"name":"yaisav","country":"zr","lat":-0.4666667,"lon":24.2},{"id":3152331,"name":"bolingo","country":"zr","lat":0.2833333,"lon":24.0166667},{"id":3161743,"name":"liloko","country":"zr","lat":-0.3666667,"lon":24.0666667},{"id":3168232,"name":"owama","country":"zr","lat":-0.1666667,"lon":23.5666667},{"id":3161489,"name":"lekatero","country":"zr","lat":-0.3333333,"lon":24.0666667},{"id":374159,"name":"yamengo","country":"cd","lat":-0.35,"lon":23.533333},{"id":3171534,"name":"yabatwange","country":"zr","lat":0.1333333,"lon":23.9166667},{"id":3161643,"name":"lifeke","country":"zr","lat":-0.4333333,"lon":23.9833333},{"id":3161801,"name":"liotu","country":"zr","lat":-0.1333333,"lon":23.9},{"id":3161722,"name":"likundu ii","country":"zr","lat":-0.2,"lon":24.3333333},{"id":374283,"name":"yanga","country":"cd","lat":-0.483333,"lon":24.3},{"id":3171780,"name":"yalosuka","country":"zr","lat":0.1333333,"lon":24.4333333},{"id":364204,"name":"lokilo","country":"cd","lat":-0.45,"lon":24.016667},{"id":354631,"name":"bolongo bas","country":"cd","lat":0.15,"lon":24.083333},{"id":363740,"name":"lefulututu","country":"cd","lat":-0.466667,"lon":23.633333},{"id":3165187,"name":"monoli","country":"zr","lat":-0.2,"lon":23.9},{"id":3149675,"name":"afakituru","country":"zr","lat":-0.1666667,"lon":24.0833333},{"id":3172133,"name":"yapanda","country":"zr","lat":-0.25,"lon":24.4666667},{"id":3172091,"name":"yaolika","country":"zr","lat":-0.2666667,"lon":24.2166667},{"id":3172224,"name":"yawikia","country":"zr","lat":-0.0666667,"lon":24.3833333},{"id":3168242,"name":"oyoleyole","country":"zr","lat":-0.3166667,"lon":24.4166667},{"id":362694,"name":"kisangani i","country":"cd","lat":-0.416667,"lon":24.033333},{"id":3172421,"name":"yotoko","country":"zr","lat":-0.4166667,"lon":24.2666667},{"id":374393,"name":"yaoyela","country":"cd","lat":0.283333,"lon":24.483333},{"id":374030,"name":"yalongira","country":"cd","lat":0.033333,"lon":23.95},{"id":374446,"name":"yatiri","country":"cd","lat":-0.083333,"lon":24.183333},{"id":374614,"name":"yokoko","country":"cd","lat":-0.416667,"lon":24.266667},{"id":3171787,"name":"yalukula","country":"zr","lat":0.1,"lon":24.4333333},{"id":3171593,"name":"yafeta","country":"zr","lat":0.3666667,"lon":23.9166667},{"id":3171641,"name":"yakoko","country":"zr","lat":0.0333333,"lon":24.1},{"id":3171871,"name":"yambisu","country":"zr","lat":-0.1666667,"lon":23.9833333},{"id":3161477,"name":"lefulututu","country":"zr","lat":-0.4666667,"lon":23.6333333},{"id":374450,"name":"yatosere","country":"cd","lat":-0.483333,"lon":24.133333},{"id":374582,"name":"yetefela","country":"cd","lat":-0.333333,"lon":23.566667},{"id":3172210,"name":"yauta","country":"zr","lat":-0.1333333,"lon":24.0333333},{"id":351937,"name":"afakituru","country":"cd","lat":-0.166667,"lon":24.083333},{"id":374043,"name":"yalosuka","country":"cd","lat":0.133333,"lon":24.433333},{"id":3172104,"name":"yaombo","country":"zr","lat":0.0333333,"lon":24.4},{"id":373914,"name":"yakoo","country":"cd","lat":0.433333,"lon":24.333333},{"id":367155,"name":"mokombe","country":"cd","lat":-0.233333,"lon":23.8},{"id":3172105,"name":"yaondaie","country":"zr","lat":0.1,"lon":23.8166667},{"id":374354,"name":"yaolika","country":"cd","lat":-0.266667,"lon":24.216667},{"id":363759,"name":"lelema","country":"cd","lat":-0.316667,"lon":24.066667},{"id":3171461,"name":"wete","country":"zr","lat":-0.0666667,"lon":23.8666667},{"id":3171590,"name":"yafala","country":"zr","lat":0.05,"lon":23.9333333},{"id":3171717,"name":"yalinga-moke","country":"zr","lat":-0.4333333,"lon":23.7333333},{"id":3172160,"name":"yasendu","country":"zr","lat":0.45,"lon":24.3333333},{"id":3154584,"name":"ekoli","country":"zr","lat":-0.3833333,"lon":24.2666667},{"id":374341,"name":"yaokanu","country":"cd","lat":-0.25,"lon":24.483333},{"id":364006,"name":"liloko","country":"cd","lat":-0.366667,"lon":24.066667},{"id":374334,"name":"yaofalu-moko","country":"cd","lat":0.116667,"lon":24.433333},{"id":3172242,"name":"yefokolo","country":"zr","lat":-0.2166667,"lon":23.6333333},{"id":373866,"name":"yahisuli","country":"cd","lat":-0.083333,"lon":24.133333},{"id":3171989,"name":"yandjelike","country":"zr","lat":-0.2166667,"lon":24.4333333},{"id":3161496,"name":"lelema","country":"zr","lat":-0.3166667,"lon":24.0666667},{"id":374605,"name":"yohila","country":"cd","lat":-0.15,"lon":23.566667},{"id":3171800,"name":"yaluwe","country":"zr","lat":-0.1166667,"lon":24.1833333},{"id":3171669,"name":"yalamboto","country":"zr","lat":-0.25,"lon":23.6333333},{"id":373856,"name":"yafeta","country":"cd","lat":0.366667,"lon":23.916667},{"id":374487,"name":"yawikia","country":"cd","lat":-0.066667,"lon":24.383333},{"id":3172063,"name":"yanongo","country":"zr","lat":-0.35,"lon":24.4333333},{"id":3165265,"name":"mosolo","country":"zr","lat":0.0166667,"lon":23.6666667},{"id":3163270,"name":"makandja","country":"zr","lat":-0.4333333,"lon":23.5833333},{"id":374588,"name":"yetoli","country":"cd","lat":0.35,"lon":24.083333},{"id":3162152,"name":"lotimo","country":"zr","lat":-0.45,"lon":23.7},{"id":3171887,"name":"yambula","country":"zr","lat":0.0333333,"lon":24.0833333},{"id":3171571,"name":"yaenge","country":"zr","lat":0.4833333,"lon":23.9166667},{"id":374518,"name":"yelambi","country":"cd","lat":-0.3,"lon":23.566667},{"id":374445,"name":"yatiri rive","country":"cd","lat":-0.05,"lon":24.183333},{"id":357892,"name":"ikenge","country":"cd","lat":-0.333333,"lon":24.233333},{"id":374082,"name":"yamangi","country":"cd","lat":-0.116667,"lon":23.516667},{"id":373960,"name":"yalifonde","country":"cd","lat":-0.016667,"lon":24.366667},{"id":3172150,"name":"yasanga","country":"zr","lat":0.0666667,"lon":24.0833333},{"id":364083,"name":"lisuma-moke","country":"cd","lat":-0.383333,"lon":24.183333},{"id":374463,"name":"yaula-moke","country":"cd","lat":0.466667,"lon":23.983333},{"id":369936,"name":"nongo-moke","country":"cd","lat":-0.416667,"lon":23.583333},{"id":363987,"name":"likundu","country":"cd","lat":-0.15,"lon":24.333333},{"id":354527,"name":"bolanda","country":"cd","lat":0.316667,"lon":24.083333},{"id":373980,"name":"yalinga-moke","country":"cd","lat":-0.433333,"lon":23.733333},{"id":3161941,"name":"lokilo","country":"zr","lat":-0.45,"lon":24.0166667},{"id":3172178,"name":"yate","country":"zr","lat":-0.3666667,"lon":24.35},{"id":3172202,"name":"yaulo","country":"zr","lat":0.2,"lon":24.0},{"id":373726,"name":"weti","country":"cd","lat":0.033333,"lon":23.766667},{"id":3172181,"name":"yatiri interieur","country":"zr","lat":-0.0833333,"lon":24.1833333},{"id":374019,"name":"yalokwa","country":"cd","lat":-0.383333,"lon":24.433333},{"id":374472,"name":"yausamo","country":"cd","lat":-0.166667,"lon":23.866667},{"id":373845,"name":"yaetala","country":"cd","lat":-0.083333,"lon":23.916667},{"id":3172423,"name":"yow","country":"zr","lat":-0.1833333,"lon":24.2166667},{"id":354593,"name":"bolingo","country":"cd","lat":0.283333,"lon":24.016667},{"id":3152265,"name":"bolanda","country":"zr","lat":0.3166667,"lon":24.0833333},{"id":373888,"name":"yakanga","country":"cd","lat":-0.066667,"lon":23.883333},{"id":3161820,"name":"lisuma-moke","country":"zr","lat":-0.3833333,"lon":24.1833333},{"id":354588,"name":"bolinga","country":"cd","lat":0.483333,"lon":24.083333},{"id":3172199,"name":"yauko","country":"zr","lat":0.0666667,"lon":23.7833333},{"id":3168043,"name":"olife","country":"zr","lat":-0.3,"lon":24.3833333},{"id":3156083,"name":"itokola","country":"zr","lat":0.1666667,"lon":24.45},{"id":3161828,"name":"lito","country":"zr","lat":-0.1,"lon":24.1},{"id":374367,"name":"yaombo","country":"cd","lat":0.033333,"lon":24.4},{"id":373904,"name":"yakoko","country":"cd","lat":0.033333,"lon":24.1},{"id":3152369,"name":"bolongo bas","country":"zr","lat":0.15,"lon":24.0833333},{"id":374252,"name":"yandjelike","country":"cd","lat":-0.216667,"lon":24.433333},{"id":3171582,"name":"yaetala","country":"zr","lat":-0.0833333,"lon":23.9166667},{"id":354595,"name":"boliti","country":"cd","lat":-0.383333,"lon":23.95},{"id":374473,"name":"yauta","country":"cd","lat":-0.133333,"lon":24.033333},{"id":373878,"name":"yaisav","country":"cd","lat":-0.466667,"lon":24.2},{"id":3172325,"name":"yetoli","country":"zr","lat":0.35,"lon":24.0833333},{"id":374150,"name":"yambula","country":"cd","lat":0.033333,"lon":24.083333},{"id":354634,"name":"bolongo","country":"cd","lat":0.15,"lon":24.133333},{"id":358346,"name":"itokola","country":"cd","lat":0.166667,"lon":24.45},{"id":373797,"name":"yabatwange","country":"cd","lat":0.133333,"lon":23.916667},{"id":3150903,"name":"basongo","country":"zr","lat":0.1833333,"lon":24.0666667},{"id":3172209,"name":"yausamo","country":"zr","lat":-0.1666667,"lon":23.8666667},{"id":3171650,"name":"yakongolo","country":"zr","lat":-0.4333333,"lon":24.3166667},{"id":374326,"name":"yanongo","country":"cd","lat":-0.35,"lon":24.433333},{"id":358027,"name":"ilota","country":"cd","lat":0.266667,"lon":24.433333},{"id":3164892,"name":"mokombe","country":"zr","lat":-0.2333333,"lon":23.8},{"id":3172060,"name":"yankwamu","country":"zr","lat":0.4,"lon":24.1},{"id":363985,"name":"likundu ii","country":"cd","lat":-0.2,"lon":24.333333},{"id":3161931,"name":"lokandu","country":"zr","lat":-0.4166667,"lon":23.8833333},{"id":3171572,"name":"yaengo","country":"zr","lat":-0.1833333,"lon":23.85},{"id":3172219,"name":"yawembo","country":"zr","lat":0.0333333,"lon":23.9666667},{"id":374413,"name":"yasanga","country":"cd","lat":0.066667,"lon":24.083333},{"id":353165,"name":"basongo","country":"cd","lat":0.183333,"lon":24.066667},{"id":3172319,"name":"yetefela","country":"zr","lat":-0.3333333,"lon":23.5666667},{"id":3171697,"name":"yalifonde","country":"zr","lat":-0.0166667,"lon":24.3666667},{"id":3152363,"name":"bolonga","country":"zr","lat":-0.4666667,"lon":23.5166667},{"id":3171896,"name":"yamengo","country":"zr","lat":-0.35,"lon":23.5333333},{"id":3171856,"name":"yambembe","country":"zr","lat":-0.4666667,"lon":24.0166667},{"id":373959,"name":"yalifoka","country":"cd","lat":-0.116667,"lon":24.4},{"id":373839,"name":"yaerombo","country":"cd","lat":-0.083333,"lon":24.066667},{"id":3161575,"name":"liasa","country":"zr","lat":-0.3666667,"lon":24.0},{"id":3161740,"name":"lileko","country":"zr","lat":-0.1166667,"lon":24.25},{"id":3171578,"name":"yaesea ii","country":"zr","lat":0.4166667,"lon":24.4333333},{"id":367528,"name":"mosolo","country":"cd","lat":0.016667,"lon":23.666667},{"id":374396,"name":"yapanda","country":"cd","lat":-0.25,"lon":24.466667},{"id":3171737,"name":"yalofombo","country":"zr","lat":-0.0333333,"lon":24.2},{"id":354625,"name":"bolonga","country":"cd","lat":-0.466667,"lon":23.516667},{"id":3171453,"name":"wenge haut","country":"zr","lat":-0.0333333,"lon":24.1},{"id":3161819,"name":"lisuma","country":"zr","lat":-0.3333333,"lon":24.05},{"id":3172085,"name":"yaolelemo","country":"zr","lat":0.0666667,"lon":24.0333333},{"id":3155764,"name":"ilota","country":"zr","lat":0.2666667,"lon":24.4333333},{"id":3160434,"name":"kisangani","country":"zr","lat":-0.4166667,"lon":24.0333333},{"id":3171640,"name":"yakoko i","country":"zr","lat":-0.1666667,"lon":24.4},{"id":3171463,"name":"weti","country":"zr","lat":0.0333333,"lon":23.7666667},{"id":363760,"name":"lelende","country":"cd","lat":-0.133333,"lon":24.216667},{"id":3171576,"name":"yaerombo","country":"zr","lat":-0.0833333,"lon":24.0666667},{"id":3172071,"name":"yaofalu-moko","country":"zr","lat":0.1166667,"lon":24.4333333},{"id":370485,"name":"otoko","country":"cd","lat":-0.4,"lon":24.116667},{"id":3161694,"name":"likolo","country":"zr","lat":0.0166667,"lon":23.65},{"id":374356,"name":"yaolinda","country":"cd","lat":0.05,"lon":23.833333},{"id":3161497,"name":"lelende","country":"zr","lat":-0.1333333,"lon":24.2166667},{"id":373851,"name":"yafakituru","country":"cd","lat":-0.216667,"lon":24.166667},{"id":373873,"name":"yailombo","country":"cd","lat":0.183333,"lon":24.016667},{"id":3152372,"name":"bolongo","country":"zr","lat":0.15,"lon":24.1333333},{"id":3152333,"name":"boliti","country":"zr","lat":-0.3833333,"lon":23.95},{"id":374348,"name":"yaolelemo","country":"cd","lat":0.066667,"lon":24.033333},{"id":363906,"name":"lifeke","country":"cd","lat":-0.433333,"lon":23.983333},{"id":374482,"name":"yawembo","country":"cd","lat":0.033333,"lon":23.966667},{"id":363752,"name":"lekatero","country":"cd","lat":-0.333333,"lon":24.066667},{"id":373799,"name":"yabetuta","country":"cd","lat":0.1,"lon":23.833333},{"id":3172077,"name":"yaokano","country":"zr","lat":-0.25,"lon":24.4833333}]});