callback({"markets":[{"id":1763674,"name":"zaouia taleb","country":"ma","lat":30.48,"lon":-6.0},{"id":820500,"name":"regabbi-n-ait hasso","country":"dz","lat":29.8166667,"lon":-5.6166667},{"id":1764027,"name":"zorgane","country":"ma","lat":30.495711,"lon":-6.035598},{"id":1739529,"name":"amerdout","country":"ma","lat":30.498205,"lon":-6.099134},{"id":1756930,"name":"oum el hanch","country":"ma","lat":30.08,"lon":-5.88},{"id":1742761,"name":"daouirate","country":"ma","lat":30.48,"lon":-5.96},{"id":1762458,"name":"tirilhela","country":"ma","lat":30.433681,"lon":-6.457629},{"id":1763668,"name":"zaouia tafrout","country":"ma","lat":30.45,"lon":-5.9},{"id":1763465,"name":"zaouia el kadi","country":"ma","lat":30.41,"lon":-5.86},{"id":1746931,"name":"ed dououairai","country":"ma","lat":30.471904,"lon":-5.999881},{"id":1741959,"name":"bou khellal","country":"ma","lat":30.38,"lon":-5.8},{"id":1753018,"name":"ksebt n\u0027ait hakka","country":"ma","lat":30.31,"lon":-5.83},{"id":1747747,"name":"el hart n\u0027cheikh messaoud","country":"ma","lat":30.41,"lon":-5.83},{"id":1761519,"name":"tiggint","country":"ma","lat":30.492386,"lon":-6.026299},{"id":1741385,"name":"beni sbih","country":"ma","lat":29.95,"lon":-5.56},{"id":1750469,"name":"iggsouarene","country":"ma","lat":30.05,"lon":-5.56},{"id":1754389,"name":"mouyih amr","country":"ma","lat":30.385287,"lon":-6.410669},{"id":1760056,"name":"tamgrout","country":"ma","lat":30.26,"lon":-5.66},{"id":1753114,"name":"labrar","country":"ma","lat":30.251723,"lon":-6.410718},{"id":1749072,"name":"gourreguir","country":"ma","lat":29.95,"lon":-5.53},{"id":1753011,"name":"ksebt el kaaba","country":"ma","lat":30.469054,"lon":-6.031296},{"id":1757178,"name":"regba","country":"ma","lat":29.93,"lon":-5.53},{"id":1751570,"name":"irherhazene","country":"ma","lat":30.4,"lon":-5.83},{"id":1736785,"name":"ahmed ben ali","country":"ma","lat":30.467019,"lon":-6.030476},{"id":1762606,"name":"tissergat","country":"ma","lat":30.4,"lon":-5.85},{"id":1742062,"name":"bou nou","country":"ma","lat":29.8,"lon":-5.66},{"id":1763738,"name":"zaouiet dekhlaniya","country":"ma","lat":29.93,"lon":-5.57},{"id":1759397,"name":"tahramt","country":"ma","lat":30.0,"lon":-5.56},{"id":1741256,"name":"beni hayyoum","country":"ma","lat":30.0,"lon":-5.55},{"id":1738670,"name":"ait reba","country":"ma","lat":29.95,"lon":-5.58},{"id":1755083,"name":"oulad ahmed er rhozlane","country":"ma","lat":29.78,"lon":-5.73},{"id":1740374,"name":"askejour","country":"ma","lat":30.23,"lon":-5.63},{"id":1763464,"name":"zaouia el hna","country":"ma","lat":29.78,"lon":-5.74},{"id":1762183,"name":"tinfo","country":"ma","lat":30.21,"lon":-5.6},{"id":1752934,"name":"ksar jedid","country":"ma","lat":30.4,"lon":-5.81},{"id":1763704,"name":"zaouiat lfaggoust","country":"ma","lat":30.474878,"lon":-6.067495},{"id":1753035,"name":"ksir ignaoene","country":"ma","lat":30.08,"lon":-5.53},{"id":1752903,"name":"ksar el kbir","country":"ma","lat":29.91,"lon":-5.5},{"id":1737484,"name":"ait ben mohammed","country":"ma","lat":29.96,"lon":-5.56},{"id":1763660,"name":"zaouia sidi yahya","country":"ma","lat":30.01,"lon":-5.53},{"id":1742228,"name":"bou zergane","country":"ma","lat":30.45,"lon":-5.85},{"id":1737208,"name":"ait aissa ou brahim","country":"ma","lat":30.26,"lon":-5.71},{"id":1763352,"name":"zagora","country":"ma","lat":30.332407,"lon":-5.838403},{"id":1753015,"name":"ksebt er remla","country":"ma","lat":30.01,"lon":-5.55},{"id":1737379,"name":"ait atmane","country":"ma","lat":30.21,"lon":-5.56},{"id":1752966,"name":"ksar ouled sultane","country":"ma","lat":30.476788,"lon":-6.03784},{"id":1754154,"name":"mhamid","country":"ma","lat":29.82,"lon":-5.72},{"id":1739742,"name":"amzrou","country":"ma","lat":30.3,"lon":-5.83},{"id":1741291,"name":"beni khtal","country":"ma","lat":29.93,"lon":-5.5},{"id":1762108,"name":"timtig","country":"ma","lat":30.28,"lon":-5.73},{"id":1742049,"name":"bou nana","country":"ma","lat":30.492772,"lon":-6.06044},{"id":1742281,"name":"brija","country":"ma","lat":30.21,"lon":-5.61},{"id":1763458,"name":"zaouia el fatah","country":"ma","lat":30.36,"lon":-5.81},{"id":1763529,"name":"zaouia n\u0027ait rheddo","country":"ma","lat":30.28,"lon":-5.78},{"id":1751591,"name":"irherm n\u0027ait ben ali","country":"ma","lat":30.21,"lon":-5.63},{"id":1755688,"name":"oulad hammou","country":"ma","lat":30.26178,"lon":-6.480954},{"id":1752823,"name":"ksabt el kaaba","country":"ma","lat":30.43,"lon":-5.9},{"id":1752219,"name":"kabo","country":"ma","lat":30.2,"lon":-5.6},{"id":1755528,"name":"oulad driss","country":"ma","lat":29.81,"lon":-5.67},{"id":1738147,"name":"ait kherdi","country":"ma","lat":29.98,"lon":-5.56},{"id":1747483,"name":"el gloa","country":"ma","lat":30.260574,"lon":-6.475933},{"id":1741268,"name":"beni ihnit","country":"ma","lat":29.98,"lon":-5.58},{"id":1763470,"name":"zaouia el majdoub","country":"ma","lat":30.36,"lon":-5.83},{"id":1754531,"name":"najia","country":"ma","lat":30.06,"lon":-5.55},{"id":1742089,"name":"bou rbia","country":"ma","lat":30.143807,"lon":-6.365592},{"id":1741387,"name":"beni semgine","country":"ma","lat":30.06,"lon":-5.56},{"id":1748316,"name":"el mnissi","country":"ma","lat":30.411338,"lon":-6.473078},{"id":1753010,"name":"ksebt arhellane","country":"ma","lat":30.43,"lon":-5.85},{"id":1753405,"name":"lblida","country":"ma","lat":29.98,"lon":-5.51},{"id":1760365,"name":"tansila nechachde","country":"ma","lat":30.35,"lon":-5.83},{"id":1761520,"name":"tiggit n\u0027ait boulma","country":"ma","lat":30.38,"lon":-5.81},{"id":1761521,"name":"tiggit n\u0027oulad chaouf","country":"ma","lat":30.38,"lon":-5.83},{"id":1753026,"name":"ksiba","country":"ma","lat":29.82,"lon":-5.63},{"id":1746763,"name":"douissat","country":"ma","lat":30.42448,"lon":-6.487888},{"id":1740406,"name":"asrir n\u0027ilemchane","country":"ma","lat":30.38,"lon":-5.85},{"id":1757579,"name":"sefalat","country":"ma","lat":30.18,"lon":-5.56},{"id":1756654,"name":"ouled harrouch","country":"ma","lat":30.4,"lon":-5.8},{"id":1737596,"name":"ait bou mezrag","country":"ma","lat":30.18,"lon":-5.55},{"id":1740230,"name":"arhla ou drar","country":"ma","lat":30.3,"lon":-5.78},{"id":1759225,"name":"tagounit","country":"ma","lat":29.97,"lon":-5.58},{"id":1754575,"name":"nesrat","country":"ma","lat":30.03,"lon":-5.55},{"id":1757266,"name":"rhessouane","country":"ma","lat":29.91,"lon":-5.58},{"id":1758981,"name":"tafroudst","country":"ma","lat":30.46,"lon":-5.93},{"id":1763540,"name":"zaouia n\u0027tafroudst","country":"ma","lat":30.46,"lon":-5.91},{"id":1764050,"name":"zouiat sidi abdalhaq","country":"ma","lat":30.238972,"lon":-6.487536},{"id":1763774,"name":"zaouiet sidi salah","country":"ma","lat":29.91,"lon":-5.53},{"id":1759714,"name":"talha","country":"ma","lat":29.81,"lon":-5.73},{"id":1752967,"name":"ksar ouled youb","country":"ma","lat":30.463926,"lon":-6.026531},{"id":1753019,"name":"ksebt n\u0027ourhi","country":"ma","lat":30.25,"lon":-5.68},{"id":1758716,"name":"tachat","country":"ma","lat":30.06,"lon":-5.53},{"id":1747495,"name":"el gouera","country":"ma","lat":29.8,"lon":-6.15},{"id":1748269,"name":"el merja","country":"ma","lat":30.202736,"lon":-6.43345}]});