callback({"markets":[{"id":3049370,"name":"greenhough place","country":"us","lat":41.0738889,"lon":-109.2441667},{"id":2924278,"name":"offield place","country":"us","lat":40.9858333,"lon":-108.6625},{"id":3031797,"name":"flaming gorge summer home area","country":"us","lat":40.8897222,"lon":-109.4752778},{"id":2923869,"name":"greystone","country":"us","lat":40.6094444,"lon":-108.6733333},{"id":3049628,"name":"sweeney ranch","country":"us","lat":41.4797222,"lon":-109.0105556},{"id":2924770,"name":"wilson place","country":"us","lat":40.7619444,"lon":-108.8930556},{"id":2923920,"name":"hiawatha","country":"us","lat":40.9883333,"lon":-108.6197222},{"id":3031692,"name":"dutch john","country":"us","lat":40.9291667,"lon":-109.3902778},{"id":3031796,"name":"flaming gorge lodge","country":"us","lat":40.8844444,"lon":-109.4647222},{"id":3031654,"name":"deer lodge summer home area","country":"us","lat":40.7638889,"lon":-109.4752778},{"id":2923611,"name":"craig place","country":"us","lat":40.7202778,"lon":-108.9536111},{"id":3049607,"name":"south baxter","country":"us","lat":41.3680556,"lon":-109.1211111},{"id":3049536,"name":"petes place","country":"us","lat":41.0027778,"lon":-109.0241667}]});