callback({"markets":[{"id":1741898,"name":"bou iqba","country":"ma","lat":31.124446,"lon":-6.324049},{"id":1757161,"name":"rebat","country":"ma","lat":30.737339,"lon":-6.446257},{"id":1738767,"name":"ait sidi el hajj","country":"ma","lat":31.264093,"lon":-6.070624},{"id":1738053,"name":"ait imellil","country":"ma","lat":31.090593,"lon":-6.363072},{"id":1737998,"name":"ait ibrereur","country":"ma","lat":31.437854,"lon":-6.024981},{"id":1751250,"name":"imi n\u0027sit","country":"ma","lat":30.93,"lon":-5.73},{"id":1736672,"name":"aguerzaka","country":"ma","lat":31.498602,"lon":-6.117251},{"id":1737560,"name":"ait bou houkou","country":"ma","lat":31.494766,"lon":-5.948053},{"id":1747132,"name":"el aouinat","country":"ma","lat":30.564783,"lon":-6.161421},{"id":1750476,"name":"iggui n\u0027ou arhaou","country":"ma","lat":30.98,"lon":-5.9},{"id":1736530,"name":"agouti el foukani","country":"ma","lat":31.386304,"lon":-6.195469},{"id":1738687,"name":"ait ridi","country":"ma","lat":31.190876,"lon":-6.192385},{"id":1736379,"name":"aghigha","country":"ma","lat":31.163496,"lon":-6.218098},{"id":1754182,"name":"mikkeb","country":"ma","lat":31.191251,"lon":-5.670417},{"id":1740797,"name":"azlag","country":"ma","lat":31.220045,"lon":-6.098378},{"id":1760420,"name":"taoujgalt","country":"ma","lat":31.395413,"lon":-6.344897},{"id":1740177,"name":"arg n\u0027sidi ali ou bourk","country":"ma","lat":31.48666,"lon":-5.6998},{"id":1761790,"name":"tikkdarine","country":"ma","lat":31.16,"lon":-5.71},{"id":1739605,"name":"amguene n\u0027sfia","country":"ma","lat":31.0,"lon":-5.91},{"id":1760279,"name":"tanfit","country":"ma","lat":30.93,"lon":-5.81},{"id":1753498,"name":"lfar","country":"ma","lat":31.326414,"lon":-6.184146},{"id":1760196,"name":"tamzergout","country":"ma","lat":31.029038,"lon":-5.635284},{"id":1762457,"name":"tiriguiout","country":"ma","lat":31.181246,"lon":-6.211512},{"id":1761910,"name":"timatriouine","country":"ma","lat":31.41,"lon":-5.713059},{"id":1759256,"name":"tagra","country":"ma","lat":31.082886,"lon":-5.900095},{"id":1754820,"name":"ouarchedik","country":"ma","lat":31.263287,"lon":-6.159552},{"id":1741780,"name":"bou drarar","country":"ma","lat":31.385821,"lon":-6.141971},{"id":1755874,"name":"oulad megdem","country":"ma","lat":30.591625,"lon":-6.163074},{"id":1751752,"name":"isfalen","country":"ma","lat":30.79655,"lon":-6.472946},{"id":1753151,"name":"lahadene","country":"ma","lat":30.514567,"lon":-6.100375},{"id":1751675,"name":"irhiz ait oumrhar","country":"ma","lat":31.236068,"lon":-6.145479},{"id":1737253,"name":"ait ali ou haj","country":"ma","lat":31.48,"lon":-5.93},{"id":1763641,"name":"zaouia sidi mohand ou brahim","country":"ma","lat":30.689163,"lon":-6.325895},{"id":1738563,"name":"ait ouhahi","country":"ma","lat":31.48,"lon":-5.95},{"id":1758985,"name":"tafrourht n\u0027ait bou jijou","country":"ma","lat":30.93,"lon":-5.88},{"id":1741761,"name":"bou dellala","country":"ma","lat":30.53,"lon":-5.7},{"id":1762029,"name":"timirikht","country":"ma","lat":31.279219,"lon":-6.337157},{"id":1761923,"name":"timdrhas","country":"ma","lat":30.952306,"lon":-6.136012},{"id":1762407,"name":"tirhermt n\u0027 tagmout","country":"ma","lat":31.012342,"lon":-6.119453},{"id":1737427,"name":"ait ba mmad","country":"ma","lat":31.195653,"lon":-6.164814},{"id":1737801,"name":"ait el kharche","country":"ma","lat":30.673762,"lon":-6.360111},{"id":1759151,"name":"taghrout","country":"ma","lat":30.761594,"lon":-6.453258},{"id":1753012,"name":"ksebt el makhzene","country":"ma","lat":30.55,"lon":-6.06},{"id":1761529,"name":"tigharmatine el hade","country":"ma","lat":31.41502,"lon":-5.992341},{"id":1751032,"name":"ima","country":"ma","lat":31.288382,"lon":-6.046394},{"id":1762181,"name":"tinfert","country":"ma","lat":31.219649,"lon":-6.103899},{"id":1740231,"name":"arhmed","country":"ma","lat":30.667763,"lon":-6.377798},{"id":1761359,"name":"tichkit","country":"ma","lat":31.155284,"lon":-5.708888},{"id":1761432,"name":"tifergui","country":"ma","lat":30.923205,"lon":-6.207999},{"id":1751457,"name":"initlitene","country":"ma","lat":30.766481,"lon":-6.442079},{"id":1762036,"name":"timit","country":"ma","lat":31.289182,"lon":-5.53259},{"id":1739021,"name":"ajmou amajgal","country":"ma","lat":30.86,"lon":-5.88},{"id":1762792,"name":"tizi-n-tadart","country":"ma","lat":31.103353,"lon":-6.432567},{"id":1761522,"name":"tigguit","country":"ma","lat":30.668598,"lon":-6.342237},{"id":1761409,"name":"tidzguine","country":"ma","lat":31.408215,"lon":-6.493225},{"id":1747145,"name":"el arabi","country":"ma","lat":30.604665,"lon":-6.167287},{"id":1756910,"name":"oulili","country":"ma","lat":31.112781,"lon":-5.579305},{"id":1748336,"name":"el mouda","country":"ma","lat":30.638814,"lon":-6.136669},{"id":1762157,"name":"tinegza","country":"ma","lat":30.597424,"lon":-6.168372},{"id":1738324,"name":"ait mersid","country":"ma","lat":30.86,"lon":-5.81},{"id":1749691,"name":"ibrahene","country":"ma","lat":31.20039,"lon":-6.175224},{"id":1737612,"name":"ait bou oualal","country":"ma","lat":31.369594,"lon":-5.99168},{"id":1760021,"name":"tamessraout","country":"ma","lat":31.115508,"lon":-6.353708},{"id":1739056,"name":"akhallouf","country":"ma","lat":30.504684,"lon":-6.067611},{"id":1753744,"name":"maouas","country":"ma","lat":30.98,"lon":-5.88},{"id":1754586,"name":"nigram","country":"ma","lat":31.25,"lon":-6.08},{"id":1739002,"name":"ait zouli","country":"ma","lat":31.3769,"lon":-6.435711},{"id":1750967,"name":"iknioun","country":"ma","lat":30.847508,"lon":-5.696594},{"id":1738026,"name":"ait igad","country":"ma","lat":31.18,"lon":-6.21},{"id":1736531,"name":"agouti et tahtani","country":"ma","lat":31.384728,"lon":-6.178719},{"id":1763410,"name":"zaouia asfalen","country":"ma","lat":31.162729,"lon":-6.22228},{"id":1757341,"name":"r\u0027koun","country":"ma","lat":31.241733,"lon":-6.140506},{"id":1753525,"name":"lihfaoun-n-irhiriouane","country":"ma","lat":31.006353,"lon":-5.726263},{"id":1760911,"name":"tassaount n\u0027ousdidene","country":"ma","lat":30.98,"lon":-5.81},{"id":1738248,"name":"ait lhassene","country":"ma","lat":31.233807,"lon":-6.108572},{"id":1736474,"name":"agoulzi n\u0027ourhzif","country":"ma","lat":31.073087,"lon":-5.669817},{"id":1761702,"name":"tiguiza","country":"ma","lat":31.011215,"lon":-5.922429},{"id":1761961,"name":"timesla","country":"ma","lat":30.580362,"lon":-6.133129},{"id":1751563,"name":"irhem-amazder","country":"ma","lat":31.291636,"lon":-5.508997},{"id":1738013,"name":"ait idair","country":"ma","lat":31.488246,"lon":-5.953325},{"id":1737934,"name":"ait hamou ou said","country":"ma","lat":30.66,"lon":-6.25},{"id":1755212,"name":"oulad atmane","country":"ma","lat":30.603513,"lon":-6.169341},{"id":1738151,"name":"ait khiyar","country":"ma","lat":31.266068,"lon":-6.143212},{"id":1751294,"name":"imi n\u0027tourza","country":"ma","lat":31.226712,"lon":-5.834226},{"id":1763666,"name":"zaouia tafetcha","country":"ma","lat":30.67778,"lon":-5.946956},{"id":1754371,"name":"moumarigh","country":"ma","lat":31.252642,"lon":-5.781112},{"id":1751121,"name":"imerhane","country":"ma","lat":31.41,"lon":-6.3},{"id":1762393,"name":"tirhemt n\u0027ougogene","country":"ma","lat":31.41,"lon":-6.2},{"id":1760677,"name":"tarhi-n-iksassene","country":"ma","lat":31.188482,"lon":-5.549861},{"id":1759912,"name":"tamazmout","country":"ma","lat":30.66438,"lon":-6.141449},{"id":1759127,"name":"taghia","country":"ma","lat":31.141666,"lon":-6.263055},{"id":1750665,"name":"igourdane n\u0027ait ounir","country":"ma","lat":31.302225,"lon":-5.890973},{"id":1758798,"name":"taddi","country":"ma","lat":31.269275,"lon":-5.644849},{"id":1737110,"name":"aira n\u0027ait sedrat","country":"ma","lat":30.709426,"lon":-6.244496},{"id":1741478,"name":"berkik","country":"ma","lat":31.02238,"lon":-5.938931},{"id":1758763,"name":"tadaout n\u0027ait ben ichchou","country":"ma","lat":30.93,"lon":-5.9},{"id":1738955,"name":"ait yasine","country":"ma","lat":31.26,"lon":-6.05},{"id":1739489,"name":"amdnaren","country":"ma","lat":31.289527,"lon":-6.049127},{"id":1753318,"name":"lamtiq","country":"ma","lat":31.373212,"lon":-6.44583},{"id":1738968,"name":"ait youssef ou said","country":"ma","lat":30.847175,"lon":-5.705015},{"id":1762403,"name":"tirhermt n\u0027ait hammou","country":"ma","lat":30.682009,"lon":-6.142009},{"id":1763337,"name":"zaalou","country":"ma","lat":30.700415,"lon":-5.703489},{"id":1751215,"name":"imi n\u0027kern","country":"ma","lat":30.839471,"lon":-5.951911},{"id":1754859,"name":"ouazagour","country":"ma","lat":30.67505,"lon":-6.148507},{"id":1735868,"name":"aboussars","country":"ma","lat":30.686137,"lon":-6.362199},{"id":1738245,"name":"ait lhasene","country":"ma","lat":31.274328,"lon":-6.064439},{"id":1738047,"name":"ait ikko","country":"ma","lat":31.153969,"lon":-6.247698},{"id":1759159,"name":"taghzout n\u0027tafert","country":"ma","lat":31.360478,"lon":-5.64833},{"id":1747315,"name":"el bordj","country":"ma","lat":30.672592,"lon":-6.352885},{"id":1749220,"name":"hadida","country":"ma","lat":31.339131,"lon":-6.171919},{"id":1739412,"name":"amane","country":"ma","lat":31.429191,"lon":-5.5963},{"id":1763396,"name":"zaouia ait sidi chakh","country":"ma","lat":31.253017,"lon":-6.073655},{"id":1738374,"name":"ait moudzit","country":"ma","lat":31.338277,"lon":-6.492477},{"id":1737995,"name":"ait i\u0027azza","country":"ma","lat":31.10355,"lon":-5.762522},{"id":1749716,"name":"ichatene","country":"ma","lat":30.736817,"lon":-6.118222},{"id":1763544,"name":"zaouia n\u0027tisguine","country":"ma","lat":30.530307,"lon":-6.0818},{"id":1763364,"name":"zake","country":"ma","lat":31.116727,"lon":-5.65355},{"id":1751956,"name":"izmaoun","country":"ma","lat":30.689725,"lon":-6.258398},{"id":1737431,"name":"ait basso","country":"ma","lat":30.737798,"lon":-6.123405},{"id":1758619,"name":"tabarkacht","country":"ma","lat":31.311166,"lon":-6.157812},{"id":1736722,"name":"ahel kourt","country":"ma","lat":31.183969,"lon":-6.189606},{"id":1739177,"name":"alemdoun","country":"ma","lat":31.42,"lon":-6.2},{"id":1737840,"name":"ait gandou","country":"ma","lat":31.122226,"lon":-6.304287},{"id":1738918,"name":"ait waddar","country":"ma","lat":31.180476,"lon":-6.186669},{"id":1738588,"name":"ait ouitfao","country":"ma","lat":31.025273,"lon":-6.488749},{"id":1761349,"name":"tiboulkhirine","country":"ma","lat":31.261529,"lon":-5.828192},{"id":1759435,"name":"tajalait","country":"ma","lat":31.021873,"lon":-5.982242},{"id":1738945,"name":"ait yahya ou moussa","country":"ma","lat":30.51,"lon":-5.68},{"id":1758520,"name":"souq el khmis","country":"ma","lat":31.305848,"lon":-6.033294},{"id":1754800,"name":"ouaourit","country":"ma","lat":30.95,"lon":-5.75},{"id":1740424,"name":"assaka n\u0027ilourhmane","country":"ma","lat":30.96,"lon":-5.88},{"id":1762476,"name":"tirnremt","country":"ma","lat":31.163797,"lon":-5.710127},{"id":1756934,"name":"oum er remane","country":"ma","lat":30.833822,"lon":-5.677341},{"id":1760585,"name":"tarbat","country":"ma","lat":31.362142,"lon":-6.463331},{"id":1759863,"name":"tamarendout tamajialt","country":"ma","lat":30.96,"lon":-5.86},{"id":1751476,"name":"insei","country":"ma","lat":30.786238,"lon":-6.462738},{"id":1752652,"name":"khettart n\u0027ikkedarn","country":"ma","lat":31.260954,"lon":-5.574907},{"id":1738155,"name":"ait khlifa","country":"ma","lat":31.421319,"lon":-6.225461},{"id":1750966,"name":"iknioune","country":"ma","lat":31.171251,"lon":-5.685562},{"id":1738530,"name":"ait ou ben ali","country":"ma","lat":31.155263,"lon":-6.240818},{"id":1763944,"name":"zguigui","country":"ma","lat":30.95,"lon":-5.91},{"id":1752520,"name":"kelaat mgouna","country":"ma","lat":31.238299,"lon":-6.12981},{"id":1738199,"name":"ait lahsene","country":"ma","lat":31.208812,"lon":-6.157468},{"id":1750914,"name":"ikfrane","country":"ma","lat":31.031012,"lon":-5.700936},{"id":1760003,"name":"tameskikt","country":"ma","lat":31.375764,"lon":-6.161773},{"id":1760625,"name":"targoua n\u0027el mal","country":"ma","lat":30.682294,"lon":-6.285504},{"id":1750495,"name":"ighazoun n\u0027imlas","country":"ma","lat":31.038685,"lon":-5.894797},{"id":1751527,"name":"irdieg","country":"ma","lat":30.637872,"lon":-6.156916},{"id":1751173,"name":"imidernougouram","country":"ma","lat":31.253114,"lon":-6.224366},{"id":1763536,"name":"zaouia n\u0027ikhef n\u0027ouzrou","country":"ma","lat":30.69133,"lon":-6.189527},{"id":1757960,"name":"sidi el rhazi","country":"ma","lat":31.139616,"lon":-6.267764},{"id":1761152,"name":"taziricht","country":"ma","lat":31.3493,"lon":-6.174342},{"id":1758303,"name":"slillou","country":"ma","lat":31.387649,"lon":-5.985166},{"id":1751068,"name":"imchad n\u0027ait said","country":"ma","lat":31.152771,"lon":-6.249711},{"id":1740260,"name":"arirha","country":"ma","lat":31.166335,"lon":-6.21462},{"id":1762526,"name":"tisguine n\u0027ait m\u0027rao","country":"ma","lat":31.446209,"lon":-6.122361},{"id":1759141,"name":"taghra n\u0027tnafaout","country":"ma","lat":31.200234,"lon":-5.586377},{"id":1738086,"name":"ait issi","country":"ma","lat":30.696369,"lon":-6.255607},{"id":1763533,"name":"zaouia n\u0027igriourene","country":"ma","lat":30.7261,"lon":-6.447763},{"id":1735754,"name":"aagoubt","country":"ma","lat":30.560234,"lon":-6.134766},{"id":1757145,"name":"rbate","country":"ma","lat":30.508185,"lon":-6.101605},{"id":1761642,"name":"tiguemmi n\u0027ouezza","country":"ma","lat":31.039733,"lon":-5.606941},{"id":1751864,"name":"issoumar","country":"ma","lat":31.456295,"lon":-6.128578},{"id":1751559,"name":"irhelrherh","country":"ma","lat":30.677248,"lon":-6.294312},{"id":1762213,"name":"tinirhil","country":"ma","lat":30.781248,"lon":-6.45305},{"id":1757850,"name":"sidi bou amrane","country":"ma","lat":31.22,"lon":-6.09},{"id":1762028,"name":"timiright","country":"ma","lat":31.121882,"lon":-6.34491},{"id":1759681,"name":"talemdout","country":"ma","lat":31.4,"lon":-6.18},{"id":1750508,"name":"igherm aqdim","country":"ma","lat":31.451749,"lon":-6.121137},{"id":1738545,"name":"ait oudimar oufra","country":"ma","lat":30.679671,"lon":-6.171865},{"id":1762091,"name":"timremt","country":"ma","lat":30.937151,"lon":-6.438296},{"id":1739561,"name":"amesker et tatani","country":"ma","lat":31.486907,"lon":-6.221226},{"id":1763489,"name":"zaouia ifrioun","country":"ma","lat":30.602579,"lon":-6.14416},{"id":1763093,"name":"touna n\u0027iaraben","country":"ma","lat":30.626926,"lon":-5.830582},{"id":1751385,"name":"imrhrane","country":"ma","lat":31.41,"lon":-6.25},{"id":1737927,"name":"ait hammou ou yahya","country":"ma","lat":31.294951,"lon":-6.180991},{"id":1760085,"name":"tamkasselt","country":"ma","lat":30.691548,"lon":-6.260889},{"id":1752417,"name":"kasba moulay brahim","country":"ma","lat":31.41,"lon":-5.58},{"id":1760139,"name":"tamsahelt","country":"ma","lat":30.819388,"lon":-5.663074},{"id":1736619,"name":"aguerd n\u0027igherm","country":"ma","lat":31.347523,"lon":-6.49237},{"id":1759732,"name":"taliwine","country":"ma","lat":30.697116,"lon":-6.423139},{"id":1753963,"name":"mellal","country":"ma","lat":30.83,"lon":-5.66},{"id":1742374,"name":"carghine","country":"ma","lat":31.267597,"lon":-6.047521},{"id":1760910,"name":"tassaount n\u0027bou igrazene","country":"ma","lat":30.890375,"lon":-6.281209},{"id":1754973,"name":"ouine ouadil","country":"ma","lat":31.103083,"lon":-5.745889},{"id":1761147,"name":"tazigzaout n\u0027ousrhets","country":"ma","lat":30.96,"lon":-5.55},{"id":1760993,"name":"tatelt","country":"ma","lat":30.76,"lon":-6.25},{"id":1737491,"name":"ait ben ouazar","country":"ma","lat":30.731142,"lon":-6.135313},{"id":1740025,"name":"aoujgal n\u0027ait tachaout","country":"ma","lat":30.736375,"lon":-5.709502},{"id":1751061,"name":"imassine","country":"ma","lat":31.128517,"lon":-6.346356},{"id":1751416,"name":"imzoudar","country":"ma","lat":31.456715,"lon":-5.981287},{"id":1762308,"name":"tiouit","country":"ma","lat":31.158899,"lon":-5.595701},{"id":1738312,"name":"ait melkt","country":"ma","lat":30.706751,"lon":-6.254403},{"id":1763110,"name":"tourbist","country":"ma","lat":31.356413,"lon":-6.168457},{"id":1760039,"name":"tamgallouna","country":"ma","lat":31.41,"lon":-6.12},{"id":1737740,"name":"ait el arbi","country":"ma","lat":31.458878,"lon":-5.971865},{"id":1740755,"name":"azib n\u0027wanou","country":"ma","lat":31.306247,"lon":-6.412908},{"id":1751513,"name":"iqouassene","country":"ma","lat":31.251428,"lon":-6.087138},{"id":1742154,"name":"bou skour","country":"ma","lat":30.928765,"lon":-6.300148},{"id":1757378,"name":"roudat","country":"ma","lat":30.671248,"lon":-6.352669},{"id":1737391,"name":"ait attou","country":"ma","lat":30.652108,"lon":-6.13},{"id":1754769,"name":"ouaouglout","country":"ma","lat":30.83,"lon":-5.51},{"id":1763638,"name":"zaouia sidi mohammed ou lahsene","country":"ma","lat":30.662854,"lon":-6.137772},{"id":1738896,"name":"ait tlaglou","country":"ma","lat":31.161303,"lon":-6.26129},{"id":1758075,"name":"sidi mhand el haj","country":"ma","lat":31.117572,"lon":-6.348952},{"id":1760511,"name":"taourirt n\u0027irbial","country":"ma","lat":31.30869,"lon":-5.626748},{"id":1750457,"name":"igdourane","country":"ma","lat":30.581561,"lon":-6.150312},{"id":1762009,"name":"timiderte","country":"ma","lat":30.682477,"lon":-6.298073},{"id":1761421,"name":"tifarnine","country":"ma","lat":31.111682,"lon":-5.730093},{"id":1759957,"name":"tamejjait","country":"ma","lat":30.651575,"lon":-6.129852},{"id":1751220,"name":"imi n\u0027ou akka","country":"ma","lat":30.95,"lon":-5.9},{"id":1761621,"name":"tigourzatine","country":"ma","lat":31.079253,"lon":-5.61682},{"id":1738557,"name":"ait ougliff","country":"ma","lat":31.45333,"lon":-5.96565},{"id":1751320,"name":"imiter","country":"ma","lat":31.373238,"lon":-5.793841},{"id":1742115,"name":"bourmmane","country":"ma","lat":31.358215,"lon":-6.495354},{"id":1736047,"name":"afaoui","country":"ma","lat":30.85,"lon":-6.05},{"id":1738964,"name":"ait youl","country":"ma","lat":31.419009,"lon":-6.007684},{"id":1738192,"name":"ait lahlou","country":"ma","lat":31.156034,"lon":-6.245001},{"id":1741481,"name":"berkou","country":"ma","lat":31.078944,"lon":-5.929474},{"id":1759384,"name":"tahia","country":"ma","lat":30.90404,"lon":-6.288387},{"id":1759197,"name":"tagoudilt","country":"ma","lat":31.253337,"lon":-5.859444},{"id":1754309,"name":"mouddou","country":"ma","lat":31.14299,"lon":-5.520187},{"id":1747746,"name":"el hart","country":"ma","lat":31.231904,"lon":-6.150232},{"id":1737538,"name":"ait bou beker","country":"ma","lat":31.21712,"lon":-6.121497},{"id":1760231,"name":"tanamghout","country":"ma","lat":30.780166,"lon":-5.770385},{"id":1738469,"name":"ait ouahi","country":"ma","lat":31.187066,"lon":-6.192782},{"id":1735841,"name":"abdi n\u0027ilemchane","country":"ma","lat":30.781495,"lon":-5.718724},{"id":1736532,"name":"agoz","country":"ma","lat":30.693558,"lon":-6.446285},{"id":1758891,"name":"tafergalt","country":"ma","lat":30.682526,"lon":-6.398152},{"id":1748423,"name":"el quemt","country":"ma","lat":31.297056,"lon":-6.042475},{"id":1761560,"name":"tighouzzirine","country":"ma","lat":31.392379,"lon":-6.435473},{"id":1760916,"name":"tassaout","country":"ma","lat":31.45,"lon":-6.46},{"id":1760103,"name":"tammougalt","country":"ma","lat":30.674763,"lon":-6.389796},{"id":1749654,"name":"iberkhoussen","country":"ma","lat":31.335939,"lon":-6.187731},{"id":1751927,"name":"izemgane","country":"ma","lat":31.29876,"lon":-5.844449},{"id":1742191,"name":"bou tigguit n\u0027oualrkit","country":"ma","lat":31.002055,"lon":-5.917571},{"id":1737804,"name":"ait el khiaf","country":"ma","lat":31.177926,"lon":-5.670973},{"id":1755968,"name":"oulad moussa","country":"ma","lat":30.589695,"lon":-6.15445},{"id":1756998,"name":"outaoui","country":"ma","lat":31.21074,"lon":-5.632185},{"id":1762159,"name":"tine iouarkane","country":"ma","lat":31.253169,"lon":-5.563885},{"id":1762058,"name":"timlil","country":"ma","lat":31.370646,"lon":-6.393339},{"id":1764057,"name":"zouiet sidi daoud","country":"ma","lat":31.479713,"lon":-5.959387},{"id":1761644,"name":"tiguemmi n\u0027ou skouri","country":"ma","lat":31.46,"lon":-6.13},{"id":1740924,"name":"ba daoud","country":"ma","lat":31.127049,"lon":-6.287264},{"id":1754694,"name":"olmi n\u0027ouarg","country":"ma","lat":31.192684,"lon":-5.796703},{"id":1759983,"name":"tamellalt","country":"ma","lat":31.444544,"lon":-5.981801},{"id":1740714,"name":"azib","country":"ma","lat":31.272498,"lon":-6.257852},{"id":1762793,"name":"tizi n\u0027tagoult","country":"ma","lat":31.208749,"lon":-5.743626},{"id":1755858,"name":"oulad massad","country":"ma","lat":30.546265,"lon":-6.125094},{"id":1759770,"name":"talmout","country":"ma","lat":31.257563,"lon":-6.141683},{"id":1737868,"name":"ait haddou n\u0027ait youl","country":"ma","lat":31.204678,"lon":-6.135068},{"id":1750515,"name":"igherm n\u0027tanssikht","country":"ma","lat":30.682997,"lon":-6.178814},{"id":1763859,"name":"zawyat","country":"ma","lat":31.227257,"lon":-6.109756},{"id":1758805,"name":"taderdourt","country":"ma","lat":30.91,"lon":-5.81},{"id":1742016,"name":"boumalne","country":"ma","lat":31.379861,"lon":-5.988192},{"id":1747797,"name":"el hot","country":"ma","lat":31.395662,"lon":-6.165961},{"id":1758882,"name":"tafelt","country":"ma","lat":30.755214,"lon":-6.263876},{"id":1737458,"name":"ait ben ali","country":"ma","lat":31.43,"lon":-6.01},{"id":1737933,"name":"ait hamoudene","country":"ma","lat":31.184049,"lon":-6.176589},{"id":1749597,"name":"iarhabene","country":"ma","lat":31.01779,"lon":-6.483176},{"id":1752708,"name":"knemis dades","country":"ma","lat":31.3,"lon":-6.02},{"id":1739924,"name":"anou nizam","country":"ma","lat":31.33739,"lon":-5.848119},{"id":1751596,"name":"irherm n\u0027ilamchane","country":"ma","lat":31.198569,"lon":-5.656055},{"id":1738080,"name":"ait ishaq","country":"ma","lat":30.709486,"lon":-6.249653},{"id":1760885,"name":"tasroult","country":"ma","lat":31.224522,"lon":-6.084684},{"id":1748016,"name":"el khotara","country":"ma","lat":31.45,"lon":-5.55},{"id":1763253,"name":"wakline","country":"ma","lat":31.445375,"lon":-5.54954},{"id":1737691,"name":"ait chrou","country":"ma","lat":30.84784,"lon":-5.711412},{"id":1761552,"name":"tighli","country":"ma","lat":31.463497,"lon":-6.466574},{"id":1739504,"name":"amejgag","country":"ma","lat":31.455253,"lon":-6.205604},{"id":1763402,"name":"zaouia amadarh","country":"ma","lat":30.527104,"lon":-6.105699},{"id":1737942,"name":"ait haqi","country":"ma","lat":31.285198,"lon":-6.032612},{"id":1738908,"name":"ait toumert","country":"ma","lat":31.415185,"lon":-6.24232},{"id":1737875,"name":"ait hadj lahcen","country":"ma","lat":30.501483,"lon":-6.100063},{"id":1757265,"name":"rherrhiz","country":"ma","lat":31.105522,"lon":-5.686228},{"id":1740063,"name":"aouriz","country":"ma","lat":30.680364,"lon":-6.43056},{"id":1758578,"name":"taakilat","country":"ma","lat":30.612766,"lon":-6.157465},{"id":1747726,"name":"el harha","country":"ma","lat":30.683528,"lon":-6.278048},{"id":1748919,"name":"foum el kous","country":"ma","lat":31.43,"lon":-5.65},{"id":1740166,"name":"aremt","country":"ma","lat":30.68,"lon":-6.4},{"id":1763766,"name":"zaouiet sidi bou beker","country":"ma","lat":31.443134,"lon":-5.985616},{"id":1762772,"name":"tizilita","country":"ma","lat":31.013176,"lon":-5.688785},{"id":1740674,"name":"azegzaou n\u0027tanguerfa","country":"ma","lat":30.742516,"lon":-6.184594},{"id":1760270,"name":"tanemlalt","country":"ma","lat":31.135284,"lon":-5.612642},{"id":1737945,"name":"ait haroun","country":"ma","lat":31.215473,"lon":-6.110595},{"id":1762031,"name":"timiska","country":"ma","lat":31.173021,"lon":-6.208967},{"id":1763776,"name":"zaouit a bou lhassane","country":"ma","lat":30.674771,"lon":-6.289449},{"id":1737153,"name":"ait abdoune","country":"ma","lat":31.341504,"lon":-5.997113},{"id":1740265,"name":"armas","country":"ma","lat":30.746224,"lon":-6.085632},{"id":1737534,"name":"ait bou allal","country":"ma","lat":31.36,"lon":-5.98},{"id":1738891,"name":"ait tiourhza","country":"ma","lat":30.642911,"lon":-6.146616},{"id":1760761,"name":"tarmoucht","country":"ma","lat":31.36,"lon":-5.99},{"id":1750651,"name":"igouramen n\u0027imi n\u0027ouska","country":"ma","lat":31.45,"lon":-6.13},{"id":1740815,"name":"azourg","country":"ma","lat":31.039627,"lon":-6.027567},{"id":1739023,"name":"ajmou n\u0027ait messaoud","country":"ma","lat":30.85,"lon":-5.787311},{"id":1737210,"name":"ait aissi","country":"ma","lat":30.64916,"lon":-6.143652},{"id":1762488,"name":"tirza","country":"ma","lat":31.318244,"lon":-5.655074},{"id":1761835,"name":"tiliojrine","country":"ma","lat":31.42777,"lon":-5.513587},{"id":1737809,"name":"ait el maqsoub","country":"ma","lat":31.43,"lon":-5.58},{"id":1760428,"name":"taoulaoult","country":"ma","lat":31.020722,"lon":-5.646711},{"id":1760877,"name":"tasottift","country":"ma","lat":31.372928,"lon":-5.576812},{"id":1738679,"name":"ait rhanem","country":"ma","lat":30.648716,"lon":-6.129457},{"id":1739058,"name":"akhamsi","country":"ma","lat":31.084727,"lon":-5.792086},{"id":1737794,"name":"ait elkadi","country":"ma","lat":31.491775,"lon":-5.506057},{"id":1740467,"name":"asseling","country":"ma","lat":30.71342,"lon":-6.445887},{"id":1763695,"name":"zaouia timasla","country":"ma","lat":30.58,"lon":-6.11},{"id":1760729,"name":"taria n\u0027irhihane","country":"ma","lat":31.138742,"lon":-6.262348},{"id":1757973,"name":"sidi flah","country":"ma","lat":31.022037,"lon":-6.492876},{"id":1738516,"name":"ait ouazik","country":"ma","lat":30.686293,"lon":-5.62433},{"id":1761326,"name":"tgmoute","country":"ma","lat":31.164727,"lon":-5.620695},{"id":1741873,"name":"bou ichlif","country":"ma","lat":31.197131,"lon":-5.817131},{"id":1760568,"name":"taradane","country":"ma","lat":31.21,"lon":-6.11},{"id":1740421,"name":"assaka n\u0027ait ouzzine","country":"ma","lat":31.040624,"lon":-6.040791},{"id":1760999,"name":"tatrarate","country":"ma","lat":31.367376,"lon":-6.464878},{"id":1760822,"name":"tasemmoumt","country":"ma","lat":30.752408,"lon":-6.056851},{"id":1737846,"name":"ait gmat","country":"ma","lat":31.289291,"lon":-6.148871},{"id":1739607,"name":"amguis","country":"ma","lat":31.044951,"lon":-5.847571},{"id":1739925,"name":"anou n\u0027ou\u0027achcha","country":"ma","lat":31.254249,"lon":-5.609461},{"id":1754460,"name":"mtassit","country":"ma","lat":31.0,"lon":-5.88},{"id":1737885,"name":"ait hakkou ou ali","country":"ma","lat":31.241131,"lon":-6.078148},{"id":1739452,"name":"amaskar","country":"ma","lat":31.443338,"lon":-6.382847}]});