callback({"markets":[{"id":889024,"name":"bet maira","country":"et","lat":13.019722,"lon":39.528333},{"id":893892,"name":"horda","country":"et","lat":12.783333,"lon":39.666667},{"id":887342,"name":"adota","country":"et","lat":12.65,"lon":39.516667},{"id":897419,"name":"sechet","country":"et","lat":13.355312,"lon":39.754778},{"id":895754,"name":"mai celfo","country":"et","lat":13.3,"lon":39.6},{"id":886826,"name":"addi akeyti","country":"et","lat":13.277111,"lon":39.52877},{"id":889733,"name":"celecot","country":"et","lat":13.35,"lon":39.566667},{"id":897735,"name":"shibt\u0027a","country":"et","lat":13.45528,"lon":39.520166},{"id":895753,"name":"mai cayeh","country":"et","lat":13.322117,"lon":39.529044},{"id":888316,"name":"ats\u0027agayti","country":"et","lat":12.95,"lon":39.616667},{"id":887837,"name":"ammulfaghe","country":"et","lat":13.35,"lon":40.166667},{"id":887137,"name":"adi gura","country":"et","lat":12.983333,"lon":39.55},{"id":896282,"name":"mere mi\u0027iti","country":"et","lat":13.360725,"lon":39.526468},{"id":891700,"name":"enda corcos","country":"et","lat":12.916667,"lon":39.65},{"id":896592,"name":"monos","country":"et","lat":13.415571,"lon":39.619784},{"id":887032,"name":"adi almeban","country":"et","lat":12.783333,"lon":39.516667},{"id":892974,"name":"gogolo","country":"et","lat":12.683333,"lon":39.683333},{"id":893833,"name":"hidmo","country":"et","lat":13.20761,"lon":39.544236},{"id":896037,"name":"mebera","country":"et","lat":12.6,"lon":39.633333},{"id":887998,"name":"aragure","country":"et","lat":13.458176,"lon":39.69841},{"id":887346,"name":"adu bariye","country":"et","lat":12.55,"lon":39.733333},{"id":887750,"name":"amba alage","country":"et","lat":12.936944,"lon":39.516111},{"id":887317,"name":"adi werhi","country":"et","lat":13.101298,"lon":39.659881},{"id":887825,"name":"ami`et","country":"et","lat":13.033333,"lon":39.7},{"id":895677,"name":"ma\u0027ajeraro","country":"et","lat":13.333333,"lon":39.516667},{"id":888895,"name":"belhat","country":"et","lat":13.232006,"lon":39.602941},{"id":887142,"name":"adi hagos","country":"et","lat":12.55,"lon":39.583333},{"id":897607,"name":"sesat","country":"et","lat":12.933333,"lon":39.566667},{"id":894158,"name":"indodo","country":"et","lat":12.633333,"lon":39.533333},{"id":898230,"name":"terenga","country":"et","lat":12.75,"lon":39.516667},{"id":898898,"name":"wa\u0027akei","country":"et","lat":12.766667,"lon":39.616667},{"id":887537,"name":"aine mai","country":"et","lat":12.65,"lon":39.666667},{"id":892659,"name":"ghiragoba","country":"et","lat":12.633333,"lon":39.65},{"id":888553,"name":"bahir hat\u0027era","country":"et","lat":12.566667,"lon":39.516667},{"id":894213,"name":"irba","country":"et","lat":12.533333,"lon":39.75},{"id":891989,"name":"fingilat","country":"et","lat":13.219206,"lon":39.517993},{"id":892795,"name":"giram berom","country":"et","lat":13.139246,"lon":39.68195},{"id":888445,"name":"aywetu","country":"et","lat":13.078718,"lon":39.503},{"id":894953,"name":"k\u0027iny","country":"et","lat":12.566667,"lon":39.666667},{"id":886899,"name":"addi kuere","country":"et","lat":13.284317,"lon":39.587077},{"id":888592,"name":"balago","country":"et","lat":12.833333,"lon":39.533333},{"id":892099,"name":"gabir sagudo","country":"et","lat":12.866667,"lon":39.566667},{"id":888317,"name":"ats\u0027eb lhin","country":"et","lat":13.374974,"lon":39.572273},{"id":894866,"name":"khilsha","country":"et","lat":13.487659,"lon":39.699539},{"id":886672,"name":"abo","country":"et","lat":12.666667,"lon":39.633333},{"id":887193,"name":"adi kouna","country":"et","lat":13.499764,"lon":39.676356},{"id":891705,"name":"enda madhanialam","country":"et","lat":13.06384,"lon":39.522205},{"id":887147,"name":"adi hana","country":"et","lat":13.180634,"lon":39.509482},{"id":887814,"name":"amentila","country":"et","lat":13.427149,"lon":39.557739},{"id":899242,"name":"wijig","country":"et","lat":12.8,"lon":39.6},{"id":887005,"name":"adi aba musa","country":"et","lat":12.616667,"lon":39.516667},{"id":890969,"name":"dergam","country":"et","lat":13.368571,"lon":39.787429},{"id":890224,"name":"cuachene sceticot","country":"et","lat":13.483333,"lon":39.766667},{"id":890723,"name":"debu","country":"et","lat":13.026806,"lon":39.594303},{"id":897244,"name":"sale","country":"et","lat":12.7,"lon":39.583333},{"id":892254,"name":"gararsa","country":"et","lat":12.8,"lon":39.7},{"id":887038,"name":"adi arba`ite","country":"et","lat":13.067081,"lon":39.622061},{"id":892866,"name":"gobba","country":"et","lat":12.75,"lon":39.816667},{"id":887311,"name":"adi uochi","country":"et","lat":12.5,"lon":39.633333},{"id":896018,"name":"may nebri","country":"et","lat":13.133333,"lon":39.5},{"id":886780,"name":"adadi arare","country":"et","lat":12.866667,"lon":39.683333},{"id":893243,"name":"guangua","country":"et","lat":13.133333,"lon":39.8},{"id":890470,"name":"dandera","country":"et","lat":13.435814,"lon":39.659976},{"id":892242,"name":"garajam","country":"et","lat":13.156898,"lon":39.686295},{"id":889912,"name":"ch\u0027erch\u0027er","country":"et","lat":12.533333,"lon":39.766667},{"id":899437,"name":"yet k\u0027oyesh","country":"et","lat":12.566667,"lon":39.533333},{"id":889477,"name":"buie","country":"et","lat":13.243733,"lon":39.528716},{"id":898521,"name":"tulwo","country":"et","lat":12.75,"lon":39.616667},{"id":897796,"name":"shugala","country":"et","lat":13.497952,"lon":39.644882},{"id":893236,"name":"gruamber","country":"et","lat":13.470475,"lon":39.513609},{"id":890594,"name":"dea","country":"et","lat":13.485929,"lon":39.64729},{"id":892896,"name":"gobul","country":"et","lat":13.366667,"lon":40.25},{"id":898407,"name":"ts\u0027ahafti","country":"et","lat":13.015398,"lon":39.665053},{"id":892213,"name":"gane geb","country":"et","lat":12.5,"lon":39.783333},{"id":890604,"name":"debar","country":"et","lat":12.866667,"lon":39.55},{"id":892509,"name":"gereb didik","country":"et","lat":13.104912,"lon":39.514473},{"id":886667,"name":"abiy imni","country":"et","lat":12.533333,"lon":39.516667},{"id":892238,"name":"garagiam","country":"et","lat":13.13841,"lon":39.61488},{"id":887057,"name":"adi basale","country":"et","lat":12.816667,"lon":39.816667},{"id":891402,"name":"dugu\u0027a","country":"et","lat":12.866667,"lon":39.533333},{"id":897404,"name":"sebebera","country":"et","lat":13.115686,"lon":39.659514},{"id":897590,"name":"serghiem","country":"et","lat":13.220124,"lon":39.589301},{"id":896006,"name":"may k\u0027orar","country":"et","lat":12.983333,"lon":39.566667},{"id":887004,"name":"adi aba jebano","country":"et","lat":12.566667,"lon":39.766667},{"id":894274,"name":"izban khidaga","country":"et","lat":13.008475,"lon":39.583736},{"id":891267,"name":"dodota","country":"et","lat":12.516667,"lon":39.733333},{"id":893854,"name":"hirka","country":"et","lat":12.866667,"lon":39.666667},{"id":887502,"name":"ahawi","country":"et","lat":12.666667,"lon":39.55},{"id":888714,"name":"baro","country":"et","lat":12.816667,"lon":39.633333},{"id":895800,"name":"makmat iwurr","country":"et","lat":13.134256,"lon":39.53823},{"id":899492,"name":"ynda medkhane alem","country":"et","lat":13.020685,"lon":39.533759},{"id":886843,"name":"addi culcul","country":"et","lat":13.12323,"lon":39.886303},{"id":887577,"name":"akeseba","country":"et","lat":13.383333,"lon":39.566667},{"id":894697,"name":"kera ferda","country":"et","lat":12.55,"lon":39.633333},{"id":888783,"name":"bedda","country":"et","lat":12.966667,"lon":40.016667},{"id":887182,"name":"adi k\u0027elk\u0027el","country":"et","lat":13.372889,"lon":39.509753},{"id":888235,"name":"ashegoda","country":"et","lat":13.455815,"lon":39.654086},{"id":887175,"name":"adi k\u0027ashi","country":"et","lat":12.7,"lon":39.566667},{"id":889881,"name":"ch\u0027emero","country":"et","lat":12.616667,"lon":39.65},{"id":887822,"name":"ami\u0027a","country":"et","lat":12.95,"lon":39.516667},{"id":886909,"name":"addi onfato","country":"et","lat":13.237556,"lon":39.5786},{"id":892199,"name":"gamra","country":"et","lat":13.3,"lon":39.85},{"id":887557,"name":"ajo","country":"et","lat":12.633333,"lon":39.6},{"id":895219,"name":"kube","country":"et","lat":12.633333,"lon":39.583333},{"id":890636,"name":"debir","country":"et","lat":12.633333,"lon":39.5},{"id":898648,"name":"uare uajo","country":"et","lat":12.95,"lon":39.85},{"id":895706,"name":"madley","country":"et","lat":12.716667,"lon":39.5},{"id":887414,"name":"agam","country":"et","lat":12.8,"lon":39.516667},{"id":897991,"name":"sugoda","country":"et","lat":13.2027,"lon":39.589493},{"id":899600,"name":"ziban","country":"et","lat":12.716667,"lon":39.533333},{"id":895228,"name":"kuen","country":"et","lat":13.48817,"lon":39.592406},{"id":887478,"name":"agiura","country":"et","lat":12.683333,"lon":39.65},{"id":893528,"name":"hadele","country":"et","lat":13.087833,"lon":39.727045},{"id":889432,"name":"boye gerarsa","country":"et","lat":12.833333,"lon":39.75},{"id":893997,"name":"idim","country":"et","lat":13.221281,"lon":39.553748},{"id":890487,"name":"danis","country":"et","lat":12.65,"lon":39.616667},{"id":888074,"name":"aredebasa","country":"et","lat":12.783333,"lon":39.766667},{"id":894128,"name":"inda iyesus","country":"et","lat":13.480436,"lon":39.506527},{"id":888157,"name":"aroley","country":"et","lat":13.207338,"lon":39.776964},{"id":891012,"name":"deweyto","country":"et","lat":12.866667,"lon":39.7},{"id":888399,"name":"awli\u0027i gara","country":"et","lat":12.533333,"lon":39.5},{"id":887381,"name":"afhits\u0027a","country":"et","lat":13.080157,"lon":39.681928},{"id":891082,"name":"didigsala","country":"et","lat":12.883333,"lon":39.966667},{"id":898070,"name":"t\u0027aleta","country":"et","lat":12.883333,"lon":39.7},{"id":890720,"name":"debub","country":"et","lat":13.007878,"lon":39.608068},{"id":887186,"name":"adi k\u0027eyih","country":"et","lat":12.983333,"lon":39.683333},{"id":895678,"name":"maara","country":"et","lat":13.233333,"lon":39.583333},{"id":887055,"name":"adi balanberas","country":"et","lat":12.516667,"lon":39.766667},{"id":894226,"name":"irgoye","country":"et","lat":12.766667,"lon":39.733333},{"id":893504,"name":"gyra tserkhi","country":"et","lat":13.120878,"lon":39.693309},{"id":887035,"name":"adi amshashi","country":"et","lat":12.733333,"lon":39.55},{"id":889444,"name":"bube","country":"et","lat":12.55,"lon":39.616667},{"id":891344,"name":"du\u0027alga","country":"et","lat":12.75,"lon":39.65},{"id":887314,"name":"adi weka","country":"et","lat":12.5,"lon":39.5},{"id":894034,"name":"igre hariba","country":"et","lat":13.474621,"lon":39.572031},{"id":887451,"name":"agew","country":"et","lat":12.916667,"lon":39.6},{"id":888329,"name":"atzalo","country":"et","lat":12.916667,"lon":39.5},{"id":887526,"name":"aiba","country":"et","lat":12.883333,"lon":39.566667},{"id":897036,"name":"quorem","country":"et","lat":12.505833,"lon":39.522778},{"id":893230,"name":"grauda","country":"et","lat":13.015427,"lon":39.606316},{"id":894968,"name":"kitare","country":"et","lat":12.916667,"lon":39.566667},{"id":895020,"name":"kokele","country":"et","lat":13.35075,"lon":39.63062},{"id":887019,"name":"adi agam","country":"et","lat":12.75,"lon":39.55},{"id":887051,"name":"adi ayo","country":"et","lat":12.85,"lon":39.733333},{"id":887308,"name":"adi t\u0027u`at","country":"et","lat":13.064178,"lon":39.743082},{"id":897439,"name":"sefer","country":"et","lat":12.683333,"lon":39.55},{"id":894628,"name":"kek\u0027e","country":"et","lat":13.147692,"lon":39.580448},{"id":895859,"name":"manch\u0027elfo","country":"et","lat":13.356981,"lon":39.594806},{"id":897949,"name":"soloka","country":"et","lat":12.716667,"lon":39.816667},{"id":887380,"name":"afgol ghiorghis","country":"et","lat":13.316667,"lon":39.583333},{"id":887065,"name":"adi bidera","country":"et","lat":12.766667,"lon":39.816667},{"id":887283,"name":"adi shoh","country":"et","lat":12.861389,"lon":39.567222},{"id":892793,"name":"girah bisuh","country":"et","lat":13.035121,"lon":39.507558},{"id":897555,"name":"seni`ale","country":"et","lat":13.082929,"lon":39.710264},{"id":895982,"name":"may alek\u0027t","country":"et","lat":12.6,"lon":39.783333},{"id":898036,"name":"tach asayo","country":"et","lat":12.5,"lon":39.766667},{"id":887145,"name":"adi hamido","country":"et","lat":12.583333,"lon":39.533333},{"id":887520,"name":"aia","country":"et","lat":12.7,"lon":39.7},{"id":887129,"name":"adi gudom","country":"et","lat":13.288288,"lon":39.538918},{"id":887277,"name":"adi shela","country":"et","lat":12.616667,"lon":39.533333},{"id":889847,"name":"ch\u0027ek\u0027on","country":"et","lat":12.7,"lon":39.683333},{"id":893836,"name":"higumrda","country":"et","lat":12.666667,"lon":39.533333},{"id":896474,"name":"minch\u0027ila","country":"et","lat":13.08777,"lon":39.613957},{"id":887278,"name":"adi sheshu","country":"et","lat":12.516667,"lon":39.533333},{"id":897868,"name":"simuny","country":"et","lat":12.883333,"lon":39.65},{"id":894489,"name":"kaekh","country":"et","lat":13.082525,"lon":39.620705},{"id":898773,"name":"uogaade","country":"et","lat":13.062219,"lon":39.690771},{"id":886930,"name":"addi shakhu","country":"et","lat":13.414316,"lon":39.556774},{"id":891045,"name":"dibet","country":"et","lat":12.833333,"lon":39.5},{"id":886829,"name":"addi araha","country":"et","lat":13.252977,"lon":39.580009},{"id":893653,"name":"haramangwa","country":"et","lat":12.55,"lon":39.516667},{"id":890741,"name":"defarfo","country":"et","lat":13.260725,"lon":39.892386},{"id":889846,"name":"ch\u0027ek\u0027ol","country":"et","lat":12.7,"lon":39.5},{"id":889402,"name":"bosaley","country":"et","lat":12.75,"lon":39.8},{"id":899208,"name":"weteg","country":"et","lat":12.916667,"lon":39.583333},{"id":891732,"name":"endebo","country":"et","lat":12.65,"lon":39.7},{"id":898976,"name":"waren","country":"et","lat":12.916667,"lon":39.616667},{"id":897371,"name":"sciarca","country":"et","lat":12.583333,"lon":39.7},{"id":896349,"name":"meswa\u0027it","country":"et","lat":12.694167,"lon":39.543333},{"id":886888,"name":"addi khakeyti","country":"et","lat":13.297545,"lon":39.567982},{"id":896927,"name":"ogubari","country":"et","lat":12.583333,"lon":39.6},{"id":894698,"name":"kera","country":"et","lat":12.716667,"lon":39.65},{"id":895779,"name":"maitchew","country":"et","lat":12.7875,"lon":39.542222},{"id":892470,"name":"genti","country":"et","lat":13.050923,"lon":39.71234},{"id":895361,"name":"kwiha","country":"et","lat":13.479136,"lon":39.545503},{"id":890191,"name":"corbetta","country":"et","lat":12.804167,"lon":39.647222},{"id":890818,"name":"delate","country":"et","lat":12.65,"lon":39.8},{"id":896043,"name":"mecare","country":"et","lat":12.55,"lon":39.65},{"id":890757,"name":"degan","country":"et","lat":12.766667,"lon":39.7},{"id":893025,"name":"golesha","country":"et","lat":12.85,"lon":39.716667},{"id":889208,"name":"bivio alagi","country":"et","lat":13.283333,"lon":39.5},{"id":890457,"name":"damra","country":"et","lat":13.348443,"lon":39.569262},{"id":895996,"name":"may dema","country":"et","lat":13.035871,"lon":39.693719},{"id":887952,"name":"anseba","country":"et","lat":13.316667,"lon":39.766667},{"id":894073,"name":"ilkin","country":"et","lat":13.4,"lon":39.5},{"id":895292,"name":"kurbele","country":"et","lat":13.206958,"lon":39.619925},{"id":892490,"name":"gerarsa","country":"et","lat":12.85,"lon":39.766667},{"id":887092,"name":"adi farah","country":"et","lat":12.766667,"lon":39.633333},{"id":888015,"name":"arar imba","country":"et","lat":12.7,"lon":39.55},{"id":895217,"name":"kube jabile","country":"et","lat":12.65,"lon":39.633333},{"id":886924,"name":"addi scimti","country":"et","lat":12.616667,"lon":39.633333}]});