callback({"markets":[{"id":1546361,"name":"yoshida","country":"jp","lat":30.433333,"lon":130.466667},{"id":1536394,"name":"kurio","country":"jp","lat":30.266667,"lon":130.416667},{"id":1542076,"name":"shimmura","country":"jp","lat":30.45,"lon":130.183333},{"id":1533477,"name":"iwayadomari","country":"jp","lat":30.483333,"lon":130.166667},{"id":1538564,"name":"nakanoshima","country":"jp","lat":29.866667,"lon":129.866667},{"id":1546574,"name":"yutomari","country":"jp","lat":30.233333,"lon":130.483333},{"id":1535014,"name":"kawara","country":"jp","lat":30.333333,"lon":130.383333},{"id":1546511,"name":"yumukai","country":"jp","lat":30.45,"lon":130.25},{"id":1538295,"name":"nagata","country":"jp","lat":30.4,"lon":130.416667},{"id":1543834,"name":"takou","country":"jp","lat":29.841075,"lon":129.874417},{"id":1532117,"name":"hirotaki","country":"jp","lat":30.366667,"lon":130.316667},{"id":1538010,"name":"mukaehama","country":"jp","lat":30.45,"lon":130.2}]});