callback({"markets":[{"id":339393,"name":"parkhimovtse","country":"by","lat":53.25,"lon":24.05},{"id":333322,"name":"gleboviche","country":"by","lat":53.3833333,"lon":23.8333333},{"id":2277739,"name":"radulin","country":"pl","lat":53.159546,"lon":23.571174},{"id":343377,"name":"tupichany","country":"by","lat":53.4,"lon":24.3666667},{"id":2271449,"name":"nietupa","country":"pl","lat":53.166667,"lon":23.716667},{"id":2244388,"name":"babiki","country":"pl","lat":53.357925,"lon":23.698278},{"id":2271800,"name":"nowa wola","country":"pl","lat":53.001809,"lon":23.625998},{"id":332893,"name":"dulovtsy","country":"by","lat":53.3,"lon":24.2666667},{"id":2250019,"name":"czepiele","country":"pl","lat":53.450804,"lon":23.655714},{"id":340026,"name":"polonka","country":"by","lat":53.05,"lon":24.2},{"id":2272450,"name":"odnoga saki","country":"pl","lat":52.960555,"lon":23.679323},{"id":331484,"name":"bolshoye popelevo","country":"by","lat":52.7333333,"lon":24.1},{"id":2256552,"name":"hozna","country":"pl","lat":52.976701,"lon":23.510437},{"id":337019,"name":"mackowce","country":"by","lat":53.25,"lon":24.15},{"id":2284304,"name":"suchynicze","country":"pl","lat":53.360035,"lon":23.657724},{"id":343770,"name":"velikiye khidry","country":"by","lat":52.5333333,"lon":24.05},{"id":2247330,"name":"brukowszczyzna","country":"pl","lat":52.937151,"lon":23.585745},{"id":342550,"name":"stoki pervyye","country":"by","lat":53.0166667,"lon":23.9666667},{"id":341710,"name":"shustiki","country":"by","lat":53.0833333,"lon":24.2333333},{"id":343809,"name":"velkeeysymonty","country":"by","lat":53.3666667,"lon":24.0833333},{"id":2273948,"name":"parczowce","country":"pl","lat":53.458829,"lon":23.642162},{"id":343115,"name":"terespol","country":"by","lat":52.8666667,"lon":24.3},{"id":2278432,"name":"rochental","country":"pl","lat":53.036133,"lon":23.626285},{"id":2268035,"name":"malawicze dolne","country":"pl","lat":53.409566,"lon":23.626634},{"id":2264641,"name":"kundzicze","country":"pl","lat":53.211643,"lon":23.772682},{"id":2293219,"name":"zubrzyca wielka","country":"pl","lat":53.387654,"lon":23.713738},{"id":2265893,"name":"leonowicze","country":"pl","lat":52.97861,"lon":23.824088},{"id":340995,"name":"rudnia","country":"by","lat":52.8333333,"lon":24.05},{"id":2290346,"name":"wolkusz","country":"pl","lat":53.483534,"lon":23.580419},{"id":345180,"name":"zanki","country":"by","lat":53.0166667,"lon":24.1333333},{"id":2274642,"name":"pierozki","country":"pl","lat":53.29377,"lon":23.729515},{"id":2266572,"name":"lipowy most","country":"pl","lat":53.209934,"lon":23.528811},{"id":341345,"name":"semeonuvka","country":"by","lat":53.2833333,"lon":23.8166667},{"id":2272449,"name":"odnoga sacharki","country":"pl","lat":52.963415,"lon":23.700348},{"id":2244354,"name":"babia gora","country":"pl","lat":52.88886,"lon":23.887754},{"id":336472,"name":"lezhayka","country":"by","lat":52.65,"lon":24.3833333},{"id":333432,"name":"golobudy","country":"by","lat":53.0,"lon":24.2166667},{"id":332242,"name":"chubichi","country":"by","lat":52.55,"lon":24.3833333},{"id":2291654,"name":"zaleczany","country":"pl","lat":52.95893,"lon":23.928409},{"id":2271963,"name":"nowinnik","country":"pl","lat":52.85,"lon":23.533333},{"id":2268612,"name":"masiewo","country":"pl","lat":52.816667,"lon":23.916667},{"id":342512,"name":"stazhyntse","country":"by","lat":53.2333333,"lon":24.0333333},{"id":2279102,"name":"rudaki","country":"pl","lat":53.17516,"lon":23.88754},{"id":2251834,"name":"dubiny","country":"pl","lat":52.76737,"lon":23.587741},{"id":336831,"name":"lunno","country":"by","lat":53.4497222,"lon":24.2783333},{"id":2251578,"name":"drahle","country":"pl","lat":53.385142,"lon":23.556819},{"id":334934,"name":"kletno","country":"by","lat":52.7,"lon":24.2166667},{"id":2245351,"name":"bialogorce","country":"pl","lat":53.21526,"lon":23.81315},{"id":2272474,"name":"odrynki","country":"pl","lat":52.939549,"lon":23.605527},{"id":2291179,"name":"zablotczyna","country":"pl","lat":52.840554,"lon":23.742162},{"id":344130,"name":"volpa","country":"by","lat":53.3666667,"lon":24.3666667},{"id":2251833,"name":"dubinska ferma","country":"pl","lat":52.794976,"lon":23.595177},{"id":340772,"name":"replya","country":"by","lat":53.3,"lon":24.1833333},{"id":340658,"name":"rakovichi","country":"by","lat":53.3833333,"lon":24.0333333},{"id":336485,"name":"lichosielce","country":"by","lat":52.6666667,"lon":24.3166667},{"id":343415,"name":"tushemlya","country":"by","lat":52.8333333,"lon":23.9666667},{"id":2249462,"name":"ciesowka","country":"pl","lat":52.944674,"lon":23.869079},{"id":2281042,"name":"siemionowka","country":"pl","lat":52.899297,"lon":23.839865},{"id":2273045,"name":"orlowicze","country":"pl","lat":53.424289,"lon":23.579113},{"id":339815,"name":"podbozhany","country":"by","lat":53.4666667,"lon":24.2333333},{"id":2272447,"name":"odnoga kuzmy","country":"pl","lat":52.957824,"lon":23.685644},{"id":2272116,"name":"nowy kornin","country":"pl","lat":52.78886,"lon":23.523802},{"id":2291342,"name":"zadworzany","country":"pl","lat":53.451092,"lon":23.564858},{"id":2246105,"name":"bobrowniki","country":"pl","lat":53.124289,"lon":23.887955},{"id":2288352,"name":"wiejki","country":"pl","lat":53.037084,"lon":23.786602},{"id":2246351,"name":"bohoniki","country":"pl","lat":53.391774,"lon":23.592564},{"id":345418,"name":"zbory","country":"by","lat":53.2333333,"lon":24.1},{"id":2270748,"name":"narew","country":"pl","lat":52.912145,"lon":23.521892},{"id":331562,"name":"borki","country":"by","lat":52.7833333,"lon":24.15},{"id":2260622,"name":"kobylanka","country":"pl","lat":53.022481,"lon":23.63072},{"id":2281718,"name":"skupowo stare","country":"pl","lat":52.830318,"lon":23.697387},{"id":341294,"name":"sedzeneviche","country":"by","lat":53.4,"lon":24.1166667},{"id":333140,"name":"galeny","country":"by","lat":52.7,"lon":24.1833333},{"id":2282008,"name":"sluczanka","country":"pl","lat":53.127319,"lon":23.638056},{"id":2259047,"name":"kapitanszczyzna","country":"pl","lat":52.884438,"lon":23.668074},{"id":331603,"name":"boroviki","country":"by","lat":52.9,"lon":24.4},{"id":332881,"name":"dukhovlyany","country":"by","lat":53.3166667,"lon":24.1666667},{"id":344687,"name":"yatvesk","country":"by","lat":52.9833333,"lon":24.05},{"id":331296,"name":"bojkiewicze","country":"by","lat":52.9,"lon":24.3},{"id":343886,"name":"vereyki","country":"by","lat":53.25,"lon":24.2},{"id":341732,"name":"sidorki","country":"by","lat":53.0666667,"lon":24.4166667},{"id":2260565,"name":"knyszewicze","country":"pl","lat":53.334338,"lon":23.667571},{"id":2275010,"name":"planta","country":"pl","lat":52.868074,"lon":23.73764},{"id":340764,"name":"remutsevtsy","country":"by","lat":53.3833333,"lon":24.0666667},{"id":2274618,"name":"pienki","country":"pl","lat":53.052814,"lon":23.623902},{"id":2257197,"name":"jalowka","country":"pl","lat":53.00481,"lon":23.90623},{"id":337064,"name":"makovishche","country":"by","lat":52.5166667,"lon":23.7833333},{"id":2249254,"name":"chytra","country":"pl","lat":52.730017,"lon":23.518074},{"id":2245755,"name":"bilwinki","country":"pl","lat":53.347876,"lon":23.500891},{"id":2275013,"name":"planty","country":"pl","lat":52.964456,"lon":23.66104},{"id":345507,"name":"zharnuvka zhondova","country":"by","lat":53.4166667,"lon":23.8333333},{"id":337928,"name":"montovty","country":"by","lat":53.0833333,"lon":24.2666667},{"id":338281,"name":"neporozhnevtsy","country":"by","lat":53.2166667,"lon":23.8833333},{"id":341564,"name":"sheni","country":"by","lat":52.5333333,"lon":24.4},{"id":338649,"name":"novy dvur","country":"by","lat":52.8333333,"lon":24.35},{"id":343319,"name":"tsikhovolya","country":"by","lat":52.85,"lon":24.0},{"id":2278603,"name":"rohozy","country":"pl","lat":52.943853,"lon":23.526508},{"id":2261540,"name":"kolonia mostowlany","country":"pl","lat":53.047689,"lon":23.851608},{"id":2266132,"name":"lewkowo stare","country":"pl","lat":52.881926,"lon":23.699598},{"id":2287877,"name":"wasilkowo","country":"pl","lat":52.821289,"lon":23.578007},{"id":335957,"name":"krynica","country":"by","lat":52.6166667,"lon":24.1},{"id":2261526,"name":"kolonia mieleszki","country":"pl","lat":53.043468,"lon":23.690755},{"id":2285742,"name":"talkowszczyzna","country":"pl","lat":53.262849,"lon":23.589951},{"id":2293215,"name":"zubry","country":"pl","lat":53.067471,"lon":23.817959},{"id":342722,"name":"sukhadolina","country":"by","lat":53.4666667,"lon":24.0166667},{"id":2246803,"name":"borysowka","country":"pl","lat":52.835845,"lon":23.604508},{"id":332809,"name":"dubovtse","country":"by","lat":53.3666667,"lon":24.4166667},{"id":2255857,"name":"grzybowce","country":"pl","lat":53.124304,"lon":23.710839},{"id":2258654,"name":"kalinowo czosnowo","country":"pl","lat":52.966667,"lon":23.55},{"id":343859,"name":"verdomichi","country":"by","lat":53.0333333,"lon":24.2833333},{"id":345037,"name":"zaguzhany","country":"by","lat":53.4333333,"lon":24.25},{"id":2289286,"name":"witowo","country":"pl","lat":52.643971,"lon":23.504421},{"id":336030,"name":"kudryche","country":"by","lat":53.3166667,"lon":23.8166667},{"id":2270744,"name":"narejki","country":"pl","lat":53.10069,"lon":23.856518},{"id":337543,"name":"menki","country":"by","lat":53.15,"lon":24.05},{"id":2247853,"name":"budy","country":"pl","lat":52.731859,"lon":23.730787},{"id":2288673,"name":"wierzchlesie","country":"pl","lat":53.309834,"lon":23.528094},{"id":2285671,"name":"szyszki","country":"pl","lat":53.401293,"lon":23.54667},{"id":2262996,"name":"kotowa","country":"pl","lat":52.869365,"lon":23.540353},{"id":344738,"name":"yelova","country":"by","lat":52.6166667,"lon":24.2666667},{"id":2255685,"name":"grudki","country":"pl","lat":53.094875,"lon":23.668476},{"id":2266968,"name":"lozice","country":"pl","lat":52.667421,"lon":23.575118},{"id":2258927,"name":"kamionka nowa","country":"pl","lat":53.388545,"lon":23.528811},{"id":342552,"name":"stoki vtoryye","country":"by","lat":53.0166667,"lon":23.9833333},{"id":342846,"name":"svinevo","country":"by","lat":52.5333333,"lon":23.6},{"id":2279209,"name":"rudnia","country":"pl","lat":52.95,"lon":23.766667},{"id":340869,"name":"roshkuvka","country":"by","lat":52.5333333,"lon":23.7},{"id":339779,"name":"plyuskalovtse","country":"by","lat":53.1833333,"lon":23.9666667},{"id":336489,"name":"lidzyany","country":"by","lat":52.9,"lon":24.4666667},{"id":339802,"name":"podbelskiye ogorodniki","country":"by","lat":52.5333333,"lon":23.9},{"id":342703,"name":"suchopol","country":"by","lat":52.65,"lon":24.1666667},{"id":2292040,"name":"zaspicze","country":"pl","lat":53.414054,"lon":23.670169},{"id":332797,"name":"dubova stara","country":"by","lat":53.4666667,"lon":23.7833333},{"id":340126,"name":"poroslyany","country":"by","lat":52.6166667,"lon":24.4166667},{"id":2274035,"name":"pasieczniki duze","country":"pl","lat":52.701005,"lon":23.514314},{"id":345505,"name":"zharnuvka male","country":"by","lat":53.4333333,"lon":23.8333333},{"id":342731,"name":"sukhinichi","country":"by","lat":53.4833333,"lon":24.4333333},{"id":338099,"name":"murawa","country":"by","lat":52.6333333,"lon":24.2166667},{"id":344556,"name":"yakoviche","country":"by","lat":52.5833333,"lon":24.4166667},{"id":332844,"name":"dubrovlyany","country":"by","lat":53.4833333,"lon":24.15},{"id":2246459,"name":"boltryki","country":"pl","lat":52.95,"lon":23.8},{"id":2263119,"name":"kowela","country":"pl","lat":52.840066,"lon":23.54166},{"id":2289531,"name":"wojnachy","country":"pl","lat":53.386046,"lon":23.512447},{"id":338694,"name":"novyye grinki","country":"by","lat":52.95,"lon":24.1333333},{"id":2293218,"name":"zubrzyca mala","country":"pl","lat":53.376801,"lon":23.730003},{"id":2245385,"name":"bialowieza","country":"pl","lat":52.702023,"lon":23.861082},{"id":2281910,"name":"slojka borowszczyzna","country":"pl","lat":53.275495,"lon":23.595277},{"id":342421,"name":"staryy dvozhets","country":"by","lat":53.25,"lon":24.1166667},{"id":331910,"name":"byala","country":"by","lat":52.5833333,"lon":23.7166667},{"id":2249589,"name":"ciumicze","country":"pl","lat":53.200489,"lon":23.762145},{"id":344699,"name":"yazkevichi","country":"by","lat":53.4833333,"lon":23.85},{"id":342362,"name":"starovolya","country":"by","lat":52.5666667,"lon":24.3333333},{"id":336103,"name":"kupiche","country":"by","lat":52.5833333,"lon":24.1833333},{"id":2263006,"name":"kotowka","country":"pl","lat":52.808126,"lon":23.564858},{"id":342624,"name":"struga","country":"by","lat":53.4,"lon":24.25},{"id":342964,"name":"szereszow","country":"by","lat":52.55,"lon":24.2166667},{"id":2266131,"name":"lewkowo nowe","country":"pl","lat":52.879515,"lon":23.716968},{"id":330895,"name":"begene velke","country":"by","lat":53.1833333,"lon":24.2},{"id":2285184,"name":"szczesnowicze","country":"pl","lat":53.347186,"lon":23.677994},{"id":2253680,"name":"gliniszcze male","country":"pl","lat":53.483835,"lon":23.504823},{"id":2272446,"name":"odnoga denisowo","country":"pl","lat":52.966667,"lon":23.683333},{"id":343816,"name":"velke selo","country":"by","lat":52.6333333,"lon":24.3166667},{"id":333742,"name":"gritseviche","country":"by","lat":53.0833333,"lon":24.0},{"id":339722,"name":"plebanovtse","country":"by","lat":53.3333333,"lon":24.4},{"id":340332,"name":"prokopoviche","country":"by","lat":53.45,"lon":23.9166667},{"id":2262261,"name":"kondratki","country":"pl","lat":53.018662,"lon":23.91114},{"id":2274036,"name":"pasieczniki male","country":"pl","lat":52.6266,"lon":23.503015},{"id":337823,"name":"mochulina","country":"by","lat":53.2333333,"lon":24.4666667},{"id":2277304,"name":"pucilki","country":"pl","lat":53.421476,"lon":23.609733},{"id":2256508,"name":"horczaki gorne","country":"pl","lat":53.380921,"lon":23.653403},{"id":338592,"name":"novoselki velke","country":"by","lat":53.2666667,"lon":24.45},{"id":344689,"name":"yatvez","country":"by","lat":53.1,"lon":24.15},{"id":336038,"name":"kukhary","country":"by","lat":53.45,"lon":24.1333333},{"id":2256113,"name":"hajdakowszczyzna","country":"pl","lat":52.909948,"lon":23.57449},{"id":2281894,"name":"slobodka","country":"pl","lat":52.942665,"lon":23.720385},{"id":340631,"name":"radzeviche","country":"by","lat":53.4,"lon":24.1333333},{"id":2260331,"name":"klimowka","country":"pl","lat":53.438143,"lon":23.688545},{"id":2271955,"name":"nowinka","country":"pl","lat":53.297588,"lon":23.618964},{"id":337310,"name":"malyye mikhalki","country":"by","lat":52.95,"lon":24.1833333},{"id":332040,"name":"chepeli","country":"by","lat":52.6166667,"lon":24.1833333},{"id":2267951,"name":"makowka","country":"pl","lat":52.896483,"lon":23.53975},{"id":2267500,"name":"luplanka","country":"pl","lat":53.0,"lon":23.85},{"id":2289538,"name":"wojnowce","country":"pl","lat":53.392263,"lon":23.7029},{"id":2248876,"name":"chomentowce","country":"pl","lat":53.148895,"lon":23.905212},{"id":332339,"name":"danilovtse","country":"by","lat":53.3333333,"lon":24.4333333},{"id":338862,"name":"ogryzki","country":"by","lat":53.4,"lon":24.2833333},{"id":335628,"name":"kozly","country":"by","lat":52.65,"lon":24.45},{"id":338507,"name":"nove selo","country":"by","lat":53.2666667,"lon":24.35},{"id":2272057,"name":"nowy berezow","country":"pl","lat":52.759298,"lon":23.507905},{"id":345025,"name":"zagory","country":"by","lat":53.2166667,"lon":24.4333333},{"id":2285755,"name":"tanica dolna","country":"pl","lat":52.954622,"lon":23.714858},{"id":340132,"name":"porozow","country":"by","lat":52.9333333,"lon":24.3666667},{"id":331511,"name":"bolshoy mosushin","country":"by","lat":52.85,"lon":24.3833333},{"id":2274686,"name":"pieszczaniki","country":"pl","lat":53.138558,"lon":23.557523},{"id":2277418,"name":"putyska","country":"pl","lat":52.764657,"lon":23.552412},{"id":331396,"name":"bolshiye iodkovichi","country":"by","lat":53.4166667,"lon":24.0},{"id":336430,"name":"leski","country":"by","lat":52.9333333,"lon":24.45},{"id":2276031,"name":"poniatowicze","country":"pl","lat":53.43263,"lon":23.634224},{"id":2256121,"name":"hajnowka","country":"pl","lat":52.743281,"lon":23.581223},{"id":2273480,"name":"ostrow nowy","country":"pl","lat":53.241861,"lon":23.659934},{"id":2281622,"name":"skroblaki","country":"pl","lat":53.125897,"lon":23.794286},{"id":2286522,"name":"trywieza","country":"pl","lat":52.812447,"lon":23.53886},{"id":2273694,"name":"ozierany wielki","country":"pl","lat":53.206116,"lon":23.856016},{"id":342537,"name":"stetski","country":"by","lat":53.4833333,"lon":24.05},{"id":337087,"name":"malaja berestovica","country":"by","lat":53.2833333,"lon":23.9333333},{"id":344518,"name":"yablonovo","country":"by","lat":53.45,"lon":24.3333333},{"id":344632,"name":"yanyshi","country":"by","lat":53.1333333,"lon":24.35},{"id":336389,"name":"leonoviche","country":"by","lat":53.2666667,"lon":24.1166667},{"id":2264760,"name":"kurowszczyzna","country":"pl","lat":53.377304,"lon":23.51447},{"id":330724,"name":"bachentse","country":"by","lat":53.1166667,"lon":24.4666667},{"id":2254316,"name":"gorany","country":"pl","lat":53.215361,"lon":23.679615},{"id":2290767,"name":"wygoda","country":"pl","lat":52.751608,"lon":23.542765},{"id":332396,"name":"dedovlyanskiye ogorodniki","country":"by","lat":52.5,"lon":24.0166667},{"id":2262985,"name":"kotlowka","country":"pl","lat":52.854622,"lon":23.52238},{"id":337661,"name":"mikhayly","country":"by","lat":53.0,"lon":24.4333333},{"id":2287642,"name":"walily","country":"pl","lat":53.14166,"lon":23.591171},{"id":2256507,"name":"horczaki dolne","country":"pl","lat":53.371591,"lon":23.633118},{"id":2250040,"name":"czerlonka","country":"pl","lat":52.690219,"lon":23.721356},{"id":343114,"name":"tereshki","country":"by","lat":53.2666667,"lon":24.2166667},{"id":343803,"name":"velka selo","country":"by","lat":53.05,"lon":24.3333333},{"id":2285509,"name":"szudzialowo","country":"pl","lat":53.3,"lon":23.666667},{"id":2286456,"name":"trosciano","country":"pl","lat":53.266667,"lon":23.6},{"id":341708,"name":"shuriche","country":"by","lat":52.9333333,"lon":24.2666667},{"id":2245765,"name":"bindziuha","country":"pl","lat":52.933132,"lon":23.643971},{"id":2265292,"name":"lapicze","country":"pl","lat":53.231826,"lon":23.816667},{"id":338832,"name":"odelsk","country":"by","lat":53.4,"lon":23.7666667},{"id":333817,"name":"grytski","country":"by","lat":53.0166667,"lon":24.1},{"id":333950,"name":"holynka","country":"by","lat":53.1833333,"lon":23.9166667},{"id":2264003,"name":"kruszyniany","country":"pl","lat":53.178711,"lon":23.813652},{"id":2292046,"name":"zastawa","country":"pl","lat":52.6999,"lon":23.840869},{"id":2265591,"name":"laznisk","country":"pl","lat":53.295579,"lon":23.504019},{"id":332333,"name":"danilki","country":"by","lat":53.2666667,"lon":24.05},{"id":2266008,"name":"leszczana","country":"pl","lat":53.2,"lon":23.733333},{"id":335867,"name":"kropivnitsa","country":"by","lat":52.95,"lon":24.2833333},{"id":2246470,"name":"bondary","country":"pl","lat":52.944373,"lon":23.74588},{"id":333398,"name":"gnezno","country":"by","lat":53.1166667,"lon":24.35},{"id":2274442,"name":"piaski","country":"pl","lat":52.646583,"lon":23.53764},{"id":2273502,"name":"ostrow poludniowy","country":"pl","lat":53.250904,"lon":23.684525},{"id":2272665,"name":"olchowka","country":"pl","lat":52.85412,"lon":23.829213},{"id":2267502,"name":"luplanka stara","country":"pl","lat":52.990166,"lon":23.842464},{"id":2275501,"name":"podlewkowie","country":"pl","lat":52.872998,"lon":23.707322},{"id":2264051,"name":"krynki bialostockie","country":"pl","lat":53.083333,"lon":23.8},{"id":2244448,"name":"bachury","country":"pl","lat":52.969682,"lon":23.785544},{"id":2256491,"name":"honczary","country":"pl","lat":53.033333,"lon":23.9},{"id":2269534,"name":"minkowce","country":"pl","lat":53.368576,"lon":23.743382},{"id":335359,"name":"korolev ostruv","country":"by","lat":52.7666667,"lon":24.3},{"id":338316,"name":"nezbodichi","country":"by","lat":52.9666667,"lon":23.9666667},{"id":2291753,"name":"zaluki","country":"pl","lat":53.159432,"lon":23.544071},{"id":340403,"name":"pruzana","country":"by","lat":52.5566667,"lon":24.4644444},{"id":2273443,"name":"ostrowek","country":"pl","lat":53.284639,"lon":23.700603},{"id":2270238,"name":"mostowlany","country":"pl","lat":53.067758,"lon":23.87861},{"id":2268037,"name":"malawicze","country":"pl","lat":53.416667,"lon":23.633333},{"id":338072,"name":"mscibow","country":"by","lat":53.1166667,"lon":24.25},{"id":2269328,"name":"miklaszewo","country":"pl","lat":52.843167,"lon":23.788344},{"id":338137,"name":"mylniski","country":"by","lat":52.5833333,"lon":24.1},{"id":2283793,"name":"straszewo","country":"pl","lat":53.086334,"lon":23.729515},{"id":342936,"name":"syroyezhki","country":"by","lat":53.1333333,"lon":24.1},{"id":2245543,"name":"bielewicze","country":"pl","lat":53.07238,"lon":23.711053},{"id":2279483,"name":"rybaki","country":"pl","lat":52.92561,"lon":23.603617},{"id":339457,"name":"pavlyushki","country":"by","lat":53.1333333,"lon":24.0333333},{"id":334052,"name":"indura","country":"by","lat":53.45,"lon":23.8833333},{"id":2286012,"name":"teremicki","country":"pl","lat":52.732127,"lon":23.763451},{"id":339479,"name":"pekary","country":"by","lat":53.1833333,"lon":24.4333333},{"id":343815,"name":"velke rozhki","country":"by","lat":53.0666667,"lon":24.05},{"id":2287394,"name":"usnarz","country":"pl","lat":53.336817,"lon":23.759566},{"id":332878,"name":"dudziche","country":"by","lat":53.0666667,"lon":24.1},{"id":340898,"name":"rovbitsk","country":"by","lat":52.6666667,"lon":24.0833333},{"id":2253681,"name":"gliniszcze wielkie","country":"pl","lat":53.465447,"lon":23.512849},{"id":333993,"name":"hrynki wielkie","country":"by","lat":52.95,"lon":24.1166667},{"id":2250297,"name":"czyzyki","country":"pl","lat":52.777605,"lon":23.538056},{"id":2270747,"name":"narewka","country":"pl","lat":52.835845,"lon":23.758843},{"id":339345,"name":"panasyuki","country":"by","lat":52.5666667,"lon":23.6166667},{"id":332531,"name":"dobrovolya","country":"by","lat":52.9,"lon":24.0333333},{"id":2275000,"name":"placowka","country":"pl","lat":52.750301,"lon":23.585443},{"id":2266895,"name":"losiniany","country":"pl","lat":53.18419,"lon":23.859968},{"id":2254441,"name":"gorna","country":"pl","lat":52.732328,"lon":23.562145},{"id":344647,"name":"yasen","country":"by","lat":52.55,"lon":24.05},{"id":2283244,"name":"starowlany","country":"pl","lat":53.48764,"lon":23.545378},{"id":343966,"name":"vidzeyki","country":"by","lat":53.0833333,"lon":24.1333333},{"id":2286259,"name":"topolany","country":"pl","lat":53.020184,"lon":23.512748},{"id":2269187,"name":"mieleszki","country":"pl","lat":53.060906,"lon":23.694105},{"id":2270189,"name":"mosciska","country":"pl","lat":53.022782,"lon":23.55481},{"id":345736,"name":"zubovshchizna","country":"by","lat":53.2333333,"lon":24.2166667},{"id":2245750,"name":"bilminy","country":"pl","lat":53.43342,"lon":23.66938},{"id":2276990,"name":"przybudek","country":"pl","lat":52.859131,"lon":23.586247},{"id":2282414,"name":"sofipol","country":"pl","lat":53.142062,"lon":23.516366},{"id":338606,"name":"novosyulki","country":"by","lat":52.85,"lon":24.2833333},{"id":338808,"name":"obrab","country":"by","lat":52.55,"lon":24.2833333},{"id":2269024,"name":"michnowka","country":"pl","lat":52.912949,"lon":23.709345},{"id":2292854,"name":"zielonka","country":"pl","lat":53.073911,"lon":23.855575},{"id":2284530,"name":"suszcza","country":"pl","lat":52.93469,"lon":23.669908},{"id":336445,"name":"lesnyaki","country":"by","lat":53.1166667,"lon":24.2},{"id":342863,"name":"svislach","country":"by","lat":53.0361111,"lon":24.0919444},{"id":2284647,"name":"swidzialowka nowa","country":"pl","lat":53.223083,"lon":23.663135},{"id":2256865,"name":"iwanki","country":"pl","lat":52.944976,"lon":23.527319},{"id":2273693,"name":"ozierany male","country":"pl","lat":53.216667,"lon":23.866667},{"id":2258283,"name":"jozefowo","country":"pl","lat":53.152699,"lon":23.717657},{"id":2282434,"name":"sokola","country":"pl","lat":53.407154,"lon":23.502278},{"id":336497,"name":"likhoseltsy","country":"by","lat":52.9833333,"lon":24.0333333},{"id":334815,"name":"khvalovo vtoroye","country":"by","lat":52.6333333,"lon":24.1333333},{"id":342696,"name":"subochi","country":"by","lat":53.1666667,"lon":24.35},{"id":334302,"name":"kameniki","country":"by","lat":52.55,"lon":23.8},{"id":2283362,"name":"starzyna","country":"pl","lat":52.587841,"lon":23.534338},{"id":344089,"name":"volkovysk","country":"by","lat":53.1519444,"lon":24.4555556},{"id":2275640,"name":"podzaluki","country":"pl","lat":53.161844,"lon":23.549484},{"id":2293204,"name":"zubki","country":"pl","lat":53.087439,"lon":23.816366},{"id":2271949,"name":"nowiki","country":"pl","lat":53.433333,"lon":23.7},{"id":343234,"name":"tretyaki","country":"by","lat":53.3166667,"lon":24.0666667},{"id":332972,"name":"dykhnovichi","country":"by","lat":53.2166667,"lon":24.3166667},{"id":2273695,"name":"ozierskie","country":"pl","lat":53.241258,"lon":23.716466},{"id":2281909,"name":"sloja","country":"pl","lat":53.323686,"lon":23.649498},{"id":341972,"name":"slonimtsy","country":"by","lat":52.5333333,"lon":24.4833333},{"id":2283006,"name":"stara kamionka","country":"pl","lat":53.363652,"lon":23.557523},{"id":335504,"name":"kotra","country":"by","lat":52.7,"lon":24.3166667},{"id":341286,"name":"sedejki","country":"by","lat":53.3,"lon":24.1666667},{"id":2289041,"name":"wiluki","country":"pl","lat":52.610236,"lon":23.515562},{"id":336035,"name":"kukelki","country":"by","lat":53.15,"lon":24.1333333},{"id":2285609,"name":"szymaki","country":"pl","lat":53.440554,"lon":23.692564},{"id":2264351,"name":"krzyze","country":"pl","lat":52.695478,"lon":23.837955},{"id":2282671,"name":"sosnowik","country":"pl","lat":53.231725,"lon":23.614944},{"id":343723,"name":"vekhotnitsa","country":"by","lat":53.2333333,"lon":24.3333333},{"id":2272027,"name":"nowosady","country":"pl","lat":52.798392,"lon":23.61305},{"id":2261471,"name":"kolonia lososna","country":"pl","lat":53.483333,"lon":23.633333},{"id":2251392,"name":"dolna","country":"pl","lat":52.75,"lon":23.566667},{"id":2252470,"name":"eliaszuki","country":"pl","lat":52.914155,"lon":23.692464},{"id":331908,"name":"buzuny","country":"by","lat":52.6166667,"lon":24.45},{"id":342740,"name":"sukhovshchizna","country":"by","lat":52.5666667,"lon":24.15},{"id":2252230,"name":"dzierniakowo","country":"pl","lat":53.092564,"lon":23.602298},{"id":337042,"name":"makarowce","country":"by","lat":53.3333333,"lon":23.8333333},{"id":334887,"name":"kivachyna","country":"by","lat":52.6333333,"lon":24.0833333},{"id":2275542,"name":"podolany","country":"pl","lat":52.693822,"lon":23.86214},{"id":2285756,"name":"tanica gorna","country":"pl","lat":52.954522,"lon":23.733936},{"id":339625,"name":"petrashovtse","country":"by","lat":53.3333333,"lon":24.1833333},{"id":2272400,"name":"ochrymy","country":"pl","lat":52.874605,"lon":23.690568},{"id":2256627,"name":"huszczewina","country":"pl","lat":52.834137,"lon":23.795847},{"id":343003,"name":"talkovtse","country":"by","lat":53.15,"lon":24.2},{"id":339013,"name":"orany","country":"by","lat":53.15,"lon":24.3},{"id":2265948,"name":"lesna","country":"pl","lat":52.856518,"lon":23.810451},{"id":2258423,"name":"juszkowy grod","country":"pl","lat":52.976098,"lon":23.716064},{"id":342066,"name":"sokolniki","country":"by","lat":52.9666667,"lon":24.25},{"id":2251010,"name":"dlugi brod","country":"pl","lat":52.624088,"lon":23.534237},{"id":2272000,"name":"nowodziel","country":"pl","lat":53.483333,"lon":23.683333},{"id":344013,"name":"vishnevka","country":"by","lat":53.3666667,"lon":23.7833333},{"id":337643,"name":"mikhalki","country":"by","lat":52.95,"lon":24.2},{"id":2289546,"name":"wojnowka","country":"pl","lat":52.591459,"lon":23.502599},{"id":2287718,"name":"waniewo","country":"pl","lat":52.942991,"lon":23.553994},{"id":2267501,"name":"luplanka nowa","country":"pl","lat":52.998191,"lon":23.840468},{"id":333604,"name":"gorodnyany","country":"by","lat":52.5,"lon":24.4833333},{"id":339506,"name":"peredelsk","country":"by","lat":52.6,"lon":24.3166667},{"id":2268614,"name":"masiewo nowe","country":"pl","lat":52.834271,"lon":23.896679},{"id":2266130,"name":"lewkowo","country":"pl","lat":52.883333,"lon":23.7},{"id":2268615,"name":"masiewo pierwsze","country":"pl","lat":52.816667,"lon":23.9},{"id":342664,"name":"studeniki","country":"by","lat":52.9,"lon":24.2833333},{"id":2283628,"name":"stoczek","country":"pl","lat":52.701306,"lon":23.875912},{"id":2291990,"name":"zarzeczany","country":"pl","lat":53.102613,"lon":23.678409},{"id":335510,"name":"kovale","country":"by","lat":53.2833333,"lon":23.9},{"id":337561,"name":"meshtuny","country":"by","lat":53.3166667,"lon":24.1333333},{"id":2284951,"name":"szacily","country":"pl","lat":53.168576,"lon":23.729716},{"id":337433,"name":"massalyany","country":"by","lat":53.35,"lon":24.0333333},{"id":342403,"name":"staryna","country":"by","lat":53.35,"lon":24.4833333},{"id":2275680,"name":"pogorzelce","country":"pl","lat":52.724304,"lon":23.807623},{"id":2274053,"name":"pasieki","country":"pl","lat":52.887252,"lon":23.849699},{"id":335095,"name":"kollantaye","country":"by","lat":53.2,"lon":24.4},{"id":342712,"name":"sugaki","country":"by","lat":53.35,"lon":24.2166667},{"id":340589,"name":"radetsk","country":"by","lat":52.7,"lon":24.2666667},{"id":2251835,"name":"dublany","country":"pl","lat":53.048493,"lon":23.890253},{"id":334748,"name":"khrustuv","country":"by","lat":52.9666667,"lon":24.3333333},{"id":2284342,"name":"sukowicze","country":"pl","lat":53.309131,"lon":23.695981},{"id":338007,"name":"moshny","country":"by","lat":53.1833333,"lon":24.15},{"id":336291,"name":"lasha","country":"by","lat":53.4666667,"lon":23.9666667},{"id":345628,"name":"zhukevichi","country":"by","lat":53.4166667,"lon":23.9833333},{"id":2284477,"name":"supruny","country":"pl","lat":52.940468,"lon":23.628108},{"id":334814,"name":"khvalovo pervoye","country":"by","lat":52.65,"lon":24.1333333},{"id":334293,"name":"kamenchany","country":"by","lat":53.45,"lon":24.2166667},{"id":336589,"name":"litvinki","country":"by","lat":53.4666667,"lon":24.0333333},{"id":2272577,"name":"okolica nietupa","country":"pl","lat":53.174088,"lon":23.73062},{"id":343918,"name":"verobeyki","country":"by","lat":53.0,"lon":24.2666667},{"id":336483,"name":"lichitse","country":"by","lat":53.2,"lon":24.4333333},{"id":2275069,"name":"plebanowo","country":"pl","lat":53.226098,"lon":23.771476},{"id":2269011,"name":"michalowo","country":"pl","lat":53.035242,"lon":23.610551},{"id":335446,"name":"kosin","country":"by","lat":53.1666667,"lon":24.3333333},{"id":335728,"name":"krasnoye","country":"by","lat":52.6833333,"lon":24.3666667},{"id":2263282,"name":"kozlowy lug","country":"pl","lat":53.288243,"lon":23.595981},{"id":2287884,"name":"waski","country":"pl","lat":52.890253,"lon":23.579113},{"id":333563,"name":"gornostayevichi","country":"by","lat":52.9833333,"lon":24.4},{"id":2261733,"name":"kolonia rowek","country":"pl","lat":53.3,"lon":23.566667},{"id":340887,"name":"ross","country":"by","lat":53.2833333,"lon":24.4},{"id":344353,"name":"vysoka","country":"by","lat":53.2666667,"lon":24.4333333},{"id":335117,"name":"koloniya bzhostovichany","country":"by","lat":53.1833333,"lon":24.0666667},{"id":341598,"name":"shidloviche","country":"by","lat":53.1666667,"lon":24.2333333},{"id":336441,"name":"lesniki","country":"by","lat":53.1166667,"lon":24.4333333},{"id":2288131,"name":"werobie","country":"pl","lat":53.1029,"lon":23.806431},{"id":2249515,"name":"cimochy","country":"pl","lat":52.9234,"lon":23.580519},{"id":336226,"name":"kvatery","country":"by","lat":53.1333333,"lon":24.0833333},{"id":339800,"name":"pochuyki","country":"by","lat":53.35,"lon":24.15},{"id":2264295,"name":"krzywiec","country":"pl","lat":52.86826,"lon":23.578208},{"id":2267588,"name":"luzany","country":"pl","lat":53.145378,"lon":23.838746},{"id":2256183,"name":"harkawicze","country":"pl","lat":53.321074,"lon":23.7266},{"id":2276110,"name":"poplawce","country":"pl","lat":53.456116,"lon":23.575797},{"id":341346,"name":"semerenki","country":"by","lat":53.4333333,"lon":24.1},{"id":333430,"name":"golne","country":"by","lat":53.3,"lon":24.0166667},{"id":334246,"name":"kalenkovichi","country":"by","lat":52.5,"lon":23.5833333},{"id":338922,"name":"olekshitsy","country":"by","lat":53.3333333,"lon":23.95},{"id":332999,"name":"dzentseloviche","country":"by","lat":53.3166667,"lon":24.3166667},{"id":340299,"name":"prikoles","country":"by","lat":52.6833333,"lon":24.1166667},{"id":2249591,"name":"ciwoniuki","country":"pl","lat":52.989148,"lon":23.717605},{"id":334720,"name":"khotskovtse","country":"by","lat":53.0666667,"lon":24.3666667},{"id":2248984,"name":"chrabostowka","country":"pl","lat":52.88342,"lon":23.549699},{"id":342068,"name":"sokolniki vtoryye","country":"by","lat":52.9666667,"lon":24.2333333},{"id":337320,"name":"malyye rozhki","country":"by","lat":53.0666667,"lon":24.0666667},{"id":330580,"name":"andriyanka","country":"by","lat":52.6666667,"lon":24.1333333},{"id":333995,"name":"hudziewicze","country":"by","lat":53.3666667,"lon":24.1666667},{"id":2266902,"name":"losinka","country":"pl","lat":52.847789,"lon":23.555614},{"id":2267414,"name":"luka","country":"pl","lat":52.933835,"lon":23.769983},{"id":331872,"name":"burnevo","country":"by","lat":53.3333333,"lon":24.15},{"id":338946,"name":"olkhovo","country":"by","lat":53.2833333,"lon":24.2833333},{"id":2253937,"name":"gobiaty","country":"pl","lat":53.104408,"lon":23.882831},{"id":2255874,"name":"grzybowszczyzna","country":"pl","lat":53.209633,"lon":23.702097},{"id":2245150,"name":"bernadzki most","country":"pl","lat":52.853316,"lon":23.683634},{"id":339961,"name":"pogranichnyy","country":"by","lat":53.1333333,"lon":23.9666667},{"id":345506,"name":"zharnuvka velka","country":"by","lat":53.4333333,"lon":23.8666667},{"id":335049,"name":"kociolki","country":"by","lat":52.5166667,"lon":24.35},{"id":331096,"name":"berniki","country":"by","lat":52.9166667,"lon":24.25},{"id":333265,"name":"gerutsev","country":"by","lat":53.0166667,"lon":24.3833333},{"id":334058,"name":"iodichi","country":"by","lat":53.1833333,"lon":23.95},{"id":334439,"name":"karpovtse","country":"by","lat":53.2333333,"lon":23.9833333},{"id":2268036,"name":"malawicze gorne","country":"pl","lat":53.407623,"lon":23.618878},{"id":338899,"name":"okolniki","country":"by","lat":52.6,"lon":24.0833333},{"id":2246491,"name":"boratenszczyzna","country":"pl","lat":53.288947,"lon":23.601206},{"id":340088,"name":"popelevo","country":"by","lat":52.75,"lon":24.0833333},{"id":331209,"name":"boblovo","country":"by","lat":53.3,"lon":24.3166667},{"id":2273501,"name":"ostrow polnocny","country":"pl","lat":53.270887,"lon":23.672782},{"id":2263899,"name":"kruglany","country":"pl","lat":53.486535,"lon":23.629916},{"id":2273690,"name":"oziably","country":"pl","lat":53.015547,"lon":23.675208},{"id":2250256,"name":"czuprynowo","country":"pl","lat":53.473184,"lon":23.632817},{"id":345181,"name":"zantseviche","country":"by","lat":53.25,"lon":24.25},{"id":2257421,"name":"janowo","country":"pl","lat":52.827806,"lon":23.762849},{"id":332478,"name":"devyatkovtsy","country":"by","lat":53.2166667,"lon":24.1666667},{"id":337840,"name":"mogilyany","country":"by","lat":53.4166667,"lon":23.9166667},{"id":336336,"name":"lazy","country":"by","lat":53.3333333,"lon":24.35},{"id":2280161,"name":"sanniki","country":"pl","lat":53.171777,"lon":23.759432},{"id":345680,"name":"zhyliche","country":"by","lat":53.4666667,"lon":24.15},{"id":331775,"name":"brzostowica wielka","country":"by","lat":53.1955556,"lon":24.0208333},{"id":332788,"name":"dubno","country":"by","lat":53.4333333,"lon":24.3833333},{"id":2258401,"name":"jurowlany","country":"pl","lat":53.316667,"lon":23.766667},{"id":2275571,"name":"podozierany","country":"pl","lat":53.022748,"lon":23.780117},{"id":2285636,"name":"szymki","country":"pl","lat":52.966968,"lon":23.843368},{"id":344611,"name":"yanovichi","country":"by","lat":53.2,"lon":24.2333333},{"id":2284857,"name":"swisloczany","country":"pl","lat":53.081524,"lon":23.868677},{"id":2246534,"name":"borek","country":"pl","lat":52.71325,"lon":23.508829},{"id":336225,"name":"kvasovka","country":"by","lat":53.4833333,"lon":24.0166667},{"id":333044,"name":"eiminovtse","country":"by","lat":53.2166667,"lon":24.0666667},{"id":2273124,"name":"orzeszkowo","country":"pl","lat":52.683936,"lon":23.547287},{"id":339420,"name":"pashuki","country":"by","lat":52.5166667,"lon":23.85}]});