callback({"markets":[{"id":2693022,"name":"taria","country":"td","lat":15.2833333,"lon":22.45},{"id":2586062,"name":"dankud","country":"sd","lat":14.5666667,"lon":22.4833333},{"id":2684434,"name":"bebourtabe","country":"td","lat":15.25,"lon":22.45},{"id":2585960,"name":"chourak","country":"sd","lat":14.5666667,"lon":22.45},{"id":2692768,"name":"soba","country":"td","lat":15.3666667,"lon":21.7833333},{"id":2690067,"name":"loune","country":"td","lat":14.7166667,"lon":21.8833333},{"id":2684122,"name":"bakaore","country":"td","lat":15.3,"lon":21.8333333},{"id":2690371,"name":"malaba","country":"td","lat":14.5333333,"lon":21.5333333},{"id":2688208,"name":"homba","country":"td","lat":15.0833333,"lon":22.4333333},{"id":2691623,"name":"nardoge","country":"td","lat":15.4666667,"lon":21.8666667},{"id":2691626,"name":"narga","country":"td","lat":15.0833333,"lon":21.6},{"id":2692665,"name":"selibe","country":"td","lat":15.0833333,"lon":21.5},{"id":2691631,"name":"narweyt","country":"td","lat":15.1333333,"lon":21.95},{"id":2682817,"name":"abakada","country":"td","lat":14.55,"lon":22.25},{"id":2688019,"name":"guereda","country":"td","lat":14.5166667,"lon":22.0833333},{"id":2693550,"name":"troatoua","country":"td","lat":14.9666667,"lon":21.95},{"id":2683030,"name":"abtil","country":"td","lat":14.5166667,"lon":21.8},{"id":2693551,"name":"troka","country":"td","lat":14.55,"lon":21.9833333},{"id":2692550,"name":"sambouka","country":"td","lat":14.8333333,"lon":21.6666667},{"id":2692567,"name":"sangarfout","country":"td","lat":14.6,"lon":22.2},{"id":2687886,"name":"gourfoumara","country":"td","lat":15.3333333,"lon":21.7},{"id":2682866,"name":"abele","country":"td","lat":14.7833333,"lon":21.8},{"id":2691321,"name":"moudere","country":"td","lat":14.65,"lon":22.1833333},{"id":2688319,"name":"iriba","country":"td","lat":15.1166667,"lon":22.25},{"id":2683170,"name":"aka","country":"td","lat":14.5333333,"lon":22.05},{"id":2690613,"name":"mardou","country":"td","lat":15.3,"lon":22.0},{"id":2686741,"name":"doroba togrou","country":"td","lat":15.3,"lon":21.6333333},{"id":2690795,"name":"maye","country":"td","lat":15.3,"lon":22.4},{"id":2689020,"name":"kidjiri","country":"td","lat":14.6333333,"lon":22.05},{"id":2692839,"name":"soulak","country":"td","lat":14.6666667,"lon":21.8833333},{"id":2688161,"name":"helikede","country":"td","lat":15.2333333,"lon":21.9},{"id":2683151,"name":"agourme","country":"td","lat":14.7666667,"lon":21.7666667},{"id":2690590,"name":"maraone","country":"td","lat":14.65,"lon":21.5666667},{"id":2685059,"name":"birbasim","country":"td","lat":15.3166667,"lon":22.4666667},{"id":2689105,"name":"kisele","country":"td","lat":14.5,"lon":22.2333333},{"id":2689125,"name":"koba","country":"td","lat":15.25,"lon":22.2166667},{"id":2693193,"name":"telibe","country":"td","lat":14.8333333,"lon":22.1166667},{"id":2688688,"name":"kapka djeme","country":"td","lat":15.1333333,"lon":21.7333333},{"id":2689544,"name":"kouloungoule","country":"td","lat":14.5833333,"lon":21.6166667},{"id":2683175,"name":"alabidi","country":"td","lat":15.1666667,"lon":22.3833333},{"id":2692635,"name":"segourbe djoudjou","country":"td","lat":15.2833333,"lon":22.0},{"id":2692039,"name":"orgayba","country":"td","lat":15.1166667,"lon":21.9},{"id":2686977,"name":"enme","country":"td","lat":15.4666667,"lon":21.6833333},{"id":2693517,"name":"toure","country":"td","lat":14.6333333,"lon":21.7},{"id":2693602,"name":"waya waya","country":"td","lat":14.9166667,"lon":21.65},{"id":2688122,"name":"hame","country":"td","lat":15.3833333,"lon":21.85},{"id":2683076,"name":"adiabe","country":"td","lat":15.3333333,"lon":21.7666667},{"id":2687799,"name":"goukoure","country":"td","lat":14.6333333,"lon":22.1333333},{"id":2693422,"name":"torbosoule","country":"td","lat":14.75,"lon":21.8333333},{"id":2693457,"name":"toubo","country":"td","lat":14.7333333,"lon":21.7833333},{"id":2693355,"name":"titirga","country":"td","lat":15.2166667,"lon":21.6},{"id":2693546,"name":"troa kebir","country":"td","lat":14.8833333,"lon":21.7833333},{"id":2691442,"name":"mourra","country":"td","lat":14.6333333,"lon":21.5},{"id":2693374,"name":"togrobe","country":"td","lat":15.0666667,"lon":21.6},{"id":2682959,"name":"abouir","country":"td","lat":14.6333333,"lon":21.7666667},{"id":2692181,"name":"oumou","country":"td","lat":14.5,"lon":22.05},{"id":2689320,"name":"korgo","country":"td","lat":14.7666667,"lon":21.9},{"id":2686998,"name":"erki","country":"td","lat":14.55,"lon":21.6666667},{"id":2687887,"name":"gourfounogo","country":"td","lat":15.0833333,"lon":21.5666667},{"id":2683836,"name":"ardebe","country":"td","lat":14.5833333,"lon":22.2},{"id":2686187,"name":"diogui","country":"td","lat":15.3333333,"lon":22.35},{"id":2691637,"name":"natika","country":"td","lat":14.6833333,"lon":21.9666667},{"id":2692584,"name":"sao sao","country":"td","lat":15.0,"lon":21.8833333},{"id":2693601,"name":"waya","country":"td","lat":14.5833333,"lon":22.1},{"id":2692201,"name":"ourba","country":"td","lat":15.3833333,"lon":22.4666667},{"id":2692824,"name":"souamara","country":"td","lat":15.1,"lon":21.95},{"id":2689699,"name":"koursige","country":"td","lat":14.65,"lon":21.8833333},{"id":2690150,"name":"madjone","country":"td","lat":14.5333333,"lon":21.7666667},{"id":2688181,"name":"hilit","country":"td","lat":15.1,"lon":21.9833333},{"id":2691999,"name":"ogouba","country":"td","lat":15.45,"lon":21.6333333},{"id":2685178,"name":"bobri","country":"td","lat":14.8666667,"lon":22.4833333},{"id":2693025,"name":"tarimara","country":"td","lat":15.2166667,"lon":22.0},{"id":2686950,"name":"elilenge","country":"td","lat":14.6666667,"lon":21.55},{"id":2689637,"name":"kourasiri","country":"td","lat":15.0666667,"lon":22.4333333},{"id":2688884,"name":"kekerke","country":"td","lat":14.5,"lon":21.55},{"id":2691996,"name":"ogola","country":"td","lat":14.7833333,"lon":22.4166667},{"id":2691476,"name":"moussine","country":"td","lat":14.6666667,"lon":21.5333333},{"id":2691950,"name":"nogoba","country":"td","lat":15.0666667,"lon":22.4},{"id":2683049,"name":"adait","country":"td","lat":14.5166667,"lon":21.9666667},{"id":2687481,"name":"gederne","country":"td","lat":14.7833333,"lon":21.75},{"id":2692046,"name":"orouba","country":"td","lat":14.8666667,"lon":22.25},{"id":2692004,"name":"ohang","country":"td","lat":14.7166667,"lon":21.85},{"id":2690949,"name":"meli","country":"td","lat":14.95,"lon":22.2666667},{"id":2691963,"name":"noursi adya","country":"td","lat":15.2,"lon":22.45},{"id":2683860,"name":"ariani","country":"td","lat":14.9666667,"lon":22.25},{"id":2683161,"name":"ahoura","country":"td","lat":14.5666667,"lon":21.7666667},{"id":2688109,"name":"hadjernam","country":"td","lat":14.8666667,"lon":22.1166667},{"id":2693372,"name":"togoule","country":"td","lat":14.9833333,"lon":21.8666667},{"id":2686223,"name":"ditoli","country":"td","lat":15.4166667,"lon":21.6666667},{"id":2693616,"name":"wouni-wouni","country":"td","lat":15.25,"lon":21.6833333},{"id":2693547,"name":"troa kitile","country":"td","lat":14.8833333,"lon":21.7},{"id":2686385,"name":"djierna","country":"td","lat":14.6333333,"lon":22.1666667},{"id":2692634,"name":"segetougo","country":"td","lat":15.1166667,"lon":21.5666667},{"id":2686988,"name":"er","country":"td","lat":15.1833333,"lon":22.1166667},{"id":2692672,"name":"senere","country":"td","lat":14.5,"lon":21.9666667},{"id":2686952,"name":"el kop bourgou bourgou","country":"td","lat":14.5166667,"lon":22.3166667},{"id":2688300,"name":"ingine","country":"td","lat":14.8833333,"lon":21.8333333},{"id":2693397,"name":"tologon","country":"td","lat":15.0333333,"lon":21.9166667},{"id":2692636,"name":"segre","country":"td","lat":14.8,"lon":21.6166667},{"id":2686921,"name":"edere","country":"td","lat":14.5666667,"lon":22.3666667},{"id":2688740,"name":"karka","country":"td","lat":14.6833333,"lon":21.6833333},{"id":2688689,"name":"kapka geni","country":"td","lat":15.05,"lon":21.6166667},{"id":2586066,"name":"daraba","country":"sd","lat":14.5,"lon":22.45},{"id":2685963,"name":"dege","country":"td","lat":14.6166667,"lon":22.4},{"id":2688157,"name":"hazele","country":"td","lat":14.8333333,"lon":22.2333333},{"id":2691053,"name":"mile","country":"td","lat":14.6,"lon":21.9},{"id":2690900,"name":"meder","country":"td","lat":14.8166667,"lon":22.3166667},{"id":2692183,"name":"oumour","country":"td","lat":14.5666667,"lon":21.8333333},{"id":2692162,"name":"ouligit","country":"td","lat":15.0833333,"lon":21.9666667},{"id":2686982,"name":"erdingi","country":"td","lat":14.65,"lon":21.55}]});