callback({"markets":[{"id":417773,"name":"ongolzok","country":"cm","lat":3.4833333,"lon":12.3666667},{"id":409757,"name":"andjek","country":"cm","lat":2.6,"lon":11.8833333},{"id":417312,"name":"nkolya","country":"cm","lat":3.4,"lon":11.8},{"id":417473,"name":"nloupossa","country":"cm","lat":2.75,"lon":11.7},{"id":417400,"name":"nkontounda","country":"cm","lat":3.2833333,"lon":12.2166667},{"id":417165,"name":"nkoledam","country":"cm","lat":3.3,"lon":12.2166667},{"id":412505,"name":"eyee","country":"cm","lat":2.7833333,"lon":11.9833333},{"id":409580,"name":"akoeman","country":"cm","lat":3.2,"lon":11.5833333},{"id":415622,"name":"meusok","country":"cm","lat":2.8333333,"lon":12.25},{"id":417153,"name":"nkoleban","country":"cm","lat":2.7,"lon":11.5333333},{"id":417197,"name":"nkoleteto","country":"cm","lat":2.9833333,"lon":11.6833333},{"id":410692,"name":"bidjom","country":"cm","lat":2.9166667,"lon":12.0166667},{"id":415923,"name":"momebili","country":"cm","lat":2.7333333,"lon":11.7333333},{"id":415641,"name":"meyemaya","country":"cm","lat":3.4,"lon":12.1333333},{"id":417160,"name":"nkolebon","country":"cm","lat":3.05,"lon":12.0},{"id":415579,"name":"messambe","country":"cm","lat":2.8,"lon":11.6333333},{"id":416285,"name":"nbeelon","country":"cm","lat":3.2666667,"lon":12.25},{"id":409432,"name":"abendoman","country":"cm","lat":2.5333333,"lon":11.5666667},{"id":413742,"name":"kondebilong","country":"cm","lat":3.1666667,"lon":11.7833333},{"id":417348,"name":"nkondongo","country":"cm","lat":2.6166667,"lon":11.7333333},{"id":416143,"name":"mvamedjap fong","country":"cm","lat":3.0666667,"lon":11.5833333},{"id":415229,"name":"mbomeutaa","country":"cm","lat":3.45,"lon":12.2833333},{"id":417452,"name":"nlanyop","country":"cm","lat":3.0833333,"lon":11.6666667},{"id":412370,"name":"engoudou","country":"cm","lat":3.3833333,"lon":11.9},{"id":419251,"name":"zoumeyo","country":"cm","lat":3.2166667,"lon":12.35},{"id":409577,"name":"akoaloui","country":"cm","lat":2.9,"lon":11.9166667},{"id":417202,"name":"nkolfiti","country":"cm","lat":3.25,"lon":11.95},{"id":417277,"name":"nkolnyama","country":"cm","lat":3.3833333,"lon":11.6},{"id":410888,"name":"bissousouk","country":"cm","lat":2.8166667,"lon":11.6166667},{"id":417428,"name":"nkoumadjap i","country":"cm","lat":3.1,"lon":11.6666667},{"id":412198,"name":"ekekam","country":"cm","lat":3.3833333,"lon":11.8},{"id":411995,"name":"dpoue","country":"cm","lat":2.9666667,"lon":12.2333333},{"id":409597,"name":"akomendibi","country":"cm","lat":3.0333333,"lon":12.0333333},{"id":415646,"name":"meyila","country":"cm","lat":3.2333333,"lon":11.8833333},{"id":410764,"name":"bikoula","country":"cm","lat":2.8166667,"lon":12.4166667},{"id":417326,"name":"nkomendong","country":"cm","lat":3.4666667,"lon":12.0},{"id":417683,"name":"obout","country":"cm","lat":3.4666667,"lon":11.7333333},{"id":412507,"name":"eyek","country":"cm","lat":3.4333333,"lon":12.2},{"id":417237,"name":"nkolmetet","country":"cm","lat":3.4333333,"lon":11.7666667},{"id":418708,"name":"teng i","country":"cm","lat":3.4,"lon":12.3},{"id":416833,"name":"ngoui","country":"cm","lat":3.4,"lon":12.2},{"id":412054,"name":"ebang","country":"cm","lat":3.0666667,"lon":12.35},{"id":411952,"name":"doumbanyan","country":"cm","lat":3.4,"lon":12.4},{"id":417420,"name":"nkoulaze","country":"cm","lat":3.1333333,"lon":12.4833333},{"id":412421,"name":"essama","country":"cm","lat":3.1666667,"lon":11.65},{"id":416153,"name":"mvangue","country":"cm","lat":2.9666667,"lon":11.5166667},{"id":417175,"name":"nkolelang","country":"cm","lat":3.3333333,"lon":11.8166667},{"id":409909,"name":"awout","country":"cm","lat":3.25,"lon":11.85},{"id":412501,"name":"ewot","country":"cm","lat":3.3833333,"lon":12.4166667},{"id":415335,"name":"mebemenko","country":"cm","lat":2.9,"lon":11.95},{"id":415844,"name":"mleboo","country":"cm","lat":2.5666667,"lon":11.9833333},{"id":414211,"name":"lobe","country":"cm","lat":2.6666667,"lon":11.6},{"id":409583,"name":"akok","country":"cm","lat":2.6333333,"lon":11.7},{"id":415607,"name":"metom","country":"cm","lat":3.3666667,"lon":12.45},{"id":410929,"name":"biyebe","country":"cm","lat":3.2666667,"lon":12.1833333},{"id":415747,"name":"mindimi","country":"cm","lat":3.4666667,"lon":12.45},{"id":417156,"name":"nkolebengue","country":"cm","lat":2.9666667,"lon":11.55},{"id":416589,"name":"nemeyong i","country":"cm","lat":3.1666667,"lon":12.2666667},{"id":412170,"name":"efoulan","country":"cm","lat":3.4666667,"lon":11.75},{"id":415169,"name":"mbieleme","country":"cm","lat":2.8333333,"lon":12.2166667},{"id":415602,"name":"metiykpwale","country":"cm","lat":2.85,"lon":11.5},{"id":415358,"name":"medjeme","country":"cm","lat":3.4666667,"lon":12.0666667},{"id":416184,"name":"mvong","country":"cm","lat":2.75,"lon":11.6833333},{"id":417336,"name":"nkomindong","country":"cm","lat":3.4833333,"lon":11.9833333},{"id":413449,"name":"kam","country":"cm","lat":3.3166667,"lon":12.4333333},{"id":417194,"name":"nkolesse","country":"cm","lat":2.9666667,"lon":11.75},{"id":409855,"name":"assok","country":"cm","lat":2.5666667,"lon":11.5},{"id":416206,"name":"mwoutessi","country":"cm","lat":3.2333333,"lon":11.7833333},{"id":409685,"name":"alotome","country":"cm","lat":2.65,"lon":11.6833333},{"id":412408,"name":"eseng","country":"cm","lat":3.4333333,"lon":12.0333333},{"id":415797,"name":"minkwamoveng","country":"cm","lat":2.95,"lon":11.85},{"id":416790,"name":"ngonbo","country":"cm","lat":3.3,"lon":12.25},{"id":413445,"name":"kamelon","country":"cm","lat":2.9,"lon":12.0166667},{"id":409598,"name":"akomesing","country":"cm","lat":2.9333333,"lon":11.7166667},{"id":416872,"name":"ngoungoumou ii","country":"cm","lat":3.15,"lon":11.7666667},{"id":409776,"name":"angonge","country":"cm","lat":3.2166667,"lon":11.95},{"id":417737,"name":"olounou","country":"cm","lat":2.8166667,"lon":12.1333333},{"id":414888,"name":"matet","country":"cm","lat":3.0,"lon":12.0166667},{"id":417559,"name":"ntone","country":"cm","lat":2.7166667,"lon":11.5},{"id":416807,"name":"ngon","country":"cm","lat":3.0166667,"lon":11.95},{"id":415484,"name":"memvae","country":"cm","lat":2.9666667,"lon":12.35},{"id":410583,"name":"benyougou","country":"cm","lat":2.9,"lon":11.8166667},{"id":419103,"name":"yem","country":"cm","lat":2.6333333,"lon":11.7166667},{"id":413761,"name":"kongo","country":"cm","lat":2.8,"lon":12.1833333},{"id":416322,"name":"ndele","country":"cm","lat":3.3,"lon":11.9333333},{"id":417158,"name":"nkolebom","country":"cm","lat":3.0666667,"lon":12.0166667},{"id":416587,"name":"nemayong","country":"cm","lat":2.9833333,"lon":11.6333333},{"id":416518,"name":"ndonkou","country":"cm","lat":3.15,"lon":12.1166667},{"id":417088,"name":"nkoambang","country":"cm","lat":3.3666667,"lon":12.1166667},{"id":416166,"name":"mvia","country":"cm","lat":3.05,"lon":12.25},{"id":416877,"name":"ngoungouo","country":"cm","lat":3.1666667,"lon":11.7333333},{"id":416871,"name":"ngoungoum","country":"cm","lat":2.9833333,"lon":11.75},{"id":415822,"name":"mintyaminyoumin","country":"cm","lat":3.0166667,"lon":12.0333333},{"id":418707,"name":"teng ii","country":"cm","lat":3.3833333,"lon":12.3},{"id":410874,"name":"bissam","country":"cm","lat":2.55,"lon":11.55},{"id":412467,"name":"eton","country":"cm","lat":3.2,"lon":12.25},{"id":417589,"name":"nyabissou","country":"cm","lat":3.2833333,"lon":12.4333333},{"id":419210,"name":"zoabefam","country":"cm","lat":2.95,"lon":11.7166667},{"id":412258,"name":"ekonong","country":"cm","lat":3.2166667,"lon":11.6},{"id":416306,"name":"ndanga","country":"cm","lat":2.6,"lon":12.0166667},{"id":419216,"name":"zoatele","country":"cm","lat":3.25,"lon":11.8833333},{"id":414447,"name":"majus","country":"cm","lat":2.9166667,"lon":11.7333333},{"id":415338,"name":"mebemonko","country":"cm","lat":2.55,"lon":12.1666667},{"id":417105,"name":"nko-etye","country":"cm","lat":2.9166667,"lon":11.7666667},{"id":412140,"name":"ebuman","country":"cm","lat":2.8166667,"lon":12.4},{"id":415452,"name":"melem","country":"cm","lat":3.0833333,"lon":11.9333333},{"id":409906,"name":"awoane","country":"cm","lat":2.5833333,"lon":11.75},{"id":409892,"name":"avebe","country":"cm","lat":2.75,"lon":12.1666667},{"id":417341,"name":"nkomo","country":"cm","lat":2.5166667,"lon":11.85},{"id":412127,"name":"ebotnkou","country":"cm","lat":3.15,"lon":11.7},{"id":409659,"name":"alangana","country":"cm","lat":3.4,"lon":12.3666667},{"id":417765,"name":"ondondo","country":"cm","lat":2.65,"lon":11.6666667},{"id":412423,"name":"essangong","country":"cm","lat":2.85,"lon":11.5333333},{"id":415527,"name":"mengom","country":"cm","lat":3.25,"lon":12.2},{"id":409397,"name":"ababita","country":"cm","lat":2.9833333,"lon":11.65},{"id":416786,"name":"ngomyop","country":"cm","lat":2.9,"lon":11.7833333},{"id":409886,"name":"atout","country":"cm","lat":3.15,"lon":12.0666667},{"id":416776,"name":"ngomedjap","country":"cm","lat":3.3333333,"lon":11.9166667},{"id":414327,"name":"maamenyin","country":"cm","lat":2.9833333,"lon":11.7833333},{"id":415812,"name":"mintima","country":"cm","lat":2.9833333,"lon":12.35},{"id":414446,"name":"majomessi","country":"cm","lat":2.8166667,"lon":12.2},{"id":412221,"name":"ekok","country":"cm","lat":3.25,"lon":12.4},{"id":415774,"name":"minkang ii","country":"cm","lat":2.8166667,"lon":12.1},{"id":415650,"name":"meyomadjom","country":"cm","lat":2.7666667,"lon":11.9833333},{"id":412357,"name":"endameyos","country":"cm","lat":2.7166667,"lon":11.75},{"id":412091,"name":"ebolboum","country":"cm","lat":3.0666667,"lon":11.5},{"id":417227,"name":"nkolmeke","country":"cm","lat":3.35,"lon":12.4333333},{"id":412237,"name":"ekombitie","country":"cm","lat":3.4666667,"lon":11.5166667},{"id":416343,"name":"nden","country":"cm","lat":3.1833333,"lon":11.95},{"id":415653,"name":"meyomesala","country":"cm","lat":3.1166667,"lon":12.25},{"id":416604,"name":"nezam","country":"cm","lat":2.6166667,"lon":12.1},{"id":412232,"name":"ekomba","country":"cm","lat":3.4833333,"lon":12.1166667},{"id":410742,"name":"bikobo","country":"cm","lat":3.0166667,"lon":11.6666667},{"id":409794,"name":"anyoungan","country":"cm","lat":3.1833333,"lon":12.2},{"id":419170,"name":"zalingang","country":"cm","lat":3.3166667,"lon":12.25},{"id":412566,"name":"fibot ii","country":"cm","lat":3.2166667,"lon":12.1166667},{"id":417247,"name":"nkolmeyos","country":"cm","lat":3.3166667,"lon":11.55},{"id":417159,"name":"nkolebo","country":"cm","lat":3.3,"lon":12.2333333},{"id":419186,"name":"zatoumsi","country":"cm","lat":3.4333333,"lon":11.5166667},{"id":417454,"name":"nlobese","country":"cm","lat":3.1166667,"lon":12.4166667},{"id":416659,"name":"ngan","country":"cm","lat":2.9666667,"lon":11.9666667},{"id":417719,"name":"okpwang","country":"cm","lat":2.85,"lon":11.5666667},{"id":412486,"name":"evindisi ii","country":"cm","lat":3.1333333,"lon":11.9},{"id":413899,"name":"koum","country":"cm","lat":2.9666667,"lon":12.0666667},{"id":414692,"name":"mangombo","country":"cm","lat":3.3166667,"lon":11.65},{"id":416366,"name":"ndik","country":"cm","lat":2.5833333,"lon":11.9666667},{"id":410680,"name":"biboulemam","country":"cm","lat":2.7,"lon":11.7833333},{"id":412380,"name":"enyeng","country":"cm","lat":3.2333333,"lon":12.0333333},{"id":412496,"name":"ewelesi","country":"cm","lat":2.9666667,"lon":11.7},{"id":412469,"name":"etoto","country":"cm","lat":3.2666667,"lon":11.9},{"id":412436,"name":"essongwout","country":"cm","lat":2.8166667,"lon":12.2666667},{"id":415532,"name":"mengon","country":"cm","lat":3.0,"lon":12.25},{"id":409599,"name":"akometam","country":"cm","lat":3.4666667,"lon":11.5666667},{"id":409891,"name":"avebe","country":"cm","lat":3.35,"lon":11.5},{"id":409686,"name":"alouma","country":"cm","lat":2.8,"lon":11.8666667},{"id":417240,"name":"nkolmevout","country":"cm","lat":3.45,"lon":12.0},{"id":410828,"name":"bingong","country":"cm","lat":3.1166667,"lon":12.15},{"id":417295,"name":"nkolotoutou","country":"cm","lat":3.0833333,"lon":12.0333333},{"id":415539,"name":"mengue","country":"cm","lat":2.8333333,"lon":11.9833333},{"id":416827,"name":"ngoubisong","country":"cm","lat":3.4833333,"lon":12.4666667},{"id":412489,"name":"evolembalma","country":"cm","lat":3.35,"lon":12.2666667},{"id":415483,"name":"memiam","country":"cm","lat":3.4666667,"lon":11.6},{"id":412114,"name":"ebomsi ii","country":"cm","lat":3.4666667,"lon":11.7},{"id":412531,"name":"falasi","country":"cm","lat":3.25,"lon":11.5},{"id":415417,"name":"mekin","country":"cm","lat":3.2666667,"lon":12.4166667},{"id":416192,"name":"mvoutesi ii","country":"cm","lat":3.25,"lon":11.8},{"id":409579,"name":"akoatala","country":"cm","lat":3.1166667,"lon":11.55},{"id":409901,"name":"awae","country":"cm","lat":3.3666667,"lon":11.8166667},{"id":418011,"name":"oyem","country":"cm","lat":2.6,"lon":12.0666667},{"id":410937,"name":"bizok","country":"cm","lat":3.4833333,"lon":11.75},{"id":416867,"name":"ngoundou","country":"cm","lat":3.2166667,"lon":12.1333333},{"id":416284,"name":"nbanlam","country":"cm","lat":3.3,"lon":12.1833333},{"id":417811,"name":"otetek","country":"cm","lat":3.2333333,"lon":11.9166667},{"id":413613,"name":"kintelom","country":"cm","lat":3.4166667,"lon":12.0166667},{"id":417774,"name":"ongongo","country":"cm","lat":3.1666667,"lon":11.6666667},{"id":416795,"name":"ngonebemeu","country":"cm","lat":3.4666667,"lon":12.2666667},{"id":415558,"name":"mesak","country":"cm","lat":2.7833333,"lon":12.0333333},{"id":417262,"name":"nkolngi","country":"cm","lat":3.4833333,"lon":11.6833333},{"id":409878,"name":"atokzok","country":"cm","lat":3.3833333,"lon":11.6333333},{"id":417427,"name":"nkoumadjap ii","country":"cm","lat":3.1166667,"lon":11.6833333},{"id":416797,"name":"ngone","country":"cm","lat":2.65,"lon":11.6166667},{"id":415619,"name":"meulan","country":"cm","lat":3.15,"lon":12.1666667},{"id":409894,"name":"avoane","country":"cm","lat":2.9166667,"lon":11.9666667},{"id":414656,"name":"mane","country":"cm","lat":3.3333333,"lon":12.1666667},{"id":417115,"name":"nkolakoa","country":"cm","lat":3.3,"lon":11.6},{"id":412396,"name":"esa","country":"cm","lat":3.1833333,"lon":11.75},{"id":409638,"name":"akpwak","country":"cm","lat":2.6833333,"lon":11.5833333},{"id":417185,"name":"nkoleniong","country":"cm","lat":2.6666667,"lon":11.7833333},{"id":418004,"name":"oving","country":"cm","lat":3.4166667,"lon":11.7},{"id":417005,"name":"njejele","country":"cm","lat":3.1666667,"lon":12.3333333},{"id":413743,"name":"kondebiyen","country":"cm","lat":3.3333333,"lon":12.0333333},{"id":412608,"name":"fone","country":"cm","lat":3.1333333,"lon":11.5},{"id":415745,"name":"minbang","country":"cm","lat":2.8166667,"lon":12.0666667},{"id":416396,"name":"ndjele","country":"cm","lat":2.7,"lon":12.1666667},{"id":416357,"name":"ndibisong","country":"cm","lat":3.1833333,"lon":12.35},{"id":413745,"name":"kondesong","country":"cm","lat":3.4833333,"lon":11.8666667},{"id":417170,"name":"nkolekabeli","country":"cm","lat":3.45,"lon":11.7833333},{"id":413881,"name":"koumangelo","country":"cm","lat":3.2333333,"lon":12.3833333},{"id":415379,"name":"mefiep","country":"cm","lat":2.9833333,"lon":11.6166667},{"id":410870,"name":"bisombo","country":"cm","lat":3.2833333,"lon":12.4666667},{"id":416875,"name":"ngoungoumou","country":"cm","lat":3.2833333,"lon":12.0166667},{"id":415667,"name":"mezaa ii","country":"cm","lat":3.1666667,"lon":12.1833333},{"id":416730,"name":"ngoase","country":"cm","lat":3.25,"lon":12.1333333},{"id":412256,"name":"ekong","country":"cm","lat":3.15,"lon":12.1333333},{"id":417203,"name":"nkolfong","country":"cm","lat":3.15,"lon":11.9333333},{"id":416555,"name":"ndoup","country":"cm","lat":3.0,"lon":11.95},{"id":418276,"name":"samari","country":"cm","lat":3.0666667,"lon":12.3333333},{"id":415323,"name":"mebam","country":"cm","lat":3.2166667,"lon":12.3},{"id":409902,"name":"awae fala","country":"cm","lat":3.1666667,"lon":11.5333333},{"id":417530,"name":"nsimi","country":"cm","lat":3.1666667,"lon":11.8166667},{"id":415430,"name":"mekomo","country":"cm","lat":3.4,"lon":11.6333333},{"id":415939,"name":"moneko","country":"cm","lat":3.0333333,"lon":11.75},{"id":415596,"name":"metek","country":"cm","lat":3.4333333,"lon":11.75},{"id":416684,"name":"ngat","country":"cm","lat":3.4166667,"lon":11.5666667},{"id":417076,"name":"nkilzok","country":"cm","lat":3.35,"lon":11.95},{"id":414311,"name":"loun","country":"cm","lat":2.9666667,"lon":11.5833333},{"id":416141,"name":"mvaezom","country":"cm","lat":2.6,"lon":12.0333333},{"id":417199,"name":"nkoleyop","country":"cm","lat":3.1166667,"lon":12.0333333},{"id":410687,"name":"bidjang","country":"cm","lat":3.1333333,"lon":12.3},{"id":416147,"name":"mvanbison","country":"cm","lat":3.0333333,"lon":12.1833333},{"id":417315,"name":"nkolyop","country":"cm","lat":3.2333333,"lon":12.0666667},{"id":417636,"name":"nyengue","country":"cm","lat":2.8833333,"lon":11.5666667},{"id":417426,"name":"nkoumadjap iii","country":"cm","lat":3.35,"lon":12.1333333},{"id":418379,"name":"sep ii","country":"cm","lat":3.3,"lon":11.6333333},{"id":410910,"name":"bitsokmam","country":"cm","lat":3.05,"lon":11.5166667},{"id":412323,"name":"elom","country":"cm","lat":2.7166667,"lon":12.1833333},{"id":416387,"name":"ndjabem","country":"cm","lat":3.2666667,"lon":12.1166667},{"id":412238,"name":"ekombitie","country":"cm","lat":3.1166667,"lon":11.8333333},{"id":412307,"name":"ele","country":"cm","lat":2.9666667,"lon":12.2166667},{"id":416405,"name":"ndjom","country":"cm","lat":3.0333333,"lon":11.7},{"id":416151,"name":"mvangane","country":"cm","lat":2.6333333,"lon":11.7333333},{"id":418008,"name":"oyak i","country":"cm","lat":3.4833333,"lon":11.5},{"id":418856,"name":"tsizok","country":"cm","lat":3.4333333,"lon":12.35},{"id":417499,"name":"npouang","country":"cm","lat":3.0333333,"lon":11.9666667},{"id":409884,"name":"atoui","country":"cm","lat":2.9666667,"lon":11.5333333},{"id":412309,"name":"elende","country":"cm","lat":3.4666667,"lon":11.7166667},{"id":413946,"name":"kout","country":"cm","lat":3.0333333,"lon":12.2833333},{"id":412351,"name":"enamenga","country":"cm","lat":3.3166667,"lon":12.0166667},{"id":415174,"name":"mbilemvom","country":"cm","lat":2.65,"lon":12.15},{"id":415567,"name":"mesila","country":"cm","lat":3.2333333,"lon":12.35},{"id":418693,"name":"tekmo","country":"cm","lat":3.15,"lon":12.0833333},{"id":417229,"name":"nkolmekok","country":"cm","lat":2.7666667,"lon":12.1666667},{"id":413747,"name":"kondomyos","country":"cm","lat":2.9833333,"lon":11.9666667},{"id":415407,"name":"mekam","country":"cm","lat":2.9,"lon":11.9},{"id":412349,"name":"emvieng","country":"cm","lat":2.8166667,"lon":12.35},{"id":414307,"name":"loum","country":"cm","lat":3.2333333,"lon":12.1},{"id":417261,"name":"nkolnget","country":"cm","lat":3.4833333,"lon":11.5166667},{"id":412049,"name":"ebamina ii","country":"cm","lat":3.3666667,"lon":11.8833333},{"id":417043,"name":"nkai","country":"cm","lat":3.1,"lon":12.3666667},{"id":418380,"name":"sep i","country":"cm","lat":3.2833333,"lon":11.6333333},{"id":410926,"name":"biyan","country":"cm","lat":3.4,"lon":11.6166667},{"id":409624,"name":"akoo","country":"cm","lat":2.9666667,"lon":12.05},{"id":413288,"name":"indinge","country":"cm","lat":3.4,"lon":11.65},{"id":415405,"name":"mekamen","country":"cm","lat":2.65,"lon":11.6},{"id":415614,"name":"meuba","country":"cm","lat":3.4666667,"lon":12.3666667},{"id":415231,"name":"mbom","country":"cm","lat":2.95,"lon":12.0333333},{"id":416394,"name":"ndjantom","country":"cm","lat":2.9,"lon":12.0333333},{"id":409444,"name":"aboelon","country":"cm","lat":2.6166667,"lon":11.85},{"id":416404,"name":"ndjom ese","country":"cm","lat":2.9666667,"lon":12.1833333},{"id":409746,"name":"amvom","country":"cm","lat":3.0333333,"lon":12.25},{"id":416844,"name":"ngoulmakong","country":"cm","lat":2.9,"lon":11.9666667},{"id":417302,"name":"nkolowon","country":"cm","lat":2.9666667,"lon":11.5666667},{"id":415616,"name":"meukaa","country":"cm","lat":2.7666667,"lon":12.0166667},{"id":410913,"name":"bitzok","country":"cm","lat":3.4333333,"lon":12.1833333},{"id":417190,"name":"nkolesas","country":"cm","lat":3.25,"lon":12.0666667},{"id":418301,"name":"sangmelima","country":"cm","lat":2.9333333,"lon":11.9833333},{"id":410711,"name":"bifindi","country":"cm","lat":3.1833333,"lon":11.5666667},{"id":416829,"name":"ngoudjieng","country":"cm","lat":2.5,"lon":12.2},{"id":411344,"name":"buikung","country":"cm","lat":2.6166667,"lon":11.75},{"id":415674,"name":"mezese","country":"cm","lat":2.9666667,"lon":12.15},{"id":416180,"name":"mvomekaa","country":"cm","lat":3.1166667,"lon":12.2666667},{"id":412173,"name":"efoulan ii","country":"cm","lat":3.2666667,"lon":12.1333333},{"id":412374,"name":"enoneh","country":"cm","lat":3.4666667,"lon":12.0166667},{"id":410911,"name":"bitye","country":"cm","lat":3.0166667,"lon":12.3666667},{"id":417122,"name":"nkolasok","country":"cm","lat":3.1333333,"lon":11.7333333},{"id":410660,"name":"bibas","country":"cm","lat":3.2,"lon":12.2833333},{"id":412529,"name":"fakele i","country":"cm","lat":3.4833333,"lon":11.6},{"id":417726,"name":"olamindoue","country":"cm","lat":3.4666667,"lon":11.85},{"id":416864,"name":"ngounayos","country":"cm","lat":3.4166667,"lon":12.4833333},{"id":419116,"name":"yeumeuyeuma","country":"cm","lat":3.4833333,"lon":12.3},{"id":415690,"name":"mfouladja","country":"cm","lat":3.0666667,"lon":12.0333333},{"id":415099,"name":"mbekaa ii","country":"cm","lat":3.1,"lon":11.5333333},{"id":410727,"name":"bignienyale","country":"cm","lat":3.4833333,"lon":12.1},{"id":409419,"name":"abangok","country":"cm","lat":3.3,"lon":11.85},{"id":413880,"name":"kouma","country":"cm","lat":3.15,"lon":11.6333333},{"id":417366,"name":"nkongmakak","country":"cm","lat":3.2,"lon":12.1333333},{"id":417093,"name":"nkoaving","country":"cm","lat":3.4833333,"lon":11.95},{"id":416341,"name":"ndengue","country":"cm","lat":2.6333333,"lon":12.05},{"id":417430,"name":"nkoumadzap","country":"cm","lat":3.3666667,"lon":11.5666667},{"id":412113,"name":"ebomsi i","country":"cm","lat":3.4166667,"lon":11.7166667},{"id":419220,"name":"zoebefame","country":"cm","lat":2.55,"lon":11.8},{"id":417614,"name":"nyangbasa","country":"cm","lat":3.45,"lon":12.3666667},{"id":418694,"name":"tekomo","country":"cm","lat":3.1833333,"lon":12.1333333},{"id":409565,"name":"akam i","country":"cm","lat":3.4,"lon":12.4833333},{"id":416728,"name":"ngoantet","country":"cm","lat":3.45,"lon":11.8166667},{"id":415664,"name":"meyos yemvak","country":"cm","lat":3.1166667,"lon":12.2333333},{"id":418590,"name":"taching","country":"cm","lat":2.9333333,"lon":12.2833333},{"id":415441,"name":"melam","country":"cm","lat":3.4166667,"lon":12.3333333},{"id":410706,"name":"bidzok","country":"cm","lat":3.4833333,"lon":12.2333333},{"id":417672,"name":"obem","country":"cm","lat":2.7,"lon":11.5166667},{"id":412341,"name":"eminemvon","country":"cm","lat":2.9666667,"lon":11.7833333},{"id":416702,"name":"ngen","country":"cm","lat":3.3666667,"lon":11.6333333},{"id":417524,"name":"nsesougou","country":"cm","lat":3.4,"lon":11.8333333},{"id":417006,"name":"njekom","country":"cm","lat":3.05,"lon":12.3666667},{"id":417385,"name":"nkongou","country":"cm","lat":2.5666667,"lon":11.7666667},{"id":412564,"name":"fibot","country":"cm","lat":3.2166667,"lon":12.0833333},{"id":417435,"name":"nkounde","country":"cm","lat":2.9833333,"lon":12.0166667},{"id":415347,"name":"mebomo","country":"cm","lat":3.45,"lon":12.2666667},{"id":417663,"name":"nzoe","country":"cm","lat":2.75,"lon":11.7333333},{"id":417307,"name":"nkoltombo","country":"cm","lat":3.3833333,"lon":11.8166667},{"id":416685,"name":"ngat","country":"cm","lat":3.2333333,"lon":12.1166667},{"id":410575,"name":"benghia","country":"cm","lat":3.45,"lon":12.45},{"id":410927,"name":"biyan","country":"cm","lat":3.2,"lon":11.9333333},{"id":412264,"name":"ekoudou","country":"cm","lat":3.4166667,"lon":12.15},{"id":410867,"name":"biso","country":"cm","lat":3.2333333,"lon":12.05},{"id":415322,"name":"meba","country":"cm","lat":3.2833333,"lon":11.8833333},{"id":412371,"name":"enieng","country":"cm","lat":2.9666667,"lon":11.6333333},{"id":415429,"name":"mekom","country":"cm","lat":2.8833333,"lon":11.85},{"id":415620,"name":"meulok","country":"cm","lat":2.8166667,"lon":12.0833333},{"id":416640,"name":"ngam","country":"cm","lat":2.7833333,"lon":11.9},{"id":415823,"name":"mintyene","country":"cm","lat":2.65,"lon":11.8166667},{"id":416853,"name":"ngoumbou","country":"cm","lat":3.2833333,"lon":11.5333333},{"id":410748,"name":"bikoko","country":"cm","lat":3.4333333,"lon":11.8},{"id":415522,"name":"mengeme","country":"cm","lat":3.4333333,"lon":11.7},{"id":412070,"name":"ebezom","country":"cm","lat":3.2666667,"lon":12.0666667}]});