callback({"markets":[{"id":492239,"name":"huamin","country":"cn","lat":47.125278,"lon":123.476944},{"id":507618,"name":"jubao","country":"cn","lat":47.428611,"lon":123.407222},{"id":601001,"name":"touzhan","country":"cn","lat":46.95,"lon":123.233333},{"id":423523,"name":"baishan","country":"cn","lat":47.266667,"lon":123.233333},{"id":602543,"name":"tuerhchihha","country":"cn","lat":47.330278,"lon":123.183611},{"id":510254,"name":"keli","country":"cn","lat":46.5,"lon":123.4},{"id":461855,"name":"duibaoshan","country":"cn","lat":47.243889,"lon":123.078889},{"id":612447,"name":"wuhsing","country":"cn","lat":46.608611,"lon":123.0525},{"id":596406,"name":"tayushu","country":"cn","lat":46.5,"lon":123.333333},{"id":480899,"name":"heigang","country":"cn","lat":47.25,"lon":123.4},{"id":506183,"name":"jiqinhe","country":"cn","lat":47.333333,"lon":122.566667},{"id":421748,"name":"badai","country":"cn","lat":46.7,"lon":123.2},{"id":445419,"name":"chunghsing","country":"cn","lat":47.383333,"lon":123.266667},{"id":464041,"name":"fada","country":"cn","lat":47.49,"lon":123.2525},{"id":574303,"name":"shanquan","country":"cn","lat":47.25,"lon":122.8},{"id":648260,"name":"zhalaite qi","country":"cn","lat":46.7,"lon":122.933333},{"id":469915,"name":"ganjiadian","country":"cn","lat":47.103611,"lon":123.24},{"id":510954,"name":"kingsing","country":"cn","lat":47.069444,"lon":123.035},{"id":641662,"name":"yongfa","country":"cn","lat":47.183333,"lon":123.033333},{"id":475532,"name":"guanyaocun","country":"cn","lat":47.276111,"lon":123.061667}]});