callback({"markets":[{"id":678455,"name":"pacoa","country":"co","lat":0.055071,"lon":-71.222026},{"id":685066,"name":"villa gladis","country":"co","lat":0.2608,"lon":-71.352006},{"id":683500,"name":"sonana","country":"co","lat":0.118056,"lon":-70.580556},{"id":682371,"name":"san miguel","country":"co","lat":0.001389,"lon":-70.509722},{"id":669109,"name":"guayabero","country":"co","lat":0.145,"lon":-70.957222},{"id":675335,"name":"lerida","country":"co","lat":0.018056,"lon":-71.0025}]});