callback({"markets":[{"id":798231,"name":"oksenmolle","country":"dk","lat":56.277618,"lon":10.696461},{"id":800380,"name":"svebolle stationsby","country":"dk","lat":55.651834,"lon":11.286578},{"id":800071,"name":"starreklinte","country":"dk","lat":55.757589,"lon":11.379166},{"id":796464,"name":"kajemose","country":"dk","lat":55.607396,"lon":11.414703},{"id":800645,"name":"tjornelunde","country":"dk","lat":55.512112,"lon":11.338836},{"id":793143,"name":"agri","country":"dk","lat":56.232384,"lon":10.524449},{"id":799060,"name":"ruds-vedby","country":"dk","lat":55.540927,"lon":11.379572},{"id":794929,"name":"fuglsang","country":"dk","lat":56.383108,"lon":10.896599},{"id":793562,"name":"begtrup","country":"dk","lat":56.180916,"lon":10.511801},{"id":798455,"name":"ostermark","country":"dk","lat":55.957027,"lon":10.566552},{"id":797866,"name":"nidlose","country":"dk","lat":55.557233,"lon":11.49878},{"id":794759,"name":"fladstrup","country":"dk","lat":56.376337,"lon":10.784086},{"id":794888,"name":"frendved","country":"dk","lat":55.579552,"lon":11.344644},{"id":796639,"name":"kirial","country":"dk","lat":56.428335,"lon":10.809587},{"id":797274,"name":"lille vroj","country":"dk","lat":55.751135,"lon":11.144755},{"id":800902,"name":"tustrup","country":"dk","lat":56.489122,"lon":10.535738},{"id":793677,"name":"bjergsted","country":"dk","lat":55.666652,"lon":11.350967},{"id":799390,"name":"skarreso","country":"dk","lat":56.358774,"lon":10.52555},{"id":795180,"name":"gjorlev","country":"dk","lat":55.540585,"lon":11.228593},{"id":799152,"name":"saltbaek","country":"dk","lat":55.735395,"lon":11.111819},{"id":793776,"name":"boeslum","country":"dk","lat":56.201742,"lon":10.715274},{"id":799224,"name":"seirby","country":"dk","lat":55.883708,"lon":11.143231},{"id":797329,"name":"logtved","country":"dk","lat":55.58883,"lon":11.348626},{"id":796408,"name":"jyderup","country":"dk","lat":55.663991,"lon":11.420289},{"id":794676,"name":"feldballe","country":"dk","lat":56.285052,"lon":10.585917},{"id":799009,"name":"rorby","country":"dk","lat":55.64593,"lon":11.16416},{"id":796480,"name":"kallerup","country":"dk","lat":55.719976,"lon":11.046015},{"id":800167,"name":"stokkebjerg","country":"dk","lat":55.678472,"lon":11.393395},{"id":793588,"name":"bierre","country":"dk","lat":55.588313,"lon":11.191194},{"id":796271,"name":"hyllested skovgaarde","country":"dk","lat":56.264317,"lon":10.792123},{"id":795033,"name":"gammel svebolle","country":"dk","lat":55.636785,"lon":11.317163},{"id":797563,"name":"martofte","country":"dk","lat":55.546361,"lon":10.657775},{"id":795294,"name":"grena strand","country":"dk","lat":56.396306,"lon":10.918696},{"id":793234,"name":"also","country":"dk","lat":56.371725,"lon":10.847652},{"id":799466,"name":"skiffard pynt","country":"dk","lat":56.379155,"lon":10.660097},{"id":800822,"name":"tranehuse","country":"dk","lat":56.492715,"lon":10.649849},{"id":797464,"name":"lyngsbaek","country":"dk","lat":56.241373,"lon":10.616164},{"id":800662,"name":"toftebjerg","country":"dk","lat":55.879467,"lon":10.612268},{"id":799187,"name":"sangstrup","country":"dk","lat":56.463197,"lon":10.899141},{"id":801090,"name":"vaerslev","country":"dk","lat":55.656196,"lon":11.21055},{"id":795725,"name":"helsinge","country":"dk","lat":55.515162,"lon":11.206513},{"id":796103,"name":"horstved","country":"dk","lat":56.323437,"lon":10.648333},{"id":798397,"name":"osterby","country":"dk","lat":55.858219,"lon":10.600937},{"id":798874,"name":"rimso","country":"dk","lat":56.479183,"lon":10.79728},{"id":799908,"name":"sonderod","country":"dk","lat":55.580066,"lon":11.386396},{"id":796445,"name":"kaerende","country":"dk","lat":56.402657,"lon":10.543186},{"id":798356,"name":"orup","country":"dk","lat":56.30918,"lon":10.745874},{"id":794045,"name":"brokkebjerg","country":"dk","lat":55.716197,"lon":11.106967},{"id":795194,"name":"glatved","country":"dk","lat":56.316019,"lon":10.827106},{"id":798756,"name":"rask mark","country":"dk","lat":55.883333,"lon":10.616667},{"id":793605,"name":"birkebjaerg","country":"dk","lat":55.513714,"lon":10.688131},{"id":800553,"name":"terslose","country":"dk","lat":55.512515,"lon":11.488766},{"id":794588,"name":"faarevejle","country":"dk","lat":55.785689,"lon":11.466735},{"id":796419,"name":"kaarup","country":"dk","lat":55.817039,"lon":11.408926},{"id":798587,"name":"ovtved","country":"dk","lat":55.555741,"lon":11.350274},{"id":798094,"name":"nostrup","country":"dk","lat":55.718854,"lon":11.014938},{"id":794047,"name":"brokob","country":"dk","lat":55.600138,"lon":11.432291},{"id":797772,"name":"naesby","country":"dk","lat":56.406753,"lon":10.8},{"id":801631,"name":"yppenbjerg","country":"dk","lat":55.617082,"lon":11.182597},{"id":796488,"name":"kalund kloster","country":"dk","lat":55.683333,"lon":11.083333},{"id":795502,"name":"hallenslev gaarde","country":"dk","lat":55.52284,"lon":11.26582},{"id":795931,"name":"hoed","country":"dk","lat":56.316471,"lon":10.811156},{"id":796996,"name":"kulby","country":"dk","lat":55.521198,"lon":11.328093},{"id":796483,"name":"kallundborg","country":"dk","lat":55.681984,"lon":11.100426},{"id":795501,"name":"hallendrup","country":"dk","lat":56.343004,"lon":10.688916},{"id":800414,"name":"svinninge","country":"dk","lat":55.721114,"lon":11.465466},{"id":799069,"name":"rugtved","country":"dk","lat":55.648195,"lon":11.263941},{"id":799128,"name":"saelvig","country":"dk","lat":55.861331,"lon":10.551375},{"id":795293,"name":"grena","country":"dk","lat":56.41285,"lon":10.895649},{"id":795974,"name":"hojsted","country":"dk","lat":55.703471,"lon":11.338066},{"id":799471,"name":"skindbjerg","country":"dk","lat":56.44963,"lon":10.792633},{"id":801492,"name":"viskinge","country":"dk","lat":55.662123,"lon":11.268572},{"id":799089,"name":"rye","country":"dk","lat":55.521506,"lon":11.238398},{"id":798323,"name":"ornum","country":"dk","lat":55.55,"lon":11.183333},{"id":794299,"name":"drammelstrup","country":"dk","lat":56.321134,"lon":10.701201},{"id":798923,"name":"robstrup","country":"dk","lat":56.444965,"lon":10.884172},{"id":793160,"name":"akselholm","country":"dk","lat":55.643022,"lon":11.401118},{"id":795201,"name":"glesborg","country":"dk","lat":56.477901,"lon":10.724038},{"id":798223,"name":"oerne","country":"dk","lat":56.154572,"lon":10.693581},{"id":799028,"name":"rosmus","country":"dk","lat":56.303885,"lon":10.771793},{"id":797554,"name":"marke","country":"dk","lat":55.698488,"lon":11.471636},{"id":798383,"name":"osterballe","country":"dk","lat":56.323506,"lon":10.845814},{"id":801432,"name":"villerso","country":"dk","lat":56.446576,"lon":10.814212},{"id":801097,"name":"vallekilde","country":"dk","lat":55.743382,"lon":11.425412},{"id":796468,"name":"kaldred","country":"dk","lat":55.700253,"lon":11.268531},{"id":794778,"name":"flinterup","country":"dk","lat":55.586875,"lon":11.216362},{"id":796305,"name":"illerup","country":"dk","lat":55.721409,"lon":11.115268},{"id":796041,"name":"homaa","country":"dk","lat":56.364526,"lon":10.814641},{"id":793286,"name":"arby","country":"dk","lat":55.646625,"lon":11.142077},{"id":793146,"name":"ahl","country":"dk","lat":56.173908,"lon":10.649266},{"id":798915,"name":"ris","country":"dk","lat":55.813102,"lon":11.429879},{"id":793479,"name":"bakkendrup","country":"dk","lat":55.563932,"lon":11.244076},{"id":800123,"name":"stenrand","country":"dk","lat":55.664726,"lon":11.327244},{"id":799102,"name":"ryumgaard","country":"dk","lat":56.384305,"lon":10.502952},{"id":795540,"name":"handrup","country":"dk","lat":56.236546,"lon":10.633491},{"id":800647,"name":"tjornholm","country":"dk","lat":55.95741,"lon":11.467479},{"id":797895,"name":"norager","country":"dk","lat":56.476722,"lon":10.504209},{"id":795522,"name":"hammelev","country":"dk","lat":56.441882,"lon":10.895965},{"id":798630,"name":"permelille","country":"dk","lat":55.808494,"lon":10.581669},{"id":794370,"name":"ebdrup","country":"dk","lat":56.334599,"lon":10.547015},{"id":795279,"name":"gravlev","country":"dk","lat":56.26845,"lon":10.734916},{"id":794809,"name":"follenslev","country":"dk","lat":55.725465,"lon":11.3508},{"id":800325,"name":"stubbe","country":"dk","lat":56.250596,"lon":10.712057},{"id":795230,"name":"godthab","country":"dk","lat":55.685766,"lon":11.393615},{"id":801539,"name":"vollerup overdrev","country":"dk","lat":55.732597,"lon":11.079097},{"id":797568,"name":"mastrup","country":"dk","lat":56.439817,"lon":10.745604},{"id":794414,"name":"egsmark","country":"dk","lat":56.228388,"lon":10.659131},{"id":799477,"name":"skippinge","country":"dk","lat":55.740409,"lon":11.399517},{"id":795638,"name":"havnebyen","country":"dk","lat":55.969999,"lon":11.36491},{"id":793672,"name":"bjergeso","country":"dk","lat":55.753509,"lon":11.416972},{"id":798536,"name":"overby","country":"dk","lat":55.956603,"lon":11.399898},{"id":798298,"name":"orby","country":"dk","lat":55.794082,"lon":10.594687},{"id":800080,"name":"stavns","country":"dk","lat":55.898128,"lon":10.610557},{"id":800431,"name":"syvendekob","country":"dk","lat":55.647698,"lon":11.490788},{"id":798731,"name":"raklev","country":"dk","lat":55.696848,"lon":11.066545},{"id":800044,"name":"stabrand","country":"dk","lat":56.313795,"lon":10.61863},{"id":800435,"name":"taaderup","country":"dk","lat":55.509895,"lon":11.429175},{"id":801454,"name":"vindekilde","country":"dk","lat":55.782307,"lon":11.408013},{"id":794936,"name":"fuglso","country":"dk","lat":56.192907,"lon":10.536033},{"id":799467,"name":"skiffard","country":"dk","lat":56.400395,"lon":10.673946},{"id":795228,"name":"godthab","country":"dk","lat":56.417781,"lon":10.749682},{"id":795767,"name":"herslev","country":"dk","lat":55.526422,"lon":11.315974},{"id":794493,"name":"enebjaerg","country":"dk","lat":55.504604,"lon":10.702985},{"id":793574,"name":"bennebo","country":"dk","lat":55.637405,"lon":11.460847},{"id":793788,"name":"bogens","country":"dk","lat":56.210476,"lon":10.555134},{"id":800613,"name":"tirstrup","country":"dk","lat":56.302857,"lon":10.694236},{"id":797911,"name":"nordby","country":"dk","lat":55.96446,"lon":10.552971},{"id":798799,"name":"reerslev","country":"dk","lat":55.557617,"lon":11.386663},{"id":797570,"name":"mastrup","country":"dk","lat":55.868103,"lon":11.192532},{"id":798530,"name":"overbjaerg","country":"dk","lat":55.72815,"lon":11.023632},{"id":795945,"name":"hojbjaerg","country":"dk","lat":55.634676,"lon":11.293434},{"id":794675,"name":"fejrup","country":"dk","lat":56.132905,"lon":10.500192},{"id":794511,"name":"engvang","country":"dk","lat":55.5042,"lon":11.182051},{"id":794547,"name":"esby","country":"dk","lat":56.12419,"lon":10.537245},{"id":800959,"name":"ubby","country":"dk","lat":55.61853,"lon":11.214546},{"id":794566,"name":"essig","country":"dk","lat":56.291686,"lon":10.558283},{"id":796268,"name":"hyllested","country":"dk","lat":56.281832,"lon":10.766809},{"id":797068,"name":"laen","country":"dk","lat":56.468738,"lon":10.714637},{"id":793241,"name":"alstrup","country":"dk","lat":55.877471,"lon":10.626322},{"id":796846,"name":"kolind","country":"dk","lat":56.360636,"lon":10.583637},{"id":797321,"name":"lodshuse","country":"dk","lat":55.517646,"lon":10.573316},{"id":797101,"name":"langemark","country":"dk","lat":55.846278,"lon":10.624132},{"id":796512,"name":"karleby","country":"dk","lat":56.47381,"lon":10.861931},{"id":801398,"name":"viderup","country":"dk","lat":56.197207,"lon":10.519305},{"id":797314,"name":"little fuglede","country":"dk","lat":55.593771,"lon":11.275277},{"id":793186,"name":"allelev","country":"dk","lat":56.386069,"lon":10.75826},{"id":796575,"name":"kejlstrup","country":"dk","lat":56.267472,"lon":10.556507},{"id":793260,"name":"andaks","country":"dk","lat":55.690284,"lon":11.158868},{"id":800727,"name":"tornved","country":"dk","lat":55.651819,"lon":11.438445},{"id":801626,"name":"yderby","country":"dk","lat":55.976802,"lon":11.346457},{"id":793176,"name":"alerne","country":"dk","lat":56.169092,"lon":10.662542},{"id":798128,"name":"ny farevejle","country":"dk","lat":55.79788,"lon":11.432031},{"id":794657,"name":"favrbo","country":"dk","lat":55.70311,"lon":11.368302},{"id":794751,"name":"fjerupgaarde","country":"dk","lat":56.454696,"lon":10.540769},{"id":798280,"name":"onsbjerg","country":"dk","lat":55.850061,"lon":10.573092},{"id":799433,"name":"skellingsted","country":"dk","lat":55.589932,"lon":11.462257},{"id":794288,"name":"draaby","country":"dk","lat":56.222321,"lon":10.700402},{"id":800149,"name":"stigs bjaergby","country":"dk","lat":55.672377,"lon":11.477993},{"id":795335,"name":"gronfeld","country":"dk","lat":56.253007,"lon":10.5534},{"id":794120,"name":"buerup","country":"dk","lat":55.594113,"lon":11.339141},{"id":796883,"name":"kongsgarde","country":"dk","lat":56.143967,"lon":10.514028},{"id":796590,"name":"kelleklinte","country":"dk","lat":55.624097,"lon":11.256083},{"id":794366,"name":"ebbelokke","country":"dk","lat":55.956128,"lon":11.486207},{"id":794249,"name":"dianalund","country":"dk","lat":55.531326,"lon":11.492499},{"id":799034,"name":"rostved","country":"dk","lat":56.30976,"lon":10.523795},{"id":800003,"name":"spangsbro","country":"dk","lat":55.690676,"lon":11.149263},{"id":794399,"name":"egens","country":"dk","lat":56.268896,"lon":10.516597},{"id":793711,"name":"bjornstrup","country":"dk","lat":55.736641,"lon":10.942465},{"id":800593,"name":"tindingebanke","country":"dk","lat":55.521919,"lon":11.365031},{"id":793196,"name":"alleshave","country":"dk","lat":55.716667,"lon":11.25},{"id":799425,"name":"skellebjerg","country":"dk","lat":55.533823,"lon":11.444707},{"id":794587,"name":"faareveile","country":"dk","lat":55.8,"lon":11.45},{"id":796137,"name":"hove strand","country":"dk","lat":55.847079,"lon":11.496821},{"id":796771,"name":"klovby","country":"dk","lat":55.633446,"lon":11.225781},{"id":796391,"name":"jorlose","country":"dk","lat":55.61111,"lon":11.299009},{"id":796427,"name":"kaastrup","country":"dk","lat":55.687572,"lon":11.135177},{"id":797619,"name":"midskov","country":"dk","lat":55.514099,"lon":10.611567},{"id":795286,"name":"great fuglede","country":"dk","lat":55.585291,"lon":11.244094},{"id":796370,"name":"jerslev","country":"dk","lat":55.610979,"lon":11.241242},{"id":796940,"name":"krarup","country":"dk","lat":56.323685,"lon":10.605628},{"id":799248,"name":"selsinggaarde","country":"dk","lat":55.833733,"lon":10.560297},{"id":799375,"name":"skamstrup","country":"dk","lat":55.619989,"lon":11.486866},{"id":793772,"name":"bodstrup","country":"dk","lat":56.289391,"lon":10.536718},{"id":796453,"name":"kaersholm","country":"dk","lat":56.294846,"lon":10.762516},{"id":794087,"name":"brunby","country":"dk","lat":55.813348,"lon":10.60402},{"id":797119,"name":"langor","country":"dk","lat":55.911975,"lon":10.641811},{"id":801453,"name":"vinde-helsinge","country":"dk","lat":55.528252,"lon":11.196904},{"id":799244,"name":"selkaer","country":"dk","lat":56.464524,"lon":10.742888},{"id":799554,"name":"skovgarde","country":"dk","lat":56.179865,"lon":10.655045},{"id":799728,"name":"sobjerg","country":"dk","lat":55.520356,"lon":11.432364},{"id":793110,"name":"aebeltoft","country":"dk","lat":56.201801,"lon":10.682258},{"id":800161,"name":"stodov","country":"dk","lat":56.129941,"lon":10.509392},{"id":800995,"name":"uglerup","country":"dk","lat":55.586577,"lon":11.369887},{"id":796836,"name":"kolby kas","country":"dk","lat":55.799085,"lon":10.532595},{"id":794128,"name":"buktrup","country":"dk","lat":56.360643,"lon":10.570756},{"id":795633,"name":"havhuse","country":"dk","lat":56.283333,"lon":10.516667},{"id":800479,"name":"tanderup","country":"dk","lat":55.839832,"lon":10.554828},{"id":796837,"name":"kolby","country":"dk","lat":55.798912,"lon":10.556616},{"id":801498,"name":"vistoft","country":"dk","lat":56.195642,"lon":10.509784},{"id":796110,"name":"horv","country":"dk","lat":55.75292,"lon":11.452976},{"id":795760,"name":"herrestrup","country":"dk","lat":55.537197,"lon":11.450188},{"id":799307,"name":"sivested","country":"dk","lat":56.386481,"lon":10.633676},{"id":795499,"name":"halleby ore","country":"dk","lat":55.623763,"lon":11.360357},{"id":796546,"name":"kastbjerg","country":"dk","lat":56.457332,"lon":10.758706},{"id":793582,"name":"besser","country":"dk","lat":55.863685,"lon":10.642247},{"id":797591,"name":"melby","country":"dk","lat":55.651518,"lon":11.110151},{"id":798737,"name":"ramten","country":"dk","lat":56.437573,"lon":10.630319},{"id":796442,"name":"kaerby","country":"dk","lat":55.659256,"lon":11.175298},{"id":794738,"name":"fjellerup mark","country":"dk","lat":56.484017,"lon":10.591098},{"id":801271,"name":"vester balle","country":"dk","lat":56.317303,"lon":10.809786},{"id":801173,"name":"veggerslev","country":"dk","lat":56.474723,"lon":10.836673},{"id":793493,"name":"ballen","country":"dk","lat":55.813568,"lon":10.638599},{"id":793022,"name":"aalsrode","country":"dk","lat":56.347419,"lon":10.863365},{"id":794550,"name":"eskebjaerg","country":"dk","lat":55.712955,"lon":11.304462},{"id":793398,"name":"attrup","country":"dk","lat":56.314132,"lon":10.742888},{"id":796788,"name":"kni","country":"dk","lat":56.430642,"lon":10.710733},{"id":797912,"name":"nordby","country":"dk","lat":55.893756,"lon":11.136572},{"id":796324,"name":"istebjaerg","country":"dk","lat":55.695132,"lon":11.158352},{"id":800371,"name":"svallerup","country":"dk","lat":55.607509,"lon":11.177433},{"id":795641,"name":"havnemark","country":"dk","lat":55.670393,"lon":10.957164},{"id":799116,"name":"saeby","country":"dk","lat":55.546729,"lon":11.305973},{"id":795373,"name":"gudmandstrup","country":"dk","lat":55.712129,"lon":11.449697},{"id":795503,"name":"hallenslev","country":"dk","lat":55.548951,"lon":11.279406},{"id":796049,"name":"hong","country":"dk","lat":55.51027,"lon":11.290181},{"id":794681,"name":"femmoller","country":"dk","lat":56.239498,"lon":10.573972},{"id":796279,"name":"hytten","country":"dk","lat":56.479077,"lon":10.639543},{"id":794620,"name":"fannerup","country":"dk","lat":56.399837,"lon":10.713417},{"id":798635,"name":"pillemark","country":"dk","lat":55.824772,"lon":10.56038},{"id":800353,"name":"sundby","country":"dk","lat":56.384691,"lon":10.583121},{"id":797565,"name":"marup","country":"dk","lat":55.946828,"lon":10.565105},{"id":797883,"name":"nodager","country":"dk","lat":56.345812,"lon":10.635057},{"id":793540,"name":"basballe","country":"dk","lat":56.240964,"lon":10.557152},{"id":794819,"name":"forsinge","country":"dk","lat":55.645301,"lon":11.236528},{"id":797873,"name":"nimtofte","country":"dk","lat":56.408047,"lon":10.56862},{"id":795440,"name":"haardmark","country":"dk","lat":55.812053,"lon":10.555608},{"id":800819,"name":"tranebjerg","country":"dk","lat":55.832599,"lon":10.597231},{"id":794415,"name":"egsmark strand","country":"dk","lat":56.225589,"lon":10.650558},{"id":798852,"name":"revn","country":"dk","lat":56.392389,"lon":10.810767},{"id":794445,"name":"ellede","country":"dk","lat":55.706005,"lon":11.05826},{"id":795057,"name":"gasetofte","country":"dk","lat":55.703446,"lon":11.109446},{"id":795662,"name":"hedegaard","country":"dk","lat":56.484911,"lon":10.674086},{"id":794464,"name":"elsegarde","country":"dk","lat":56.16836,"lon":10.721421},{"id":794935,"name":"fuglslev","country":"dk","lat":56.285947,"lon":10.718198},{"id":796915,"name":"koved","country":"dk","lat":56.37471,"lon":10.56868},{"id":799067,"name":"rugskov","country":"dk","lat":55.508809,"lon":11.401945},{"id":794091,"name":"brundbymark","country":"dk","lat":55.833333,"lon":10.65},{"id":795769,"name":"hersnap","country":"dk","lat":55.521692,"lon":10.675801},{"id":795473,"name":"hagendrup","country":"dk","lat":55.69682,"lon":11.322172},{"id":799974,"name":"sorninge","country":"dk","lat":55.610977,"lon":11.44683},{"id":798534,"name":"overbroen","country":"dk","lat":56.442062,"lon":10.675264},{"id":795876,"name":"hjembaek","country":"dk","lat":55.697852,"lon":11.409039},{"id":800137,"name":"stenvad","country":"dk","lat":56.461586,"lon":10.636576},{"id":796587,"name":"keldstrup","country":"dk","lat":56.357028,"lon":10.625274},{"id":794702,"name":"finderup","country":"dk","lat":55.500868,"lon":11.310965},{"id":793549,"name":"bastrup","country":"dk","lat":55.634934,"lon":11.133355},{"id":795735,"name":"hemmed","country":"dk","lat":56.496954,"lon":10.739073},{"id":794046,"name":"brokkedal","country":"dk","lat":56.4,"lon":10.733333},{"id":794268,"name":"dolmer","country":"dk","lat":56.427931,"lon":10.852959},{"id":793169,"name":"alboge","country":"dk","lat":56.361204,"lon":10.702908},{"id":800677,"name":"toggerbo","country":"dk","lat":56.214483,"lon":10.544013}]});