callback({"markets":[{"id":549190,"name":"niuzhuang","country":"cn","lat":37.344722,"lon":118.4575},{"id":511999,"name":"kuangjao","country":"cn","lat":37.054444,"lon":118.400278},{"id":620688,"name":"xiaotang","country":"cn","lat":37.425278,"lon":117.871389},{"id":626054,"name":"xingfucun","country":"cn","lat":37.447222,"lon":117.525833},{"id":648228,"name":"zhaizi","country":"cn","lat":37.151111,"lon":117.887222},{"id":481014,"name":"heilizhai","country":"cn","lat":37.116667,"lon":117.666667},{"id":601622,"name":"tsingchow","country":"cn","lat":36.696667,"lon":118.479722},{"id":456466,"name":"diaozhen","country":"cn","lat":36.883333,"lon":117.5},{"id":434933,"name":"changshanhsien","country":"cn","lat":36.883333,"lon":117.833333},{"id":601811,"name":"tsoupinghsien","country":"cn","lat":36.883333,"lon":117.7},{"id":429482,"name":"bincheng","country":"cn","lat":37.479444,"lon":117.965833},{"id":589686,"name":"sunzhen","country":"cn","lat":37.05,"lon":117.633333},{"id":625213,"name":"ximatou","country":"cn","lat":37.013611,"lon":117.516111},{"id":441960,"name":"chingchiachuang","country":"cn","lat":37.033333,"lon":117.983333},{"id":560342,"name":"qinghezhen","country":"cn","lat":37.266667,"lon":117.65},{"id":561264,"name":"qingyang","country":"cn","lat":36.883333,"lon":117.6},{"id":462169,"name":"duji","country":"cn","lat":37.221944,"lon":117.761667},{"id":606513,"name":"wangfen","country":"cn","lat":36.55,"lon":118.383333},{"id":451249,"name":"danianchen","country":"cn","lat":37.183333,"lon":117.55},{"id":609899,"name":"weiji","country":"cn","lat":37.290556,"lon":117.754167},{"id":531013,"name":"lungchuan","country":"cn","lat":36.583333,"lon":117.966667},{"id":539360,"name":"mengshui","country":"cn","lat":36.733333,"lon":117.9},{"id":497914,"name":"hungshan","country":"cn","lat":36.633333,"lon":117.966667},{"id":616061,"name":"xiajiaqiao","country":"cn","lat":37.409167,"lon":117.779167},{"id":598071,"name":"tianzhencun","country":"cn","lat":37.172778,"lon":117.830833},{"id":625472,"name":"xinbincheng","country":"cn","lat":37.477222,"lon":117.975278},{"id":572755,"name":"shangtien","country":"cn","lat":37.4,"lon":117.866667},{"id":505412,"name":"jinlingzhen","country":"cn","lat":36.799167,"lon":118.193333},{"id":437946,"name":"chengli","country":"cn","lat":37.183333,"lon":117.7},{"id":654379,"name":"zhoucun","country":"cn","lat":36.816667,"lon":117.816667},{"id":543771,"name":"nanchiuchuang","country":"cn","lat":36.75,"lon":118.233333},{"id":445925,"name":"chutai","country":"cn","lat":36.95,"lon":118.25},{"id":438456,"name":"chenhu","country":"cn","lat":37.233333,"lon":118.2},{"id":429628,"name":"binxian","country":"cn","lat":37.466667,"lon":117.933333},{"id":651059,"name":"zhaotongjia","country":"cn","lat":37.3175,"lon":117.935556},{"id":525119,"name":"liujiatao","country":"cn","lat":37.043889,"lon":117.819167},{"id":463172,"name":"erbaosun","country":"cn","lat":37.487778,"lon":117.61},{"id":643029,"name":"yuanhe","country":"cn","lat":37.163333,"lon":117.932778},{"id":616839,"name":"xiandizhou","country":"cn","lat":37.375,"lon":117.649722},{"id":595242,"name":"taotangkou","country":"cn","lat":37.076111,"lon":117.816944},{"id":491586,"name":"huaguan","country":"cn","lat":37.216667,"lon":118.416667},{"id":458994,"name":"dongji","country":"cn","lat":37.483333,"lon":118.366667},{"id":479230,"name":"handian","country":"cn","lat":36.95,"lon":117.716667},{"id":587036,"name":"sochen","country":"cn","lat":36.953889,"lon":118.104722},{"id":592880,"name":"tangfang","country":"cn","lat":37.2,"lon":117.983333},{"id":428389,"name":"beisi","country":"cn","lat":37.233333,"lon":118.416667},{"id":507281,"name":"jiuzhen","country":"cn","lat":37.25,"lon":118.0},{"id":640810,"name":"yinjiaji","country":"cn","lat":37.459167,"lon":117.891111},{"id":577933,"name":"shicun","country":"cn","lat":37.15,"lon":118.366667},{"id":443219,"name":"chiuchitung","country":"cn","lat":37.033333,"lon":117.6},{"id":657218,"name":"zibo","country":"cn","lat":36.790556,"lon":118.063333},{"id":489996,"name":"hsingfu","country":"cn","lat":37.05,"lon":118.283333},{"id":480144,"name":"haoshengdian","country":"cn","lat":36.816667,"lon":117.783333},{"id":633825,"name":"yangjiafang","country":"cn","lat":37.216667,"lon":117.628889},{"id":555463,"name":"pohsing","country":"cn","lat":37.133333,"lon":118.083333},{"id":592178,"name":"talinchih","country":"cn","lat":36.716667,"lon":117.766667},{"id":542410,"name":"muli","country":"cn","lat":37.200278,"lon":117.6975},{"id":578835,"name":"shihkou","country":"cn","lat":37.433333,"lon":118.383333},{"id":611202,"name":"wentsu","country":"cn","lat":36.583333,"lon":117.5},{"id":434026,"name":"changjia","country":"cn","lat":37.22,"lon":117.830278},{"id":523313,"name":"lintzu","country":"cn","lat":36.810278,"lon":118.296389},{"id":461787,"name":"dudian","country":"cn","lat":37.383333,"lon":117.933333},{"id":523572,"name":"lique","country":"cn","lat":36.983333,"lon":118.35},{"id":470468,"name":"gaocheng","country":"cn","lat":37.1,"lon":117.933333},{"id":432011,"name":"caowang","country":"cn","lat":37.033333,"lon":118.133333},{"id":591069,"name":"taihe","country":"cn","lat":36.516667,"lon":118.116667},{"id":633893,"name":"yangjiaji","country":"cn","lat":37.434167,"lon":117.963889},{"id":552695,"name":"peichen","country":"cn","lat":37.366667,"lon":118.016667},{"id":540851,"name":"mingshuichen","country":"cn","lat":36.716667,"lon":117.5},{"id":525070,"name":"liujiaqiao","country":"cn","lat":37.370833,"lon":117.6975},{"id":591911,"name":"taizili","country":"cn","lat":37.256944,"lon":117.841111},{"id":490534,"name":"hsintien","country":"cn","lat":36.7975,"lon":118.294444},{"id":502466,"name":"jiaoqiao","country":"cn","lat":37.016667,"lon":117.833333},{"id":657275,"name":"zihedian","country":"cn","lat":36.8,"lon":118.366667},{"id":653354,"name":"zhongjiaying","country":"cn","lat":37.325833,"lon":117.559167},{"id":464869,"name":"fanjialin","country":"cn","lat":37.0875,"lon":117.852222},{"id":528027,"name":"longju","country":"cn","lat":37.366667,"lon":118.3},{"id":528406,"name":"longsangshu","country":"cn","lat":37.083611,"lon":117.737778},{"id":617436,"name":"xiangqu","country":"cn","lat":37.4725,"lon":117.572222},{"id":457058,"name":"dingjiazhuang","country":"cn","lat":37.308889,"lon":117.686111},{"id":594839,"name":"taohsu","country":"cn","lat":37.316667,"lon":118.083333},{"id":593634,"name":"tangshan","country":"cn","lat":36.966667,"lon":118.033333},{"id":431043,"name":"caizhai","country":"cn","lat":37.333333,"lon":118.166667},{"id":500828,"name":"jiangjia","country":"cn","lat":37.229722,"lon":117.513333},{"id":438609,"name":"chenjiaji","country":"cn","lat":37.4125,"lon":117.752778},{"id":524011,"name":"litsechen","country":"cn","lat":37.35,"lon":117.8},{"id":446150,"name":"cicun","country":"cn","lat":36.616667,"lon":117.833333},{"id":488640,"name":"hsiaoying","country":"cn","lat":37.266667,"lon":118.066667},{"id":448628,"name":"dahegou","country":"cn","lat":37.172778,"lon":117.754167},{"id":527002,"name":"lizhuang","country":"cn","lat":37.283333,"lon":117.583333},{"id":604764,"name":"tzuchuanhsien","country":"cn","lat":36.65,"lon":117.933333},{"id":445694,"name":"chunhuazhen","country":"cn","lat":37.266667,"lon":118.283333},{"id":454994,"name":"dazhao","country":"cn","lat":37.430833,"lon":117.924167},{"id":631243,"name":"xuguan","country":"cn","lat":37.227222,"lon":117.882222},{"id":457394,"name":"disanbao","country":"cn","lat":37.361111,"lon":117.534444},{"id":464846,"name":"fanjia","country":"cn","lat":37.344722,"lon":117.690833},{"id":620413,"name":"xiaosangluoshu","country":"cn","lat":37.493333,"lon":117.659167},{"id":489335,"name":"hsihochuang","country":"cn","lat":36.5,"lon":117.916667},{"id":525850,"name":"liushugaocun","country":"cn","lat":37.144167,"lon":117.692222},{"id":651035,"name":"zhaosiwu","country":"cn","lat":37.327778,"lon":117.9975},{"id":523456,"name":"linzicheng","country":"cn","lat":36.849722,"lon":118.344722},{"id":650534,"name":"zhaodian","country":"cn","lat":37.246667,"lon":117.936944},{"id":520263,"name":"lichinghsien","country":"cn","lat":37.492778,"lon":118.256667},{"id":524220,"name":"liuchiao","country":"cn","lat":37.1,"lon":118.166667},{"id":481247,"name":"heiwang","country":"cn","lat":36.633333,"lon":118.183333},{"id":509925,"name":"kaoyuan","country":"cn","lat":37.083333,"lon":117.916667},{"id":498588,"name":"hushan","country":"cn","lat":36.616667,"lon":117.6},{"id":483188,"name":"hetaosunjia","country":"cn","lat":37.447778,"lon":117.746667},{"id":539230,"name":"mengji","country":"cn","lat":37.146389,"lon":117.638611},{"id":480759,"name":"hegou","country":"cn","lat":37.031944,"lon":117.585833},{"id":608084,"name":"wangtsunchen","country":"cn","lat":36.683333,"lon":117.683333},{"id":599717,"name":"tongbin","country":"cn","lat":37.25,"lon":118.116667},{"id":592068,"name":"takunlun","country":"cn","lat":36.583333,"lon":117.883333},{"id":577003,"name":"shenqiao","country":"cn","lat":37.291667,"lon":117.602222},{"id":591936,"name":"taizi","country":"cn","lat":37.1,"lon":117.5},{"id":537095,"name":"maqiao","country":"cn","lat":37.039167,"lon":117.911667},{"id":537253,"name":"mashang","country":"cn","lat":36.8,"lon":117.95},{"id":470875,"name":"gaojiaji","country":"cn","lat":37.311389,"lon":117.875},{"id":556584,"name":"putsih","country":"cn","lat":36.7,"lon":117.616667},{"id":496743,"name":"huilicun","country":"cn","lat":37.026111,"lon":117.749722},{"id":597263,"name":"tianjialou","country":"cn","lat":37.281111,"lon":117.9875},{"id":604058,"name":"tungying","country":"cn","lat":37.456389,"lon":118.485556},{"id":527148,"name":"lochiachuang","country":"cn","lat":36.68,"lon":118.073889},{"id":614218,"name":"wuting","country":"cn","lat":37.481389,"lon":117.505833},{"id":468348,"name":"fungshui","country":"cn","lat":36.746389,"lon":118.080833},{"id":545860,"name":"nanting","country":"cn","lat":36.748333,"lon":118.055833},{"id":634552,"name":"yangliuxue","country":"cn","lat":37.433333,"lon":117.933333},{"id":446550,"name":"cuijiaxiang","country":"cn","lat":37.125,"lon":117.863611},{"id":446024,"name":"chuya","country":"cn","lat":36.633333,"lon":118.216667},{"id":557099,"name":"qianchenzhuang","country":"cn","lat":37.014167,"lon":117.9225},{"id":499107,"name":"hwantai","country":"cn","lat":36.95,"lon":117.916667},{"id":491578,"name":"huagou","country":"cn","lat":37.15,"lon":117.75}]});