callback({"markets":[{"id":3049912,"name":"colonia arrue","country":"uy","lat":-33.9833333,"lon":-58.15},{"id":3049812,"name":"came","country":"uy","lat":-33.8666667,"lon":-57.6166667},{"id":3049718,"name":"agraciada","country":"uy","lat":-33.8,"lon":-58.25},{"id":3049723,"name":"aguila","country":"uy","lat":-33.6,"lon":-57.9833333},{"id":3050572,"name":"risso","country":"uy","lat":-33.5833333,"lon":-57.5833333},{"id":3050152,"name":"la paraguaya","country":"uy","lat":-33.5833333,"lon":-58.0833333},{"id":3050756,"name":"villa alesandrina","country":"uy","lat":-33.7666667,"lon":-58.35},{"id":3050544,"name":"riachuelo","country":"uy","lat":-34.4666667,"lon":-57.7166667},{"id":3049933,"name":"conchillas","country":"uy","lat":-34.1522222,"lon":-58.0125},{"id":3050644,"name":"santa teresa","country":"uy","lat":-34.4333333,"lon":-57.7166667},{"id":3050625,"name":"san pedro","country":"uy","lat":-34.35,"lon":-57.85},{"id":3050305,"name":"palmitas","country":"uy","lat":-33.5166667,"lon":-57.8333333},{"id":3050525,"name":"puntas duraznito","country":"uy","lat":-33.65,"lon":-57.5333333},{"id":3050075,"name":"guerrero","country":"uy","lat":-33.85,"lon":-57.6833333},{"id":3049996,"name":"el cerro","country":"uy","lat":-33.95,"lon":-58.2333333},{"id":3050532,"name":"radial conchillas","country":"uy","lat":-34.1,"lon":-58.0},{"id":3050722,"name":"tres bocas","country":"uy","lat":-33.7333333,"lon":-57.8333333},{"id":3050010,"name":"el semillero","country":"uy","lat":-34.4166667,"lon":-57.7333333},{"id":3049818,"name":"canada nieto","country":"uy","lat":-33.7166667,"lon":-58.0833333},{"id":3050539,"name":"real de san carlos","country":"uy","lat":-34.4333333,"lon":-57.8833333},{"id":3050003,"name":"el general","country":"uy","lat":-34.4,"lon":-57.8833333},{"id":3050322,"name":"paso de la horqueta","country":"uy","lat":-34.2,"lon":-57.8666667},{"id":127710,"name":"anchorena","country":"ar","lat":-34.490473,"lon":-58.482135},{"id":3050202,"name":"los cerros de san juan","country":"uy","lat":-34.1833333,"lon":-57.9333333},{"id":3050658,"name":"sarandi","country":"uy","lat":-33.95,"lon":-57.9},{"id":3050487,"name":"pueblo egana","country":"uy","lat":-33.6166667,"lon":-57.6333333},{"id":3050516,"name":"puntas del arenal","country":"uy","lat":-33.7166667,"lon":-58.2666667},{"id":3049922,"name":"colonia miguelete","country":"uy","lat":-34.0166667,"lon":-57.65},{"id":3049877,"name":"cerro de las armas","country":"uy","lat":-34.0666667,"lon":-57.7166667},{"id":3050034,"name":"estanzuela","country":"uy","lat":-34.3333333,"lon":-57.7166667},{"id":3049799,"name":"bone","country":"uy","lat":-34.0333333,"lon":-57.8333333},{"id":3049981,"name":"dolores","country":"uy","lat":-33.5441667,"lon":-58.1972222},{"id":3049758,"name":"artilleros","country":"uy","lat":-34.3666667,"lon":-57.5666667},{"id":3049925,"name":"colonia ombues de lavalle","country":"uy","lat":-33.9166667,"lon":-57.7833333},{"id":3049919,"name":"colonia estrella","country":"uy","lat":-33.9666667,"lon":-58.2833333},{"id":3049844,"name":"carmelo","country":"uy","lat":-33.9891667,"lon":-58.2855556},{"id":3050237,"name":"martin chico","country":"uy","lat":-34.1530556,"lon":-58.1766667},{"id":3050316,"name":"paso de antolin","country":"uy","lat":-34.2,"lon":-57.7833333},{"id":3049953,"name":"costa de viboras","country":"uy","lat":-33.9333333,"lon":-58.1666667},{"id":3049993,"name":"el cano","country":"uy","lat":-34.4,"lon":-57.6666667},{"id":3050806,"name":"zanja honda","country":"uy","lat":-33.8166667,"lon":-57.55},{"id":3050383,"name":"platero","country":"uy","lat":-34.45,"lon":-57.6},{"id":3050018,"name":"e. robo","country":"uy","lat":-33.6833333,"lon":-57.5666667},{"id":3049853,"name":"castillo","country":"uy","lat":-33.8833333,"lon":-57.6666667},{"id":3050194,"name":"lomas de carmelo","country":"uy","lat":-33.9833333,"lon":-58.25},{"id":3050623,"name":"san martin","country":"uy","lat":-33.75,"lon":-57.6166667},{"id":3050587,"name":"sacramento","country":"uy","lat":-34.4666667,"lon":-57.85},{"id":3050703,"name":"tarariras","country":"uy","lat":-34.2833333,"lon":-57.6166667},{"id":3050281,"name":"nueva palmira","country":"uy","lat":-33.8833333,"lon":-58.4166667},{"id":3049814,"name":"campana","country":"uy","lat":-33.9833333,"lon":-57.9},{"id":3050023,"name":"espinillo","country":"uy","lat":-33.6166667,"lon":-58.2833333},{"id":3049803,"name":"buenahora","country":"uy","lat":-34.0333333,"lon":-58.1333333}]});