callback({"markets":[{"id":145134,"name":"peresdorf","country":"at","lat":48.183333,"lon":15.716667},{"id":147236,"name":"schauching","country":"at","lat":48.15,"lon":15.666667},{"id":146390,"name":"rohrberg","country":"at","lat":48.083333,"lon":16.15},{"id":138749,"name":"gadenweith","country":"at","lat":47.75,"lon":15.933333},{"id":147260,"name":"scheiblingkirchen","country":"at","lat":47.65,"lon":16.133333},{"id":148019,"name":"spratzern","country":"at","lat":48.166667,"lon":15.616667},{"id":147083,"name":"sankt veit an der golsen","country":"at","lat":48.033333,"lon":15.666667},{"id":145649,"name":"pressbaum","country":"at","lat":48.183333,"lon":16.083333},{"id":144853,"name":"odenhof","country":"at","lat":47.766667,"lon":15.95},{"id":143478,"name":"mollmannsdorf","country":"at","lat":48.4,"lon":16.4},{"id":139308,"name":"grafenegg","country":"at","lat":48.416667,"lon":15.733333},{"id":143048,"name":"marienhohen","country":"at","lat":48.4,"lon":16.2},{"id":150829,"name":"zogersbach","country":"at","lat":48.0,"lon":15.533333},{"id":148406,"name":"streithofen","country":"at","lat":48.283333,"lon":15.95},{"id":142122,"name":"kuffern","country":"at","lat":48.333333,"lon":15.65},{"id":141700,"name":"kleinwolkersdorf","country":"at","lat":47.75,"lon":16.25},{"id":145854,"name":"ragelsdorf","country":"at","lat":48.25,"lon":15.65},{"id":144264,"name":"obereck","country":"at","lat":47.566667,"lon":16.25},{"id":142818,"name":"luberg","country":"at","lat":48.116667,"lon":15.55},{"id":150779,"name":"zillingtal","country":"at","lat":47.816667,"lon":16.4},{"id":136625,"name":"asperhofen","country":"at","lat":48.233333,"lon":15.916667},{"id":149672,"name":"vorderbruhl","country":"at","lat":48.083333,"lon":16.25},{"id":142647,"name":"lilienfeld","country":"at","lat":48.016667,"lon":15.633333},{"id":150021,"name":"weikersdorf","country":"at","lat":47.8,"lon":16.133333},{"id":148568,"name":"tautendorf","country":"at","lat":48.283333,"lon":15.85},{"id":140901,"name":"inner city","country":"at","lat":48.216667,"lon":16.366667},{"id":146487,"name":"rotheau","country":"at","lat":48.066667,"lon":15.583333},{"id":149564,"name":"velm","country":"at","lat":48.033333,"lon":16.433333},{"id":137815,"name":"ebersreith","country":"at","lat":48.15,"lon":15.733333},{"id":140967,"name":"inzersdorf","country":"at","lat":48.150278,"lon":16.347222},{"id":143958,"name":"neutal","country":"at","lat":47.533333,"lon":16.433333},{"id":144201,"name":"oberbergern","country":"at","lat":48.366667,"lon":15.533333},{"id":138077,"name":"emmerberg","country":"at","lat":47.816667,"lon":16.1},{"id":147281,"name":"scheuchenstein","country":"at","lat":47.833333,"lon":15.983333},{"id":143962,"name":"neuwaldegg","country":"at","lat":48.233333,"lon":16.283333},{"id":141225,"name":"kapelln","country":"at","lat":48.25,"lon":15.75},{"id":143823,"name":"neufeld an der leitha","country":"at","lat":47.85,"lon":16.366667},{"id":148995,"name":"unteraigen","country":"at","lat":48.333333,"lon":16.133333},{"id":149516,"name":"unterzogersdorf","country":"at","lat":48.366667,"lon":16.166667},{"id":139236,"name":"gostritz","country":"at","lat":47.633333,"lon":15.883333},{"id":143780,"name":"neu-albern","country":"at","lat":48.167222,"lon":16.478611},{"id":142084,"name":"krottenbach","country":"at","lat":47.866667,"lon":16.0},{"id":148136,"name":"steinabruckl","country":"at","lat":47.866667,"lon":16.2},{"id":148903,"name":"tulbing","country":"at","lat":48.283333,"lon":16.116667},{"id":139661,"name":"grunddorf","country":"at","lat":48.266667,"lon":15.833333},{"id":147703,"name":"seeschlacht","country":"at","lat":48.3,"lon":16.366667},{"id":140465,"name":"hirschstetten","country":"at","lat":48.233333,"lon":16.466667},{"id":143256,"name":"michelhausen","country":"at","lat":48.283333,"lon":15.933333},{"id":148879,"name":"trubensee","country":"at","lat":48.35,"lon":16.033333},{"id":143471,"name":"molfritz","country":"at","lat":47.633333,"lon":16.066667},{"id":150365,"name":"wimpassing an der leitha","country":"at","lat":47.916667,"lon":16.433333},{"id":143497,"name":"monichkirchen","country":"at","lat":47.5,"lon":16.033333},{"id":149465,"name":"unterwagram","country":"at","lat":48.2,"lon":15.65},{"id":145861,"name":"raglitz","country":"at","lat":47.75,"lon":16.05},{"id":150038,"name":"weinburg","country":"at","lat":48.1,"lon":15.516667},{"id":145031,"name":"palt","country":"at","lat":48.4,"lon":15.616667},{"id":137738,"name":"durlass","country":"at","lat":48.066667,"lon":15.75},{"id":148781,"name":"totzenbach","country":"at","lat":48.216667,"lon":15.816667},{"id":150227,"name":"wieden","country":"at","lat":47.583333,"lon":16.016667},{"id":137194,"name":"breitenfurt bei wien","country":"at","lat":48.133333,"lon":16.15},{"id":149063,"name":"untereck","country":"at","lat":47.566667,"lon":16.283333},{"id":144514,"name":"obermamau","country":"at","lat":48.233333,"lon":15.583333},{"id":143964,"name":"neuweidling","country":"at","lat":48.416667,"lon":15.666667},{"id":149636,"name":"vois","country":"at","lat":47.816667,"lon":15.75},{"id":142505,"name":"leitzersbrunn","country":"at","lat":48.4,"lon":16.233333},{"id":144553,"name":"oberndorf an der ebene","country":"at","lat":48.266667,"lon":15.683333},{"id":136181,"name":"ahragartensiedlung","country":"at","lat":48.4,"lon":16.166667},{"id":149370,"name":"unterried","country":"at","lat":48.016667,"lon":15.816667},{"id":145685,"name":"prunst","country":"at","lat":48.066667,"lon":15.766667},{"id":145608,"name":"prater","country":"at","lat":48.199444,"lon":16.431111},{"id":146090,"name":"reichgruben","country":"at","lat":48.2,"lon":15.683333},{"id":137293,"name":"brunn bei pitten","country":"at","lat":47.716667,"lon":16.183333},{"id":150345,"name":"willendorf","country":"at","lat":47.783333,"lon":16.05},{"id":141914,"name":"kottlach","country":"at","lat":47.666667,"lon":15.983333},{"id":140172,"name":"hausenbach","country":"at","lat":48.25,"lon":15.55},{"id":147605,"name":"schwarzenbach an der golsen","country":"at","lat":48.066667,"lon":15.65},{"id":149776,"name":"wagram an der traisen","country":"at","lat":48.366667,"lon":15.716667},{"id":141154,"name":"kalksburg","country":"at","lat":48.133333,"lon":16.25},{"id":136387,"name":"altlengbach","country":"at","lat":48.15,"lon":15.916667},{"id":138497,"name":"fohrenhain","country":"at","lat":48.316667,"lon":16.45},{"id":149019,"name":"unterbergern","country":"at","lat":48.366667,"lon":15.55},{"id":147237,"name":"schaueregg","country":"at","lat":47.533333,"lon":16.183333},{"id":142352,"name":"langseiten","country":"at","lat":48.166667,"lon":16.133333},{"id":150818,"name":"zobern","country":"at","lat":47.5,"lon":16.116667},{"id":146631,"name":"saladorf","country":"at","lat":48.283333,"lon":15.866667},{"id":146718,"name":"sankt corona am schopfl","country":"at","lat":48.066667,"lon":15.916667},{"id":150517,"name":"wolfersdorf","country":"at","lat":48.2,"lon":15.85},{"id":150336,"name":"wilhelmsburg","country":"at","lat":48.1,"lon":15.6},{"id":139644,"name":"grunau","country":"at","lat":48.1,"lon":15.5},{"id":144441,"name":"oberkilling","country":"at","lat":48.266667,"lon":15.766667},{"id":148086,"name":"stang","country":"at","lat":47.533333,"lon":16.283333},{"id":138703,"name":"funfhaus","country":"at","lat":48.183333,"lon":16.333333},{"id":145208,"name":"pettenau","country":"at","lat":48.2,"lon":15.833333},{"id":140253,"name":"helenental","country":"at","lat":48.016667,"lon":16.183333},{"id":142078,"name":"kropfsdorf","country":"at","lat":48.05,"lon":15.683333},{"id":141107,"name":"kagran","country":"at","lat":48.25,"lon":16.416667},{"id":147761,"name":"sellhof","country":"at","lat":47.6,"lon":16.016667},{"id":144327,"name":"oberganserndorf","country":"at","lat":48.416667,"lon":16.366667},{"id":149472,"name":"unterwaltersdorf","country":"at","lat":47.95,"lon":16.416667},{"id":136492,"name":"angern","country":"at","lat":48.3,"lon":15.733333},{"id":148708,"name":"tiefenfucha","country":"at","lat":48.366667,"lon":15.65},{"id":148062,"name":"stallbach","country":"at","lat":48.15,"lon":15.816667},{"id":138905,"name":"gedersdorf","country":"at","lat":48.433333,"lon":15.683333},{"id":141207,"name":"kampichel","country":"at","lat":47.533333,"lon":16.15},{"id":148328,"name":"stollhof","country":"at","lat":47.816667,"lon":16.066667},{"id":138930,"name":"gemersdorf","country":"at","lat":48.2,"lon":15.75},{"id":141694,"name":"kleinwien","country":"at","lat":48.366667,"lon":15.616667},{"id":148983,"name":"unterabsdorf","country":"at","lat":48.4,"lon":15.983333},{"id":148201,"name":"steinhaus am semmering","country":"at","lat":47.616667,"lon":15.8},{"id":147679,"name":"seebach","country":"at","lat":47.866667,"lon":15.616667},{"id":136309,"name":"alpl","country":"at","lat":47.683333,"lon":15.566667},{"id":137974,"name":"eichleiten","country":"at","lat":48.366667,"lon":16.416667},{"id":140306,"name":"hetzendorf","country":"at","lat":48.166667,"lon":16.3},{"id":145246,"name":"pfaffstatten","country":"at","lat":48.016667,"lon":16.266667},{"id":150083,"name":"weissenbach","country":"at","lat":47.65,"lon":15.9},{"id":143651,"name":"mullendorf","country":"at","lat":47.833333,"lon":16.45},{"id":146632,"name":"salau","country":"at","lat":48.183333,"lon":15.533333},{"id":139524,"name":"grosskrottenbach","country":"at","lat":48.066667,"lon":16.016667},{"id":149977,"name":"weibnitz","country":"at","lat":47.666667,"lon":16.066667},{"id":140861,"name":"imbach","country":"at","lat":48.45,"lon":15.583333},{"id":139390,"name":"griechenberg","country":"at","lat":48.25,"lon":15.533333},{"id":143192,"name":"meidling","country":"at","lat":48.333333,"lon":15.616667},{"id":142319,"name":"langegg","country":"at","lat":47.533333,"lon":16.05},{"id":143503,"name":"moosbach","country":"at","lat":47.95,"lon":15.533333},{"id":150751,"name":"zemendorf","country":"at","lat":47.75,"lon":16.45},{"id":136321,"name":"altenberg","country":"at","lat":48.333333,"lon":16.233333},{"id":137403,"name":"buttendorf","country":"at","lat":48.333333,"lon":15.85},{"id":150801,"name":"zissersdorf","country":"at","lat":48.4,"lon":16.133333},{"id":148103,"name":"stattersdorf","country":"at","lat":48.183333,"lon":15.633333},{"id":144985,"name":"ottertal","country":"at","lat":47.616667,"lon":15.933333},{"id":144699,"name":"obersievering","country":"at","lat":48.25,"lon":16.316667},{"id":150626,"name":"wurmla","country":"at","lat":48.25,"lon":15.85},{"id":137970,"name":"eichgraben","country":"at","lat":48.166667,"lon":15.983333},{"id":140925,"name":"innermanzing","country":"at","lat":48.133333,"lon":15.9},{"id":137416,"name":"dachsbach","country":"at","lat":48.133333,"lon":15.8},{"id":145171,"name":"perschenegg","country":"at","lat":48.133333,"lon":15.7},{"id":146745,"name":"sankt georgen am steinfelde","country":"at","lat":48.133333,"lon":15.6},{"id":145906,"name":"rammersdorf","country":"at","lat":48.133333,"lon":15.5},{"id":144907,"name":"olbersdorf","country":"at","lat":47.583333,"lon":16.116667},{"id":142371,"name":"lanzendorf","country":"at","lat":48.110556,"lon":16.445},{"id":137706,"name":"dreistetten","country":"at","lat":47.85,"lon":16.1},{"id":137468,"name":"deutschbrodersdorf","country":"at","lat":47.933333,"lon":16.466667},{"id":137529,"name":"dietmannsdorf","country":"at","lat":48.116667,"lon":15.516667},{"id":144271,"name":"obereggendorf","country":"at","lat":47.85,"lon":16.3},{"id":140136,"name":"hasleiten","country":"at","lat":47.616667,"lon":16.033333},{"id":142300,"name":"landsee","country":"at","lat":47.55,"lon":16.333333},{"id":142939,"name":"mallon","country":"at","lat":48.433333,"lon":15.866667},{"id":148799,"name":"trainst","country":"at","lat":48.133333,"lon":15.883333},{"id":145761,"name":"putzmannsdorf","country":"at","lat":47.683333,"lon":16.0},{"id":146580,"name":"rust im tullnerfeld","country":"at","lat":48.3,"lon":15.916667},{"id":145401,"name":"pixendorf","country":"at","lat":48.283333,"lon":15.966667},{"id":143170,"name":"mayerling","country":"at","lat":48.05,"lon":16.1},{"id":141128,"name":"kaiserebersdorf","country":"at","lat":48.158333,"lon":16.474167},{"id":145172,"name":"perschling","country":"at","lat":48.25,"lon":15.8},{"id":148081,"name":"stangau","country":"at","lat":48.1,"lon":16.116667},{"id":147748,"name":"seitzersdorf-wolfpassing","country":"at","lat":48.4,"lon":16.083333},{"id":149543,"name":"utzenlaa","country":"at","lat":48.366667,"lon":15.95},{"id":149275,"name":"untermamau","country":"at","lat":48.25,"lon":15.6},{"id":139958,"name":"hainfeld","country":"at","lat":48.033333,"lon":15.766667},{"id":146430,"name":"roppersberg","country":"at","lat":48.166667,"lon":16.15},{"id":150412,"name":"windpassing","country":"at","lat":48.15,"lon":15.633333},{"id":147847,"name":"sigless","country":"at","lat":47.783333,"lon":16.383333},{"id":150828,"name":"zogernsee","country":"at","lat":48.383333,"lon":16.15},{"id":149427,"name":"unterstockstall","country":"at","lat":48.433333,"lon":15.933333},{"id":147619,"name":"schwarzengrunde","country":"at","lat":47.766667,"lon":15.933333},{"id":150784,"name":"zimmersdorf","country":"at","lat":47.583333,"lon":15.65},{"id":149332,"name":"unterpiesting","country":"at","lat":47.866667,"lon":16.133333},{"id":145565,"name":"pottendorf","country":"at","lat":47.9,"lon":16.383333},{"id":148231,"name":"stellenwiese","country":"at","lat":48.3,"lon":16.266667},{"id":143897,"name":"neunkirchen","country":"at","lat":47.716667,"lon":16.083333},{"id":149266,"name":"unterloiben","country":"at","lat":48.383333,"lon":15.533333},{"id":139884,"name":"hafing","country":"at","lat":48.2,"lon":15.583333},{"id":143854,"name":"neukagran","country":"at","lat":48.238611,"lon":16.451389},{"id":141269,"name":"kasberg","country":"at","lat":48.083333,"lon":15.783333},{"id":149060,"name":"unterdurrwien","country":"at","lat":48.166667,"lon":16.05},{"id":148608,"name":"teufelhof","country":"at","lat":48.183333,"lon":15.616667},{"id":142304,"name":"landsthal","country":"at","lat":48.033333,"lon":15.75},{"id":138217,"name":"etsdorf am kamp","country":"at","lat":48.433333,"lon":15.733333},{"id":144588,"name":"oberparschenbrunn","country":"at","lat":48.466667,"lon":16.1},{"id":146536,"name":"ruckersdorf","country":"at","lat":48.383333,"lon":16.366667},{"id":138830,"name":"ganzendorf","country":"at","lat":48.133333,"lon":15.616667},{"id":137271,"name":"bruderndorf","country":"at","lat":48.466667,"lon":16.3},{"id":139424,"name":"grinzing","country":"at","lat":48.25,"lon":16.333333},{"id":142328,"name":"langenrohr","country":"at","lat":48.3,"lon":16.0},{"id":138203,"name":"eschenau","country":"at","lat":48.033333,"lon":15.566667},{"id":142955,"name":"manhartsbrunn","country":"at","lat":48.383333,"lon":16.416667},{"id":148072,"name":"stamersdorf","country":"at","lat":48.3,"lon":16.4},{"id":148801,"name":"traisen","country":"at","lat":48.033333,"lon":15.6},{"id":150853,"name":"zweiersdorf","country":"at","lat":47.8,"lon":16.033333},{"id":148147,"name":"steinaweg","country":"at","lat":48.366667,"lon":15.6},{"id":145876,"name":"rainfeld","country":"at","lat":48.033333,"lon":15.7},{"id":148324,"name":"stollberg","country":"at","lat":48.083333,"lon":15.833333},{"id":149558,"name":"veitsch","country":"at","lat":47.583333,"lon":15.5},{"id":150487,"name":"witzendorf","country":"at","lat":48.216667,"lon":15.583333},{"id":146241,"name":"ried am riederberg","country":"at","lat":48.25,"lon":16.066667},{"id":143693,"name":"murstetten","country":"at","lat":48.233333,"lon":15.816667},{"id":144808,"name":"oberwinden","country":"at","lat":48.3,"lon":15.716667},{"id":137950,"name":"eibesbrunn","country":"at","lat":48.35,"lon":16.483333},{"id":150405,"name":"windischhutte","country":"at","lat":48.283333,"lon":16.216667},{"id":141293,"name":"katzelsdorf an der zeil","country":"at","lat":48.266667,"lon":16.116667},{"id":146713,"name":"sankt christofen","country":"at","lat":48.166667,"lon":15.883333},{"id":143486,"name":"molzegg","country":"at","lat":47.583333,"lon":15.966667},{"id":148003,"name":"spital","country":"at","lat":48.266667,"lon":15.933333},{"id":147296,"name":"schildberg","country":"at","lat":48.216667,"lon":15.733333},{"id":141357,"name":"kerschenbach","country":"at","lat":48.066667,"lon":15.683333},{"id":149855,"name":"wald","country":"at","lat":48.116667,"lon":15.683333},{"id":136229,"name":"alaunthal","country":"at","lat":48.416667,"lon":15.583333},{"id":148463,"name":"sudstadt","country":"at","lat":48.1,"lon":16.316667},{"id":143857,"name":"neukettenhof","country":"at","lat":48.116667,"lon":16.483333},{"id":136813,"name":"bad fischau","country":"at","lat":47.833333,"lon":16.166667},{"id":137909,"name":"eggendorf am wagram","country":"at","lat":48.4,"lon":16.05},{"id":141751,"name":"knipflitz","country":"at","lat":47.783333,"lon":15.883333},{"id":149973,"name":"wehrabach","country":"at","lat":48.033333,"lon":15.55},{"id":147497,"name":"schopflgitter","country":"at","lat":48.1,"lon":15.966667},{"id":141949,"name":"kranichberg","country":"at","lat":47.633333,"lon":15.966667},{"id":139475,"name":"grosser biberhaufen","country":"at","lat":48.201667,"lon":16.470556},{"id":147348,"name":"schleinbach","country":"at","lat":48.416667,"lon":16.466667},{"id":139801,"name":"gutenbrunn","country":"at","lat":48.283333,"lon":15.766667},{"id":139538,"name":"grossmugl","country":"at","lat":48.499167,"lon":16.230556},{"id":150294,"name":"wiesfleck","country":"at","lat":47.566667,"lon":16.183333},{"id":144597,"name":"oberpiesting","country":"at","lat":47.866667,"lon":16.083333},{"id":144082,"name":"niemthal","country":"at","lat":47.983333,"lon":16.016667},{"id":150497,"name":"woglerin","country":"at","lat":48.116667,"lon":16.116667},{"id":144951,"name":"ostende","country":"at","lat":48.133333,"lon":16.216667},{"id":148104,"name":"statzendorf","country":"at","lat":48.3,"lon":15.633333},{"id":145023,"name":"palm","country":"at","lat":47.633333,"lon":16.116667},{"id":150858,"name":"zwendorf","country":"at","lat":48.233333,"lon":15.733333},{"id":142104,"name":"krumbach","country":"at","lat":47.516667,"lon":16.183333},{"id":143996,"name":"niederfellabrunn","country":"at","lat":48.45,"lon":16.3},{"id":150050,"name":"weinsteig","country":"at","lat":48.45,"lon":16.4},{"id":144941,"name":"ortmann","country":"at","lat":47.9,"lon":15.966667},{"id":150859,"name":"zwentendorf","country":"at","lat":48.35,"lon":15.9},{"id":139166,"name":"gollersdorf","country":"at","lat":48.483333,"lon":16.116667},{"id":140336,"name":"hilpersdorf","country":"at","lat":48.35,"lon":15.8},{"id":144137,"name":"nussdorf","country":"at","lat":48.35,"lon":15.7},{"id":144593,"name":"oberpetersdorf","country":"at","lat":47.616667,"lon":16.383333},{"id":148410,"name":"strelzhof","country":"at","lat":47.8,"lon":16.066667},{"id":143581,"name":"muggendorf","country":"at","lat":47.9,"lon":15.933333},{"id":144396,"name":"oberhautzenthal","country":"at","lat":48.433333,"lon":16.15},{"id":146040,"name":"rechter graben","country":"at","lat":48.133333,"lon":16.133333},{"id":148340,"name":"stottera","country":"at","lat":47.766667,"lon":16.466667},{"id":140466,"name":"hirschwang","country":"at","lat":47.7,"lon":15.816667},{"id":149285,"name":"untermeierhof","country":"at","lat":48.033333,"lon":16.083333},{"id":148848,"name":"tribuswinkel","country":"at","lat":48.0,"lon":16.266667},{"id":144718,"name":"oberstockstall","country":"at","lat":48.45,"lon":15.916667},{"id":145953,"name":"rapoltendorf","country":"at","lat":48.233333,"lon":15.766667},{"id":144536,"name":"obermoos","country":"at","lat":48.25,"lon":15.816667},{"id":145725,"name":"pummersdorf","country":"at","lat":48.183333,"lon":15.566667},{"id":136472,"name":"an der stadlhutte","country":"at","lat":48.183333,"lon":16.133333},{"id":147408,"name":"schneeberg","country":"at","lat":47.766667,"lon":15.866667},{"id":145571,"name":"pottschach","country":"at","lat":47.7,"lon":16.0},{"id":149228,"name":"unterkuhberg","country":"at","lat":48.116667,"lon":15.883333},{"id":145266,"name":"pfennigbach","country":"at","lat":47.783333,"lon":15.933333},{"id":142475,"name":"leiding","country":"at","lat":47.7,"lon":16.2},{"id":145910,"name":"ramplach","country":"at","lat":47.7,"lon":16.1},{"id":144020,"name":"niederkreuzstetten","country":"at","lat":48.466667,"lon":16.466667},{"id":143697,"name":"murzzuschlag","country":"at","lat":47.6,"lon":15.683333},{"id":139679,"name":"grunz","country":"at","lat":48.3,"lon":15.583333},{"id":137522,"name":"dietersdorf","country":"at","lat":48.266667,"lon":15.966667},{"id":141705,"name":"kleinzell","country":"at","lat":47.983333,"lon":15.75},{"id":149675,"name":"vordereben","country":"at","lat":48.016667,"lon":15.616667},{"id":138955,"name":"gerichtsberg","country":"at","lat":48.033333,"lon":15.85},{"id":149892,"name":"waltendorf","country":"at","lat":48.25,"lon":15.883333},{"id":150562,"name":"wollersdorf","country":"at","lat":47.866667,"lon":16.166667},{"id":143792,"name":"neudegg","country":"at","lat":48.483333,"lon":15.883333},{"id":149586,"name":"viehausen","country":"at","lat":48.316667,"lon":15.516667},{"id":140834,"name":"hutten","country":"at","lat":48.183333,"lon":15.983333},{"id":138940,"name":"gerasdorf bei wien","country":"at","lat":48.283056,"lon":16.466667},{"id":137892,"name":"egelsee","country":"at","lat":48.2,"lon":15.666667},{"id":149045,"name":"unterdanegg","country":"at","lat":47.683333,"lon":16.066667},{"id":138320,"name":"feilendorf","country":"at","lat":48.166667,"lon":15.533333},{"id":142680,"name":"linden","country":"at","lat":47.633333,"lon":16.033333},{"id":142329,"name":"langenschonbichl","country":"at","lat":48.333333,"lon":15.966667},{"id":142527,"name":"lengenfeld","country":"at","lat":48.466667,"lon":15.583333},{"id":138366,"name":"felixdorf","country":"at","lat":47.883333,"lon":16.233333},{"id":148576,"name":"tebrin","country":"at","lat":47.65,"lon":15.533333},{"id":141867,"name":"kordonsiedlung","country":"at","lat":48.216667,"lon":16.266667},{"id":143193,"name":"meidling","country":"at","lat":48.166667,"lon":16.333333},{"id":149455,"name":"untertriesting","country":"at","lat":48.05,"lon":15.916667},{"id":150679,"name":"zaunegg","country":"at","lat":47.633333,"lon":16.2},{"id":147352,"name":"schlickendorf","country":"at","lat":48.416667,"lon":15.716667},{"id":148672,"name":"thomasdorf","country":"at","lat":47.55,"lon":16.266667},{"id":150658,"name":"zagging","country":"at","lat":48.283333,"lon":15.65},{"id":143744,"name":"nasswald","country":"at","lat":47.733333,"lon":15.666667},{"id":144359,"name":"obergrodl","country":"at","lat":48.1,"lon":15.933333},{"id":139653,"name":"grunbach-klaus","country":"at","lat":47.8,"lon":15.966667},{"id":137072,"name":"blumau","country":"at","lat":47.916667,"lon":16.3},{"id":140350,"name":"hintenburg","country":"at","lat":47.733333,"lon":16.0},{"id":142698,"name":"linsberg","country":"at","lat":47.733333,"lon":16.2},{"id":136210,"name":"aigen","country":"at","lat":47.9,"lon":16.133333},{"id":150169,"name":"weppersdorf","country":"at","lat":47.583333,"lon":16.433333},{"id":147800,"name":"siebenhirten","country":"at","lat":48.183333,"lon":15.75},{"id":141295,"name":"katzelsdorf","country":"at","lat":47.783333,"lon":16.283333},{"id":144477,"name":"oberlanzendorf","country":"at","lat":48.1,"lon":16.45},{"id":137777,"name":"eben","country":"at","lat":47.633333,"lon":16.083333},{"id":144145,"name":"nuszdorf","country":"at","lat":48.25,"lon":16.366667},{"id":149176,"name":"unterhaus","country":"at","lat":47.5,"lon":16.2},{"id":141755,"name":"knolln","country":"at","lat":47.5,"lon":16.1},{"id":148373,"name":"strass im strassertale","country":"at","lat":48.466667,"lon":15.733333},{"id":148394,"name":"strebersdorf","country":"at","lat":48.3,"lon":16.383333},{"id":136314,"name":"altanzing","country":"at","lat":48.216667,"lon":15.85},{"id":150275,"name":"wiesenfeld","country":"at","lat":48.05,"lon":15.65},{"id":143101,"name":"mattersdorf","country":"at","lat":47.733333,"lon":16.4},{"id":138310,"name":"feichtenbach","country":"at","lat":47.916667,"lon":16.0},{"id":140289,"name":"hernals","country":"at","lat":48.233333,"lon":16.266667},{"id":140713,"name":"holzweg","country":"at","lat":48.283333,"lon":16.066667},{"id":148146,"name":"steinapiesting","country":"at","lat":47.883333,"lon":15.85},{"id":142325,"name":"langenlebarn","country":"at","lat":48.333333,"lon":16.116667},{"id":149948,"name":"watzelsdorf","country":"at","lat":48.233333,"lon":15.55},{"id":139447,"name":"grossau","country":"at","lat":47.7,"lon":15.766667},{"id":143035,"name":"mariaschutz","country":"at","lat":47.633333,"lon":15.866667},{"id":143003,"name":"maria anzbach","country":"at","lat":48.183333,"lon":15.916667},{"id":146288,"name":"riegler","country":"at","lat":47.533333,"lon":15.866667},{"id":138375,"name":"fels","country":"at","lat":48.433333,"lon":15.816667},{"id":140341,"name":"himberg","country":"at","lat":48.083333,"lon":16.433333},{"id":141350,"name":"kernhof","country":"at","lat":47.816667,"lon":15.533333},{"id":140719,"name":"honigsberg","country":"at","lat":47.6,"lon":15.633333},{"id":137390,"name":"burgstall","country":"at","lat":48.216667,"lon":15.95},{"id":149940,"name":"wassergspreng","country":"at","lat":48.083333,"lon":16.216667},{"id":149373,"name":"unterrohrbach","country":"at","lat":48.05,"lon":15.75},{"id":146819,"name":"sankt johann","country":"at","lat":47.716667,"lon":16.0},{"id":149805,"name":"walchbauer","country":"at","lat":47.8,"lon":15.633333},{"id":150284,"name":"wiesen","country":"at","lat":47.733333,"lon":16.333333},{"id":147367,"name":"schloglmuhl","country":"at","lat":47.683333,"lon":15.916667},{"id":139878,"name":"hadersfeld","country":"at","lat":48.333333,"lon":16.266667},{"id":147784,"name":"seyring","country":"at","lat":48.333333,"lon":16.483333},{"id":149323,"name":"unterparschenbrunn","country":"at","lat":48.45,"lon":16.116667},{"id":149557,"name":"veitschbach","country":"at","lat":47.65,"lon":15.566667},{"id":140516,"name":"hochleiten","country":"at","lat":48.1,"lon":16.25},{"id":149319,"name":"unteroberndorf","country":"at","lat":48.183333,"lon":15.95},{"id":149230,"name":"unterlaa","country":"at","lat":48.133333,"lon":16.416667},{"id":144744,"name":"obertiefenbach","country":"at","lat":48.183333,"lon":15.666667},{"id":147254,"name":"scheibenhof","country":"at","lat":48.416667,"lon":15.533333},{"id":140756,"name":"hornsburg","country":"at","lat":48.466667,"lon":16.433333},{"id":140440,"name":"hirm","country":"at","lat":47.783333,"lon":16.466667},{"id":145562,"name":"pottelsdorf","country":"at","lat":47.75,"lon":16.433333},{"id":148404,"name":"streitdorf","country":"at","lat":48.45,"lon":16.266667},{"id":150484,"name":"witzelsberg","country":"at","lat":47.666667,"lon":16.116667},{"id":146751,"name":"sankt georgen an der traisen","country":"at","lat":48.366667,"lon":15.733333},{"id":142773,"name":"loipersbach","country":"at","lat":47.7,"lon":16.466667},{"id":146350,"name":"rodaun","country":"at","lat":48.133333,"lon":16.266667},{"id":142533,"name":"leobendorf","country":"at","lat":48.383333,"lon":16.316667},{"id":137685,"name":"drassburg","country":"at","lat":47.733333,"lon":16.483333},{"id":142523,"name":"lengbachl","country":"at","lat":48.116667,"lon":15.983333},{"id":143666,"name":"munichsthal","country":"at","lat":48.383333,"lon":16.466667},{"id":1116065,"name":"brennbergbanya","country":"hu","lat":47.652649,"lon":16.493514},{"id":140163,"name":"hauptbach","country":"at","lat":48.083333,"lon":16.033333},{"id":140669,"name":"hollenstein","country":"at","lat":47.666667,"lon":15.75},{"id":139877,"name":"hadersdorf","country":"at","lat":48.216667,"lon":16.233333},{"id":141907,"name":"kottingbrunn","country":"at","lat":47.95,"lon":16.216667},{"id":142117,"name":"krustetten","country":"at","lat":48.366667,"lon":15.666667},{"id":150063,"name":"weisching","country":"at","lat":48.216667,"lon":15.75},{"id":141819,"name":"kollersberg","country":"at","lat":48.2,"lon":15.733333},{"id":140530,"name":"hochrotherd","country":"at","lat":48.133333,"lon":16.116667},{"id":145662,"name":"prigglitz","country":"at","lat":47.7,"lon":15.916667},{"id":138148,"name":"enzesfeld","country":"at","lat":47.916667,"lon":16.166667},{"id":138738,"name":"gaaden","country":"at","lat":47.833333,"lon":16.083333},{"id":137688,"name":"drassmarkt","country":"at","lat":47.516667,"lon":16.4},{"id":149599,"name":"viendorf","country":"at","lat":48.483333,"lon":16.133333},{"id":136919,"name":"beistein","country":"at","lat":47.583333,"lon":16.283333},{"id":139729,"name":"guggendorf","country":"at","lat":47.516667,"lon":16.1},{"id":144189,"name":"oberau","country":"at","lat":47.633333,"lon":16.333333},{"id":139732,"name":"gugging","country":"at","lat":48.3,"lon":16.25},{"id":142222,"name":"lahnsattel","country":"at","lat":47.783333,"lon":15.5},{"id":140268,"name":"hengstberg","country":"at","lat":47.783333,"lon":15.9},{"id":140621,"name":"hohenberg","country":"at","lat":47.9,"lon":15.616667},{"id":138557,"name":"frauendorf an der au","country":"at","lat":48.383333,"lon":15.916667},{"id":137048,"name":"blatterthal","country":"at","lat":47.883333,"lon":15.916667},{"id":147874,"name":"simmering","country":"at","lat":48.183333,"lon":16.433333},{"id":143131,"name":"mauer","country":"at","lat":48.15,"lon":16.266667},{"id":144997,"name":"oyenhausen","country":"at","lat":47.983333,"lon":16.283333},{"id":143577,"name":"muenchendorf","country":"at","lat":48.033333,"lon":16.383333},{"id":147026,"name":"sankt polton","country":"at","lat":48.2,"lon":15.633333},{"id":139571,"name":"grossrust","country":"at","lat":48.266667,"lon":15.6},{"id":137699,"name":"dreihof","country":"at","lat":48.266667,"lon":15.5},{"id":142335,"name":"langenzersdorf","country":"at","lat":48.3,"lon":16.35},{"id":139437,"name":"groissbach","country":"at","lat":48.033333,"lon":16.05},{"id":140196,"name":"hautzendorf","country":"at","lat":48.433333,"lon":16.483333},{"id":140307,"name":"hetzersdorf","country":"at","lat":48.216667,"lon":15.55},{"id":147685,"name":"seebenstein","country":"at","lat":47.683333,"lon":16.133333},{"id":138140,"name":"enzenreith","country":"at","lat":47.666667,"lon":15.95},{"id":142334,"name":"langenwang schwobing","country":"at","lat":47.55,"lon":15.6},{"id":136626,"name":"asperlkeller","country":"at","lat":48.383333,"lon":16.283333},{"id":144937,"name":"orthof","country":"at","lat":47.666667,"lon":15.783333},{"id":143909,"name":"neurisshof","country":"at","lat":47.933333,"lon":16.3},{"id":143026,"name":"maria lanzendorf","country":"at","lat":48.1,"lon":16.416667},{"id":137743,"name":"durnbach","country":"at","lat":47.85,"lon":16.016667},{"id":148845,"name":"tresdorf","country":"at","lat":48.383333,"lon":16.35},{"id":145086,"name":"payerbach","country":"at","lat":47.683333,"lon":15.85},{"id":144446,"name":"oberkniewald","country":"at","lat":48.15,"lon":16.016667},{"id":148376,"name":"strass","country":"at","lat":47.533333,"lon":16.233333},{"id":136893,"name":"bauland","country":"at","lat":48.2,"lon":15.783333},{"id":147668,"name":"schwobing","country":"at","lat":47.55,"lon":15.616667},{"id":140418,"name":"hintertullnerbach","country":"at","lat":48.2,"lon":16.1},{"id":146407,"name":"rohr","country":"at","lat":47.883333,"lon":15.733333},{"id":143605,"name":"muhlberg","country":"at","lat":48.2,"lon":16.2},{"id":136912,"name":"baunzen","country":"at","lat":48.166667,"lon":16.183333},{"id":145209,"name":"pettenbach","country":"at","lat":47.666667,"lon":15.883333},{"id":150541,"name":"wolfsgraben","country":"at","lat":48.15,"lon":16.116667},{"id":150004,"name":"weiding","country":"at","lat":48.2,"lon":15.883333},{"id":149554,"name":"veitsau","country":"at","lat":47.933333,"lon":16.1},{"id":136155,"name":"afing","country":"at","lat":48.233333,"lon":15.566667},{"id":143777,"name":"neuaigen","country":"at","lat":48.35,"lon":16.016667},{"id":147996,"name":"spillern","country":"at","lat":48.383333,"lon":16.25},{"id":139407,"name":"griesleiten","country":"at","lat":47.683333,"lon":15.75},{"id":147808,"name":"sieding","country":"at","lat":47.733333,"lon":15.966667},{"id":142173,"name":"laab","country":"at","lat":48.15,"lon":16.166667},{"id":141169,"name":"kaltenbach","country":"at","lat":47.75,"lon":15.5},{"id":146693,"name":"sankt andra vor dem hagentale","country":"at","lat":48.316667,"lon":16.2},{"id":150531,"name":"wolfsbergen-siedlung","country":"at","lat":48.316667,"lon":16.4},{"id":145275,"name":"pfosing","country":"at","lat":48.4,"lon":16.45},{"id":144092,"name":"nitzing","country":"at","lat":48.316667,"lon":16.1},{"id":136623,"name":"asparn","country":"at","lat":48.316667,"lon":16.0},{"id":136345,"name":"altenmarkt an der triesting","country":"at","lat":48.016667,"lon":15.983333},{"id":149932,"name":"warth","country":"at","lat":47.65,"lon":16.116667},{"id":145409,"name":"plambach","country":"at","lat":48.083333,"lon":15.516667},{"id":146622,"name":"sagbergsiedlung","country":"at","lat":48.2,"lon":16.133333},{"id":146464,"name":"rossatz","country":"at","lat":48.383333,"lon":15.5},{"id":137899,"name":"egg","country":"at","lat":47.516667,"lon":16.216667},{"id":148000,"name":"spital am semmering","country":"at","lat":47.6,"lon":15.75},{"id":150440,"name":"winkl","country":"at","lat":48.383333,"lon":15.9},{"id":144643,"name":"oberried","country":"at","lat":48.0,"lon":15.783333},{"id":150580,"name":"wordern","country":"at","lat":48.333333,"lon":16.216667},{"id":146334,"name":"ritzendorf","country":"at","lat":48.45,"lon":16.416667},{"id":138101,"name":"engelmannsbrunn","country":"at","lat":48.45,"lon":15.883333},{"id":137613,"name":"doppeln","country":"at","lat":48.3,"lon":16.283333},{"id":142284,"name":"landersdorf","country":"at","lat":48.316667,"lon":15.566667},{"id":145122,"name":"penzing","country":"at","lat":48.216667,"lon":16.0},{"id":148873,"name":"troppberg","country":"at","lat":48.216667,"lon":16.1},{"id":146675,"name":"sankt aegyd am neuwalde","country":"at","lat":47.85,"lon":15.55},{"id":147690,"name":"seedorfl","country":"at","lat":48.059722,"lon":16.381667},{"id":144967,"name":"ottakring","country":"at","lat":48.216667,"lon":16.3},{"id":140764,"name":"horten","country":"at","lat":48.166944,"lon":16.448889},{"id":141573,"name":"kleinhain","country":"at","lat":48.266667,"lon":15.65},{"id":136897,"name":"baumgarten am tullnerfeld","country":"at","lat":48.283333,"lon":16.033333},{"id":136104,"name":"absberg","country":"at","lat":48.416667,"lon":15.966667},{"id":143070,"name":"markt sankt martin","country":"at","lat":47.566667,"lon":16.433333},{"id":145653,"name":"pretul","country":"at","lat":47.566667,"lon":15.7},{"id":142665,"name":"lindabrunn","country":"at","lat":47.9,"lon":16.166667},{"id":141697,"name":"kleinwilfersdorf","country":"at","lat":48.4,"lon":16.283333},{"id":141681,"name":"kleinveitscherthal","country":"at","lat":47.6,"lon":15.5},{"id":145311,"name":"pichlwang","country":"at","lat":47.583333,"lon":15.633333},{"id":142199,"name":"lackenbach","country":"at","lat":47.583333,"lon":16.466667},{"id":146503,"name":"rothneusiedl","country":"at","lat":48.133333,"lon":16.4},{"id":138677,"name":"frotzenberg","country":"at","lat":48.1,"lon":16.133333},{"id":139666,"name":"gruner baum","country":"at","lat":48.133333,"lon":16.2},{"id":148459,"name":"stuppach","country":"at","lat":47.683333,"lon":15.95},{"id":143257,"name":"michelndorf","country":"at","lat":48.283333,"lon":15.9},{"id":146690,"name":"sankt andra","country":"at","lat":48.283333,"lon":15.7},{"id":138559,"name":"frauendorf","country":"at","lat":48.366667,"lon":15.783333},{"id":149308,"name":"unternberg","country":"at","lat":47.566667,"lon":16.016667},{"id":140234,"name":"heinigstetten","country":"at","lat":48.283333,"lon":15.6},{"id":147339,"name":"schlattenthal","country":"at","lat":47.65,"lon":16.233333},{"id":136298,"name":"almersberg","country":"at","lat":48.2,"lon":15.916667},{"id":140866,"name":"im groret","country":"at","lat":48.165278,"lon":16.459167},{"id":141131,"name":"kaisermuhlen","country":"at","lat":48.226111,"lon":16.425},{"id":148296,"name":"stixenstein","country":"at","lat":47.75,"lon":15.966667},{"id":136678,"name":"aue","country":"at","lat":47.666667,"lon":15.9},{"id":142550,"name":"leopoldsdorf","country":"at","lat":48.116667,"lon":16.4},{"id":139514,"name":"grosshoniggraben","country":"at","lat":48.116667,"lon":16.083333},{"id":137494,"name":"dickenau","country":"at","lat":47.933333,"lon":15.516667},{"id":146030,"name":"raxen","country":"at","lat":47.666667,"lon":15.7},{"id":144462,"name":"oberkuhberg","country":"at","lat":48.116667,"lon":15.866667},{"id":142279,"name":"lanau","country":"at","lat":47.666667,"lon":15.5},{"id":137586,"name":"doktorberg","country":"at","lat":48.116667,"lon":16.2},{"id":140204,"name":"heidesiedlung","country":"at","lat":48.116667,"lon":16.3},{"id":138229,"name":"etzersdorf","country":"at","lat":48.266667,"lon":15.75},{"id":137756,"name":"durnstein","country":"at","lat":48.383333,"lon":15.516667},{"id":136874,"name":"barndorf","country":"at","lat":48.333333,"lon":15.866667},{"id":147007,"name":"sankt peter am wechsel","country":"at","lat":47.55,"lon":16.016667},{"id":141094,"name":"jungherrnthal","country":"at","lat":48.033333,"lon":15.583333},{"id":147834,"name":"sierndorf","country":"at","lat":48.416667,"lon":16.15},{"id":141255,"name":"karlstetten","country":"at","lat":48.25,"lon":15.566667},{"id":137604,"name":"donaudorf","country":"at","lat":48.4,"lon":15.733333},{"id":138521,"name":"forsthof","country":"at","lat":48.1,"lon":15.916667},{"id":136805,"name":"baden","country":"at","lat":48.016667,"lon":16.233333},{"id":145486,"name":"pollau","country":"at","lat":47.933333,"lon":16.066667},{"id":140467,"name":"hirtenberg","country":"at","lat":47.916667,"lon":16.183333},{"id":136425,"name":"ameisberg","country":"at","lat":48.216667,"lon":16.083333},{"id":143943,"name":"neustift an der rosalia","country":"at","lat":47.716667,"lon":16.333333},{"id":137064,"name":"blindorf","country":"at","lat":48.166667,"lon":15.666667},{"id":148656,"name":"thenneberg","country":"at","lat":48.016667,"lon":15.95},{"id":147379,"name":"schmeissbach","country":"at","lat":48.233333,"lon":16.1},{"id":140379,"name":"hinterhainbach","country":"at","lat":48.233333,"lon":16.2},{"id":145575,"name":"potzleinsdorf","country":"at","lat":48.233333,"lon":16.3},{"id":143952,"name":"neustift","country":"at","lat":47.533333,"lon":15.983333},{"id":143948,"name":"neustift im felde","country":"at","lat":48.4,"lon":15.883333},{"id":141843,"name":"konigstetten","country":"at","lat":48.3,"lon":16.133333},{"id":140394,"name":"hinterpfalzau","country":"at","lat":48.15,"lon":16.05},{"id":147302,"name":"schiltern","country":"at","lat":47.7,"lon":16.166667},{"id":137108,"name":"boheimkirchen","country":"at","lat":48.2,"lon":15.766667},{"id":143367,"name":"mitterfeld siedlung","country":"at","lat":48.083333,"lon":16.333333},{"id":139050,"name":"glashutten","country":"at","lat":48.066667,"lon":16.033333},{"id":149939,"name":"wasserburg","country":"at","lat":48.25,"lon":15.716667},{"id":149210,"name":"unterkirchbach","country":"at","lat":48.283333,"lon":16.183333},{"id":136898,"name":"baumgarten am wagram","country":"at","lat":48.483333,"lon":15.95},{"id":139450,"name":"grossboden","country":"at","lat":48.15,"lon":16.133333},{"id":140249,"name":"heitzing","country":"at","lat":48.266667,"lon":15.55},{"id":144409,"name":"oberhoflein","country":"at","lat":47.783333,"lon":16.016667},{"id":147970,"name":"sparbach","country":"at","lat":48.066667,"lon":16.183333},{"id":147510,"name":"schottwien","country":"at","lat":47.65,"lon":15.866667},{"id":140308,"name":"hetzmannsdorf","country":"at","lat":48.433333,"lon":16.4},{"id":139890,"name":"hagenau","country":"at","lat":48.216667,"lon":15.983333},{"id":139749,"name":"gumperding","country":"at","lat":48.25,"lon":15.833333},{"id":144015,"name":"niederhollabrunn","country":"at","lat":48.433333,"lon":16.3},{"id":149166,"name":"unterhameten","country":"at","lat":48.3,"lon":15.766667},{"id":148713,"name":"tiefenthal","country":"at","lat":48.433333,"lon":16.0},{"id":136327,"name":"altenburg","country":"at","lat":48.083333,"lon":15.6},{"id":140608,"name":"hofstetten","country":"at","lat":48.083333,"lon":15.5},{"id":136573,"name":"arzbach","country":"at","lat":47.633333,"lon":15.566667},{"id":147835,"name":"sierning","country":"at","lat":47.8,"lon":15.916667},{"id":141643,"name":"kleinrotz","country":"at","lat":48.4,"lon":16.416667},{"id":137304,"name":"brunn im felde","country":"at","lat":48.416667,"lon":15.683333},{"id":137286,"name":"brunn am gebirge","country":"at","lat":48.1,"lon":16.283333},{"id":142142,"name":"kulma","country":"at","lat":47.55,"lon":16.133333},{"id":144820,"name":"oberwolfsbach","country":"at","lat":48.216667,"lon":15.833333},{"id":150073,"name":"weissekirchen","country":"at","lat":48.266667,"lon":15.783333},{"id":137375,"name":"burg","country":"at","lat":47.716667,"lon":15.966667},{"id":146179,"name":"reith","country":"at","lat":47.75,"lon":16.033333},{"id":143476,"name":"mollersdorf","country":"at","lat":48.016667,"lon":16.3},{"id":150823,"name":"zoblhof","country":"at","lat":48.016667,"lon":16.1},{"id":150057,"name":"weinzierl bei krems","country":"at","lat":48.4,"lon":15.6},{"id":146555,"name":"ruhrsdorf","country":"at","lat":48.4,"lon":15.5},{"id":148469,"name":"sulzbach","country":"at","lat":48.0,"lon":16.016667},{"id":139809,"name":"gutenstien","country":"at","lat":47.866667,"lon":15.883333},{"id":140278,"name":"henzing","country":"at","lat":48.266667,"lon":16.016667},{"id":137289,"name":"brunn an der schneebergbahn","country":"at","lat":47.816667,"lon":16.15},{"id":139512,"name":"grosshoflein","country":"at","lat":47.833333,"lon":16.483333},{"id":148968,"name":"ungarstein","country":"at","lat":48.033333,"lon":16.116667},{"id":144694,"name":"oberseebarn","country":"at","lat":48.4,"lon":15.8},{"id":141384,"name":"kieneck","country":"at","lat":47.966667,"lon":15.85},{"id":139280,"name":"grabenweg","country":"at","lat":47.95,"lon":16.05},{"id":138633,"name":"friedersdorf","country":"at","lat":47.633333,"lon":15.983333},{"id":141049,"name":"jetzing","country":"at","lat":48.266667,"lon":15.85},{"id":143923,"name":"neusiedl am walde","country":"at","lat":47.8,"lon":16.0},{"id":147137,"name":"saubersdorf","country":"at","lat":47.8,"lon":16.1},{"id":148664,"name":"theyern","country":"at","lat":48.35,"lon":15.666667},{"id":148413,"name":"strengberg","country":"at","lat":47.933333,"lon":15.95},{"id":138609,"name":"freudenau","country":"at","lat":48.186389,"lon":16.445278},{"id":148741,"name":"tirol","country":"at","lat":47.7,"lon":15.55},{"id":143138,"name":"mauterheim","country":"at","lat":48.233333,"lon":15.75},{"id":150046,"name":"weingraben","country":"at","lat":47.516667,"lon":16.366667},{"id":142904,"name":"maiersdorf","country":"at","lat":47.816667,"lon":16.05},{"id":142059,"name":"kronau","country":"at","lat":48.333333,"lon":16.0},{"id":144318,"name":"oberfucha","country":"at","lat":48.383333,"lon":15.633333},{"id":140151,"name":"hatzenbach","country":"at","lat":48.433333,"lon":16.216667},{"id":145843,"name":"rafelsworth","country":"at","lat":48.333333,"lon":16.1},{"id":139896,"name":"hagenbrunn","country":"at","lat":48.333333,"lon":16.4},{"id":142039,"name":"kritzendorf","country":"at","lat":48.333333,"lon":16.3},{"id":142376,"name":"lanzing","country":"at","lat":47.816667,"lon":15.933333},{"id":141528,"name":"kleinau","country":"at","lat":47.7,"lon":15.783333},{"id":143721,"name":"nadelbach","country":"at","lat":48.183333,"lon":15.6},{"id":143052,"name":"markersdorf","country":"at","lat":48.183333,"lon":15.5},{"id":145568,"name":"pottenstein","country":"at","lat":47.95,"lon":16.083333},{"id":144112,"name":"noppendorf","country":"at","lat":48.3,"lon":15.616667},{"id":145416,"name":"plankenberg","country":"at","lat":48.266667,"lon":15.95},{"id":137863,"name":"ederding","country":"at","lat":48.283333,"lon":15.666667},{"id":149146,"name":"untergrub","country":"at","lat":48.483333,"lon":16.166667},{"id":145408,"name":"plambacheck","country":"at","lat":48.083333,"lon":15.533333},{"id":136270,"name":"alland im gebirge","country":"at","lat":48.05,"lon":16.083333},{"id":141428,"name":"kirchberg","country":"at","lat":47.6,"lon":15.983333},{"id":136766,"name":"auss halbach","country":"at","lat":48.05,"lon":15.716667},{"id":146711,"name":"sankt christhof","country":"at","lat":47.7,"lon":15.9},{"id":137642,"name":"dorfl","country":"at","lat":47.7,"lon":15.8},{"id":140884,"name":"industriezone sud","country":"at","lat":48.066667,"lon":16.316667},{"id":145556,"name":"postsiedlung","country":"at","lat":48.2,"lon":16.15},{"id":137176,"name":"breitenau","country":"at","lat":47.733333,"lon":16.133333},{"id":146386,"name":"rohrbach","country":"at","lat":47.716667,"lon":16.033333},{"id":139560,"name":"grossrassberg","country":"at","lat":48.183333,"lon":15.933333},{"id":136711,"name":"auhof","country":"at","lat":48.2,"lon":16.233333},{"id":137027,"name":"bisamberg","country":"at","lat":48.333333,"lon":16.35},{"id":149761,"name":"wagendorf","country":"at","lat":48.25,"lon":16.016667},{"id":140666,"name":"hollenburg","country":"at","lat":48.366667,"lon":15.683333},{"id":136290,"name":"allhang","country":"at","lat":48.233333,"lon":16.133333},{"id":143482,"name":"mollram","country":"at","lat":47.75,"lon":16.083333},{"id":139607,"name":"grosswiesendorf","country":"at","lat":48.45,"lon":15.983333},{"id":136661,"name":"au am kracking","country":"at","lat":48.216667,"lon":16.033333},{"id":150681,"name":"zaussenberg","country":"at","lat":48.433333,"lon":15.983333},{"id":146613,"name":"sachsendorf","country":"at","lat":48.4,"lon":15.833333},{"id":143704,"name":"muthmannsdorf","country":"at","lat":47.833333,"lon":16.1},{"id":148566,"name":"tausendblum","country":"at","lat":48.183333,"lon":15.866667},{"id":143907,"name":"neu-reisenberg","country":"at","lat":48.0225,"lon":16.495833},{"id":142685,"name":"lindgrub","country":"at","lat":47.7,"lon":16.116667},{"id":143944,"name":"neustift bei altlengbach","country":"at","lat":48.133333,"lon":15.916667},{"id":147614,"name":"schwarzenberg","country":"at","lat":47.566667,"lon":16.316667},{"id":140649,"name":"hohenwarth","country":"at","lat":47.933333,"lon":15.983333},{"id":1115907,"name":"borbala","country":"hu","lat":47.65,"lon":16.466667},{"id":140275,"name":"hennersdorf","country":"at","lat":48.1,"lon":16.366667},{"id":139570,"name":"grossrussbach","country":"at","lat":48.466667,"lon":16.416667},{"id":136264,"name":"alkersdorf","country":"at","lat":47.883333,"lon":16.1},{"id":144257,"name":"oberdrosen","country":"at","lat":47.883333,"lon":16.116667},{"id":145743,"name":"purkersdorf","country":"at","lat":48.2,"lon":16.166667},{"id":147384,"name":"schmida","country":"at","lat":48.383333,"lon":16.116667},{"id":142119,"name":"kub","country":"at","lat":47.683333,"lon":15.866667},{"id":148249,"name":"stettenhof","country":"at","lat":48.483333,"lon":15.816667},{"id":147682,"name":"seebarn","country":"at","lat":48.366667,"lon":16.383333},{"id":141559,"name":"kleinfrauenhaid","country":"at","lat":47.766667,"lon":16.45},{"id":147327,"name":"schlagl","country":"at","lat":47.633333,"lon":15.916667},{"id":149529,"name":"urschendorf","country":"at","lat":47.783333,"lon":16.083333},{"id":138674,"name":"froschnitz","country":"at","lat":47.616667,"lon":15.816667},{"id":142536,"name":"leobersdorf","country":"at","lat":47.916667,"lon":16.216667},{"id":140456,"name":"hirschengarten","country":"at","lat":48.25,"lon":16.15},{"id":148671,"name":"thomasberg","country":"at","lat":47.566667,"lon":16.133333},{"id":150115,"name":"weitendorf","country":"at","lat":48.2,"lon":15.533333},{"id":137661,"name":"dornau","country":"at","lat":48.016667,"lon":15.966667},{"id":140406,"name":"hintersdorf","country":"at","lat":48.3,"lon":16.216667},{"id":138972,"name":"gersthof","country":"at","lat":48.233333,"lon":16.316667},{"id":142437,"name":"laxenburg","country":"at","lat":48.066667,"lon":16.35},{"id":140546,"name":"hochwolkersdorf","country":"at","lat":47.65,"lon":16.283333},{"id":148248,"name":"stetteldorf","country":"at","lat":48.4,"lon":16.016667},{"id":148864,"name":"trober-siedlung","country":"at","lat":48.116667,"lon":16.333333},{"id":144835,"name":"oberzogersdorf","country":"at","lat":48.366667,"lon":16.15},{"id":140478,"name":"hobersdorf","country":"at","lat":48.433333,"lon":16.166667},{"id":148797,"name":"traibach","country":"at","lat":47.533333,"lon":15.65},{"id":141199,"name":"kammern","country":"at","lat":48.466667,"lon":15.716667},{"id":141184,"name":"kaltenleutgeben","country":"at","lat":48.116667,"lon":16.183333},{"id":138312,"name":"feichten","country":"at","lat":47.5,"lon":16.183333},{"id":139863,"name":"hacking","country":"at","lat":48.2,"lon":16.25},{"id":145633,"name":"prein","country":"at","lat":47.666667,"lon":15.766667},{"id":138169,"name":"erlaa","country":"at","lat":48.216667,"lon":15.966667},{"id":148906,"name":"tulln","country":"at","lat":48.333333,"lon":16.05},{"id":137983,"name":"eigendorf","country":"at","lat":48.166667,"lon":15.5},{"id":149916,"name":"wantendorf","country":"at","lat":48.133333,"lon":15.55},{"id":139156,"name":"goldegg","country":"at","lat":48.233333,"lon":15.516667},{"id":140495,"name":"hocheichberg","country":"at","lat":48.166667,"lon":15.9},{"id":141468,"name":"kirchsteig","country":"at","lat":48.166667,"lon":15.8},{"id":147938,"name":"sonnberg","country":"at","lat":47.6,"lon":16.166667},{"id":141994,"name":"krenistof","country":"at","lat":47.783333,"lon":16.416667},{"id":139369,"name":"greilling","country":"at","lat":48.283333,"lon":15.633333},{"id":146099,"name":"reidling","country":"at","lat":48.316667,"lon":15.816667},{"id":142023,"name":"krieglach","country":"at","lat":47.533333,"lon":15.55},{"id":147491,"name":"schonstadl","country":"at","lat":47.65,"lon":16.0},{"id":141408,"name":"kirchau","country":"at","lat":47.65,"lon":16.1},{"id":147798,"name":"siebenhaus","country":"at","lat":47.933333,"lon":16.233333},{"id":145884,"name":"raisenmarkt","country":"at","lat":48.033333,"lon":16.066667},{"id":146201,"name":"rekawinkel","country":"at","lat":48.166667,"lon":16.016667},{"id":145249,"name":"pfalzau","country":"at","lat":48.15,"lon":16.066667},{"id":136965,"name":"bernegg","country":"at","lat":47.583333,"lon":16.05},{"id":138699,"name":"fullenberg","country":"at","lat":48.066667,"lon":16.15},{"id":149179,"name":"unterhautzenthal","country":"at","lat":48.45,"lon":16.133333},{"id":142609,"name":"lichtenworth","country":"at","lat":47.833333,"lon":16.283333},{"id":145758,"name":"putzenhof","country":"at","lat":47.816667,"lon":15.816667},{"id":145975,"name":"rassing","country":"at","lat":48.25,"lon":15.766667},{"id":140797,"name":"hummelberg","country":"at","lat":48.133333,"lon":15.65},{"id":142197,"name":"lachsfeld","country":"at","lat":48.483333,"lon":16.333333},{"id":143183,"name":"mechters","country":"at","lat":48.2,"lon":15.716667},{"id":138173,"name":"erlach","country":"at","lat":47.716667,"lon":16.216667},{"id":136429,"name":"ameisthal","country":"at","lat":48.483333,"lon":16.0},{"id":137734,"name":"dunkelstein","country":"at","lat":47.7,"lon":16.033333},{"id":141524,"name":"kledering","country":"at","lat":48.133333,"lon":16.433333},{"id":150093,"name":"weissenhof","country":"at","lat":48.333333,"lon":16.283333},{"id":150245,"name":"wienerberg","country":"at","lat":48.2,"lon":16.083333},{"id":143330,"name":"mitterbachamt","country":"at","lat":47.85,"lon":15.6},{"id":144523,"name":"obermerking","country":"at","lat":48.266667,"lon":15.616667},{"id":150237,"name":"wielandsberg","country":"at","lat":48.116667,"lon":15.566667},{"id":150451,"name":"winterhof","country":"at","lat":47.583333,"lon":16.166667},{"id":139673,"name":"grunsting","country":"at","lat":47.683333,"lon":15.8},{"id":138658,"name":"frohnberg","country":"at","lat":47.85,"lon":15.966667},{"id":148327,"name":"stollhofen","country":"at","lat":48.366667,"lon":15.766667},{"id":147963,"name":"sos-kinderdorf","country":"at","lat":48.083333,"lon":16.233333},{"id":140303,"name":"hettmannsdorf","country":"at","lat":47.766667,"lon":16.05},{"id":137406,"name":"chorherrn","country":"at","lat":48.283333,"lon":16.083333},{"id":148216,"name":"steinriegl","country":"at","lat":48.266667,"lon":16.233333},{"id":145759,"name":"putzing","country":"at","lat":48.366667,"lon":16.45},{"id":141172,"name":"kaltenberg","country":"at","lat":47.616667,"lon":16.183333},{"id":149843,"name":"waldlesberg","country":"at","lat":48.35,"lon":15.733333},{"id":140753,"name":"horndorf","country":"at","lat":47.583333,"lon":16.266667},{"id":137989,"name":"einod","country":"at","lat":48.316667,"lon":15.733333},{"id":145572,"name":"pottsching","country":"at","lat":47.8,"lon":16.383333},{"id":142333,"name":"langenwang","country":"at","lat":47.566667,"lon":15.616667},{"id":148535,"name":"tannschach","country":"at","lat":47.7,"lon":15.933333},{"id":147773,"name":"senftenbergeramt","country":"at","lat":48.45,"lon":15.516667},{"id":140505,"name":"hochgschaid","country":"at","lat":48.133333,"lon":15.85},{"id":136999,"name":"bierbaum am kleebigl","country":"at","lat":48.383333,"lon":15.933333},{"id":141990,"name":"kremsthal","country":"at","lat":48.416667,"lon":15.6},{"id":143348,"name":"mitterdorf im murztal","country":"at","lat":47.533333,"lon":15.516667},{"id":141150,"name":"kalkgruben","country":"at","lat":47.616667,"lon":16.4},{"id":143821,"name":"neues wirtshaus","country":"at","lat":48.333333,"lon":16.466667},{"id":147621,"name":"schwarzensee","country":"at","lat":48.016667,"lon":16.033333},{"id":139459,"name":"grossebersdorf","country":"at","lat":48.366667,"lon":16.466667},{"id":148047,"name":"stadtrandsiedlung","country":"at","lat":48.25,"lon":16.483333},{"id":140825,"name":"hutteldorf","country":"at","lat":48.2,"lon":16.266667},{"id":139780,"name":"guntramsdorf","country":"at","lat":48.033333,"lon":16.3},{"id":149068,"name":"untereggendorf","country":"at","lat":47.85,"lon":16.316667},{"id":148304,"name":"stockerau","country":"at","lat":48.383333,"lon":16.216667},{"id":150880,"name":"zwolfaxing","country":"at","lat":48.1,"lon":16.466667},{"id":150662,"name":"zaina","country":"at","lat":48.366667,"lon":16.1},{"id":141498,"name":"klamm","country":"at","lat":47.666667,"lon":15.866667},{"id":142887,"name":"mahresdorf","country":"at","lat":47.733333,"lon":16.033333},{"id":142933,"name":"malleisten","country":"at","lat":47.583333,"lon":15.566667},{"id":141309,"name":"kaumberg","country":"at","lat":48.016667,"lon":15.883333},{"id":150180,"name":"werning","country":"at","lat":47.7,"lon":15.883333},{"id":150055,"name":"weinzierl am riederberg","country":"at","lat":48.266667,"lon":16.066667},{"id":140475,"name":"hobenbach","country":"at","lat":48.35,"lon":15.65},{"id":142129,"name":"kuhbach","country":"at","lat":47.566667,"lon":16.233333},{"id":139085,"name":"gloggnitz","country":"at","lat":47.666667,"lon":15.933333},{"id":148654,"name":"theiss","country":"at","lat":48.383333,"lon":15.683333},{"id":144912,"name":"ollersbach","country":"at","lat":48.183333,"lon":15.833333},{"id":138059,"name":"elsarn im strasserthal","country":"at","lat":48.483333,"lon":15.733333},{"id":138983,"name":"getzersdorf","country":"at","lat":48.333333,"lon":15.683333},{"id":140670,"name":"hollenthon","country":"at","lat":47.583333,"lon":16.25},{"id":147825,"name":"sieghartskirchen","country":"at","lat":48.25,"lon":16.0},{"id":149830,"name":"waldheim","country":"at","lat":48.25,"lon":16.1},{"id":136149,"name":"adlitzgraben","country":"at","lat":47.65,"lon":15.816667},{"id":149925,"name":"wartberg im murztal","country":"at","lat":47.516667,"lon":15.5},{"id":148158,"name":"steinbach","country":"at","lat":48.25,"lon":16.2},{"id":143956,"name":"neustift","country":"at","lat":48.25,"lon":16.3},{"id":143626,"name":"muhlhofen","country":"at","lat":48.116667,"lon":15.533333},{"id":138486,"name":"floridsdorf","country":"at","lat":48.25,"lon":16.4},{"id":137880,"name":"edlitz","country":"at","lat":47.583333,"lon":16.133333},{"id":139874,"name":"hadersdorf","country":"at","lat":48.45,"lon":15.716667},{"id":143030,"name":"maria ponsee","country":"at","lat":48.35,"lon":15.85},{"id":140910,"name":"inneres kaltenegg","country":"at","lat":47.516667,"lon":15.8},{"id":142700,"name":"linsern","country":"at","lat":47.733333,"lon":16.15},{"id":136602,"name":"aschberg","country":"at","lat":48.15,"lon":15.9},{"id":140310,"name":"heuberg","country":"at","lat":48.15,"lon":15.7},{"id":141415,"name":"kirchberg am wagram","country":"at","lat":48.433333,"lon":15.883333},{"id":139835,"name":"haag","country":"at","lat":48.15,"lon":15.5},{"id":145184,"name":"pesendorf","country":"at","lat":47.6,"lon":16.216667},{"id":141794,"name":"kogl","country":"at","lat":48.233333,"lon":15.966667},{"id":141838,"name":"konigsbrunn","country":"at","lat":48.35,"lon":16.4},{"id":143891,"name":"neumitterndorf","country":"at","lat":48.014444,"lon":16.498333},{"id":148144,"name":"stein an der donau","country":"at","lat":48.4,"lon":15.583333},{"id":147769,"name":"semmering","country":"at","lat":47.633333,"lon":15.816667},{"id":150328,"name":"wilfersdorf","country":"at","lat":48.266667,"lon":16.1},{"id":143507,"name":"moosbierbaum","country":"at","lat":48.3,"lon":15.9},{"id":145949,"name":"ranzelsdorf","country":"at","lat":48.266667,"lon":16.0},{"id":147121,"name":"sasendorf","country":"at","lat":48.216667,"lon":15.516667},{"id":142262,"name":"lammerau","country":"at","lat":48.083333,"lon":15.983333},{"id":141653,"name":"kleinschonbichl","country":"at","lat":48.333333,"lon":15.933333},{"id":136412,"name":"altweidling","country":"at","lat":48.4,"lon":15.666667},{"id":149657,"name":"vollerndorf","country":"at","lat":48.166667,"lon":15.55},{"id":142295,"name":"landschach","country":"at","lat":47.683333,"lon":16.033333},{"id":147824,"name":"sieggraben","country":"at","lat":47.65,"lon":16.366667},{"id":146579,"name":"rustenfeld","country":"at","lat":48.118056,"lon":16.391111},{"id":140824,"name":"hutteldorf","country":"at","lat":48.3,"lon":15.866667},{"id":141037,"name":"jedlesee","country":"at","lat":48.266667,"lon":16.4},{"id":145133,"name":"perchtoldsdorf","country":"at","lat":48.116667,"lon":16.266667},{"id":139062,"name":"gleichenbach","country":"at","lat":47.55,"lon":16.3},{"id":145942,"name":"ransdorf","country":"at","lat":47.55,"lon":16.2},{"id":149777,"name":"wagram","country":"at","lat":47.933333,"lon":16.216667},{"id":141276,"name":"kasten bei boheimkirchen","country":"at","lat":48.15,"lon":15.783333},{"id":139879,"name":"hadersworth","country":"at","lat":47.733333,"lon":16.25},{"id":147200,"name":"schallhof","country":"at","lat":47.883333,"lon":15.933333},{"id":138029,"name":"eitzendorf","country":"at","lat":48.3,"lon":15.6},{"id":139945,"name":"hainbach","country":"at","lat":48.1,"lon":16.05},{"id":143086,"name":"massing","country":"at","lat":47.616667,"lon":15.55},{"id":147774,"name":"senftenberg","country":"at","lat":48.433333,"lon":15.55},{"id":141053,"name":"jeutendorf","country":"at","lat":48.25,"lon":15.733333},{"id":140022,"name":"hankenfeld","country":"at","lat":48.266667,"lon":15.883333},{"id":139928,"name":"haidfeld","country":"at","lat":48.133333,"lon":16.333333},{"id":136723,"name":"ausseraigen","country":"at","lat":47.583333,"lon":16.066667},{"id":145882,"name":"raipoltenbach","country":"at","lat":48.216667,"lon":15.883333},{"id":148587,"name":"teich","country":"at","lat":48.4,"lon":16.433333},{"id":141872,"name":"korneuburg","country":"at","lat":48.35,"lon":16.333333},{"id":147816,"name":"siegenfeld","country":"at","lat":48.033333,"lon":16.166667},{"id":148261,"name":"stickelberg","country":"at","lat":47.616667,"lon":16.233333},{"id":136469,"name":"an der leiten","country":"at","lat":47.95,"lon":15.966667},{"id":136240,"name":"albern","country":"at","lat":48.166667,"lon":16.483333},{"id":149273,"name":"untermallebern","country":"at","lat":48.45,"lon":16.166667},{"id":139317,"name":"grafenworth","country":"at","lat":48.4,"lon":15.783333},{"id":143356,"name":"mitteregg","country":"at","lat":47.533333,"lon":16.066667},{"id":143775,"name":"netting","country":"at","lat":47.816667,"lon":16.083333},{"id":149744,"name":"vostenhof","country":"at","lat":47.716667,"lon":15.983333},{"id":148480,"name":"sulzer hohe","country":"at","lat":48.1,"lon":16.15},{"id":146208,"name":"rennersdorf","country":"at","lat":48.133333,"lon":15.566667},{"id":148546,"name":"tasshof","country":"at","lat":48.0,"lon":16.033333},{"id":141133,"name":"kaisersdorf","country":"at","lat":47.533333,"lon":16.4},{"id":136428,"name":"ameisbuhel","country":"at","lat":48.083333,"lon":16.083333},{"id":138147,"name":"enzersfeld","country":"at","lat":48.35,"lon":16.416667},{"id":138775,"name":"gaisruck","country":"at","lat":48.383333,"lon":16.066667},{"id":150215,"name":"weyersdorf","country":"at","lat":48.283333,"lon":15.533333},{"id":141736,"name":"klosterneuberg","country":"at","lat":48.3,"lon":16.316667},{"id":144552,"name":"oberndorf am gebirge","country":"at","lat":48.333333,"lon":15.733333},{"id":142219,"name":"lahnerberg","country":"at","lat":48.316667,"lon":16.383333},{"id":141462,"name":"kirchschlag in der buckligen welt","country":"at","lat":47.5,"lon":16.283333},{"id":139322,"name":"gramatneusiedl","country":"at","lat":48.016667,"lon":16.483333},{"id":141209,"name":"kamp","country":"at","lat":48.433333,"lon":15.75},{"id":146242,"name":"riedanleiten","country":"at","lat":48.216667,"lon":16.116667},{"id":141548,"name":"klein-engersdorf","country":"at","lat":48.333056,"lon":16.383056},{"id":139005,"name":"gigging","country":"at","lat":48.4,"lon":15.866667},{"id":143049,"name":"mariensee","country":"at","lat":47.533333,"lon":15.966667},{"id":148659,"name":"theresienfeld","country":"at","lat":47.85,"lon":16.233333},{"id":148323,"name":"stojen","country":"at","lat":47.666667,"lon":15.666667},{"id":144512,"name":"obermallebern","country":"at","lat":48.45,"lon":16.15},{"id":138591,"name":"freiland","country":"at","lat":47.966667,"lon":15.566667},{"id":144502,"name":"oberlisse","country":"at","lat":48.283333,"lon":16.45},{"id":143353,"name":"mittereck","country":"at","lat":47.566667,"lon":16.266667},{"id":148388,"name":"stratzing","country":"at","lat":48.45,"lon":15.6},{"id":140141,"name":"hassbach","country":"at","lat":47.65,"lon":16.05},{"id":147886,"name":"singerin","country":"at","lat":47.766667,"lon":15.716667},{"id":142326,"name":"langenlois","country":"at","lat":48.466667,"lon":15.666667},{"id":140962,"name":"inzersdorf an der traisen","country":"at","lat":48.316667,"lon":15.666667},{"id":136742,"name":"ausserkasten","country":"at","lat":48.166667,"lon":15.766667},{"id":142347,"name":"langmannersdorf","country":"at","lat":48.266667,"lon":15.816667},{"id":138425,"name":"finsteregg","country":"at","lat":48.116667,"lon":15.733333},{"id":144862,"name":"oed","country":"at","lat":47.866667,"lon":16.016667},{"id":142373,"name":"lanzenkirchen","country":"at","lat":47.733333,"lon":16.233333},{"id":144888,"name":"ofenbach","country":"at","lat":47.65,"lon":16.15},{"id":143202,"name":"meislingeramt","country":"at","lat":48.466667,"lon":15.5},{"id":145669,"name":"prinzersdorf","country":"at","lat":48.2,"lon":15.516667},{"id":150713,"name":"zeiselberg","country":"at","lat":48.466667,"lon":15.7},{"id":137958,"name":"eichberg","country":"at","lat":47.633333,"lon":16.183333},{"id":149503,"name":"unterwolbling","country":"at","lat":48.316667,"lon":15.583333},{"id":140492,"name":"hochegg","country":"at","lat":47.65,"lon":16.333333},{"id":136138,"name":"adeldorf","country":"at","lat":48.166667,"lon":15.683333},{"id":148623,"name":"thalhof","country":"at","lat":47.65,"lon":15.766667},{"id":144983,"name":"ottenthal","country":"at","lat":48.466667,"lon":15.9},{"id":148920,"name":"turnitz","country":"at","lat":47.933333,"lon":15.5},{"id":143490,"name":"monchhofe","country":"at","lat":47.933333,"lon":15.6},{"id":149904,"name":"wampersdorf","country":"at","lat":47.916667,"lon":16.416667},{"id":143247,"name":"michelbach","country":"at","lat":48.1,"lon":15.75},{"id":137784,"name":"ebenfurth","country":"at","lat":47.866667,"lon":16.366667},{"id":150456,"name":"winzendorf","country":"at","lat":47.8,"lon":16.116667},{"id":143123,"name":"mauerbach","country":"at","lat":48.233333,"lon":16.15},{"id":144348,"name":"obergrafendorf","country":"at","lat":48.15,"lon":15.533333},{"id":142927,"name":"maiss","country":"at","lat":48.133333,"lon":15.933333},{"id":142459,"name":"lehenrotte","country":"at","lat":47.95,"lon":15.55},{"id":150591,"name":"worth","country":"at","lat":47.666667,"lon":15.966667},{"id":145785,"name":"raach am hochgebirge","country":"at","lat":47.633333,"lon":15.933333},{"id":147820,"name":"siegersdorf","country":"at","lat":47.9,"lon":16.35},{"id":149601,"name":"vienne","country":"at","lat":48.2,"lon":16.366667},{"id":147596,"name":"schwarzau am steinfelde","country":"at","lat":47.716667,"lon":16.166667},{"id":140879,"name":"in der au","country":"at","lat":48.366667,"lon":16.216667},{"id":144663,"name":"oberrussbach","country":"at","lat":48.466667,"lon":16.05},{"id":148500,"name":"sussfeld","country":"at","lat":48.216667,"lon":16.166667},{"id":142511,"name":"lembach","country":"at","lat":47.516667,"lon":16.316667},{"id":148634,"name":"thal","country":"at","lat":47.55,"lon":16.25},{"id":148046,"name":"stadtrandsiedlung","country":"at","lat":48.016667,"lon":16.316667},{"id":137318,"name":"buchbach","country":"at","lat":47.7,"lon":15.983333},{"id":140556,"name":"hofarth","country":"at","lat":48.35,"lon":15.616667},{"id":136627,"name":"aspern an der donau","country":"at","lat":48.218056,"lon":16.483056},{"id":137722,"name":"dross","country":"at","lat":48.45,"lon":15.566667},{"id":148697,"name":"thurnthal","country":"at","lat":48.433333,"lon":15.85},{"id":140757,"name":"hornstein","country":"at","lat":47.866667,"lon":16.433333},{"id":145767,"name":"pyhra","country":"at","lat":48.15,"lon":15.683333},{"id":150629,"name":"wurnitz","country":"at","lat":48.416667,"lon":16.416667},{"id":136463,"name":"am teiritz","country":"at","lat":48.366667,"lon":16.366667},{"id":145109,"name":"pengersdorf","country":"at","lat":47.583333,"lon":16.216667},{"id":136207,"name":"aigelsbach","country":"at","lat":48.1,"lon":15.533333},{"id":139806,"name":"gutenhof","country":"at","lat":48.05,"lon":16.45},{"id":148333,"name":"stoob","country":"at","lat":47.516667,"lon":16.466667},{"id":138092,"name":"engabrunn","country":"at","lat":48.45,"lon":15.75},{"id":145103,"name":"peisching","country":"at","lat":47.733333,"lon":16.116667},{"id":146066,"name":"reichenau an der rax","country":"at","lat":47.7,"lon":15.833333},{"id":137806,"name":"ebersberg","country":"at","lat":48.183333,"lon":15.883333},{"id":147123,"name":"sattelbach","country":"at","lat":48.016667,"lon":16.133333},{"id":146730,"name":"sankt egyden","country":"at","lat":47.783333,"lon":16.1},{"id":144093,"name":"nitzling","country":"at","lat":48.15,"lon":15.716667},{"id":144648,"name":"oberrohrbach","country":"at","lat":48.05,"lon":15.733333},{"id":147563,"name":"schwabenhof","country":"at","lat":47.55,"lon":16.45},{"id":139176,"name":"gondbauer","country":"at","lat":47.55,"lon":15.583333},{"id":147442,"name":"schonau an der triesting","country":"at","lat":47.933333,"lon":16.25},{"id":149389,"name":"unter-sankt-veit","country":"at","lat":48.183333,"lon":16.283333},{"id":149818,"name":"waldegg","country":"at","lat":47.866667,"lon":16.033333},{"id":139465,"name":"grossenberg","country":"at","lat":48.15,"lon":15.933333},{"id":147513,"name":"schrattenbach","country":"at","lat":47.783333,"lon":16.0},{"id":143957,"name":"neusussenbrunn","country":"at","lat":48.283056,"lon":16.483056},{"id":137630,"name":"dorfern","country":"at","lat":48.183333,"lon":15.733333},{"id":142506,"name":"leitzersdorf","country":"at","lat":48.416667,"lon":16.233333},{"id":142283,"name":"landegg","country":"at","lat":47.9,"lon":16.4},{"id":144154,"name":"oberabsdorf","country":"at","lat":48.4,"lon":15.966667},{"id":140678,"name":"holles","country":"at","lat":47.9,"lon":16.2},{"id":148630,"name":"thallern","country":"at","lat":48.05,"lon":16.283333},{"id":140611,"name":"hofwiese","country":"at","lat":48.05,"lon":16.133333},{"id":148802,"name":"traiskirchen","country":"at","lat":48.016667,"lon":16.283333},{"id":144235,"name":"oberdanegg","country":"at","lat":47.683333,"lon":16.05},{"id":137962,"name":"eichbuchl","country":"at","lat":47.75,"lon":16.283333},{"id":147084,"name":"sankt veit an der triesting","country":"at","lat":47.933333,"lon":16.15},{"id":143145,"name":"mautern","country":"at","lat":48.383333,"lon":15.583333},{"id":139857,"name":"hackbichl","country":"at","lat":47.666667,"lon":16.333333},{"id":145659,"name":"priefamtann","country":"at","lat":48.066667,"lon":16.116667},{"id":148739,"name":"tirolerhofsiedlung","country":"at","lat":48.1,"lon":16.233333},{"id":143393,"name":"mitterndorf an der fischa","country":"at","lat":47.983333,"lon":16.466667},{"id":145114,"name":"penk","country":"at","lat":47.666667,"lon":16.033333},{"id":136961,"name":"berndorf","country":"at","lat":47.95,"lon":16.1},{"id":138761,"name":"gainfarn","country":"at","lat":47.95,"lon":16.2},{"id":143452,"name":"modling","country":"at","lat":48.083333,"lon":16.283333},{"id":136359,"name":"altenworth","country":"at","lat":48.383333,"lon":15.85},{"id":148547,"name":"tattendorf","country":"at","lat":47.95,"lon":16.3},{"id":150565,"name":"wollmannsberg","country":"at","lat":48.416667,"lon":16.266667},{"id":143139,"name":"mauternbach","country":"at","lat":48.4,"lon":15.566667},{"id":139163,"name":"gollarn","country":"at","lat":48.283333,"lon":15.983333},{"id":144232,"name":"oberdambach","country":"at","lat":48.166667,"lon":15.85},{"id":143487,"name":"molz","country":"at","lat":47.583333,"lon":16.0},{"id":147789,"name":"sichelbach","country":"at","lat":48.2,"lon":15.8},{"id":143872,"name":"neulengbach","country":"at","lat":48.2,"lon":15.9},{"id":143508,"name":"moosbrunn","country":"at","lat":48.016667,"lon":16.45},{"id":147981,"name":"speising","country":"at","lat":48.166667,"lon":16.266667},{"id":143082,"name":"marz","country":"at","lat":47.716667,"lon":16.416667},{"id":138950,"name":"geretschlag","country":"at","lat":47.6,"lon":16.266667},{"id":137352,"name":"buchgraben","country":"at","lat":48.216667,"lon":16.15},{"id":136656,"name":"atzgersdorf","country":"at","lat":48.15,"lon":16.3},{"id":146395,"name":"rohrenbach","country":"at","lat":48.216667,"lon":15.766667},{"id":147561,"name":"schwabendorfl","country":"at","lat":48.15,"lon":16.0},{"id":137823,"name":"ebreichsdorf","country":"at","lat":47.95,"lon":16.4},{"id":145655,"name":"preuwitz","country":"at","lat":48.366667,"lon":15.816667},{"id":150448,"name":"winten","country":"at","lat":48.2,"lon":15.966667},{"id":141385,"name":"kienegg","country":"at","lat":47.616667,"lon":16.166667},{"id":147261,"name":"scheiblingstein","country":"at","lat":48.266667,"lon":16.216667},{"id":143810,"name":"neudorf","country":"at","lat":47.55,"lon":16.383333},{"id":137187,"name":"breitenbuch","country":"at","lat":47.683333,"lon":16.216667},{"id":141127,"name":"kaiserbrunn","country":"at","lat":47.733333,"lon":15.783333},{"id":150255,"name":"wien-rannersdorf","country":"at","lat":48.116667,"lon":16.466667},{"id":145182,"name":"perzendorf","country":"at","lat":48.366667,"lon":16.066667},{"id":137664,"name":"dornbach","country":"at","lat":48.083333,"lon":16.133333},{"id":141721,"name":"klingfurth","country":"at","lat":47.683333,"lon":16.25},{"id":140539,"name":"hochstrass","country":"at","lat":48.133333,"lon":15.783333},{"id":143114,"name":"matzersdorf","country":"at","lat":48.166667,"lon":15.566667},{"id":149598,"name":"viehofen","country":"at","lat":48.216667,"lon":15.616667},{"id":141257,"name":"karnabrunn","country":"at","lat":48.45,"lon":16.366667},{"id":137423,"name":"dambach","country":"at","lat":48.183333,"lon":16.15},{"id":141004,"name":"jagerwaldsiedlung","country":"at","lat":48.216667,"lon":16.25},{"id":147954,"name":"sonnleiten","country":"at","lat":47.65,"lon":15.933333},{"id":141556,"name":"kleinfeld","country":"at","lat":47.916667,"lon":16.116667},{"id":139519,"name":"gross-jedlersdorf","country":"at","lat":48.266667,"lon":16.433056},{"id":138259,"name":"fahrafeld","country":"at","lat":47.966667,"lon":16.066667},{"id":139420,"name":"grimmenstein","country":"at","lat":47.616667,"lon":16.133333},{"id":141934,"name":"krainerhutte","country":"at","lat":48.016667,"lon":16.166667},{"id":150820,"name":"zobing","country":"at","lat":48.483333,"lon":15.683333},{"id":149884,"name":"walpersbach","country":"at","lat":47.716667,"lon":16.233333},{"id":139130,"name":"goblasbruck","country":"at","lat":48.083333,"lon":15.583333},{"id":139214,"name":"gosing","country":"at","lat":48.466667,"lon":15.816667},{"id":138774,"name":"gaisrucken klause","country":"at","lat":48.1,"lon":15.95},{"id":140182,"name":"hausleiten","country":"at","lat":48.383333,"lon":16.1},{"id":139414,"name":"grillenberg","country":"at","lat":47.916667,"lon":16.083333},{"id":147925,"name":"sollenau","country":"at","lat":47.883333,"lon":16.25},{"id":141811,"name":"kohlstatt","country":"at","lat":48.383333,"lon":16.3},{"id":138564,"name":"frauenhofen","country":"at","lat":48.3,"lon":16.083333},{"id":146007,"name":"rauchengern","country":"at","lat":48.2,"lon":16.066667},{"id":149352,"name":"unterradlberg","country":"at","lat":48.25,"lon":15.666667},{"id":148660,"name":"thernberg","country":"at","lat":47.65,"lon":16.183333},{"id":147512,"name":"schranawand","country":"at","lat":47.966667,"lon":16.433333},{"id":145866,"name":"raifbach","country":"at","lat":47.6,"lon":16.083333},{"id":145444,"name":"plosdorf","country":"at","lat":48.183333,"lon":15.766667},{"id":142171,"name":"laaben","country":"at","lat":48.1,"lon":15.866667},{"id":140894,"name":"inneraigen","country":"at","lat":47.55,"lon":16.05},{"id":147425,"name":"schober","country":"at","lat":47.816667,"lon":15.866667},{"id":147349,"name":"schleinz","country":"at","lat":47.716667,"lon":16.25},{"id":137723,"name":"drosseramt","country":"at","lat":48.483333,"lon":15.533333},{"id":146330,"name":"rittis","country":"at","lat":47.566667,"lon":15.533333},{"id":138465,"name":"flatz","country":"at","lat":47.733333,"lon":16.016667},{"id":136839,"name":"bad voslau","country":"at","lat":47.966667,"lon":16.2},{"id":138342,"name":"felbering","country":"at","lat":47.85,"lon":16.083333},{"id":139267,"name":"gotzwiesen","country":"at","lat":48.166667,"lon":15.95},{"id":140095,"name":"haschendorf","country":"at","lat":47.883333,"lon":16.35},{"id":149950,"name":"watzendorf","country":"at","lat":48.3,"lon":15.85},{"id":138402,"name":"feuersbrunn","country":"at","lat":48.433333,"lon":15.783333},{"id":137702,"name":"dreikohlstatten","country":"at","lat":48.15,"lon":16.083333},{"id":148710,"name":"tiefental","country":"at","lat":47.866667,"lon":15.666667},{"id":136708,"name":"augustinerhutte","country":"at","lat":48.016667,"lon":16.15},{"id":140210,"name":"heiligeneich","country":"at","lat":48.283333,"lon":15.883333},{"id":137205,"name":"breitenstein am semmering","country":"at","lat":47.666667,"lon":15.816667},{"id":141046,"name":"jettsdorf","country":"at","lat":48.4,"lon":15.75},{"id":145032,"name":"paltram","country":"at","lat":48.2,"lon":15.816667},{"id":142561,"name":"lerchenau","country":"at","lat":48.433333,"lon":16.433333},{"id":139781,"name":"guntrams","country":"at","lat":47.716667,"lon":16.15},{"id":139278,"name":"grabensee","country":"at","lat":48.233333,"lon":15.933333},{"id":140114,"name":"hasendorf","country":"at","lat":48.3,"lon":15.833333},{"id":143127,"name":"mauerhofen","country":"at","lat":47.683333,"lon":15.833333},{"id":144861,"name":"oedlitz","country":"at","lat":47.95,"lon":16.133333},{"id":139493,"name":"grossgraben","country":"at","lat":48.233333,"lon":15.9},{"id":149375,"name":"unterrohrendorf","country":"at","lat":48.416667,"lon":15.65},{"id":139604,"name":"grossweikersdorf","country":"at","lat":48.466667,"lon":15.983333},{"id":137076,"name":"blumensiedlung","country":"at","lat":48.033333,"lon":16.316667},{"id":144131,"name":"nussberg","country":"at","lat":47.833333,"lon":15.95},{"id":148027,"name":"staasdorf","country":"at","lat":48.3,"lon":16.066667},{"id":139687,"name":"gschaidl","country":"at","lat":47.8,"lon":15.6},{"id":147597,"name":"schwarzau im gebirge","country":"at","lat":47.8,"lon":15.7},{"id":138607,"name":"fressnitz","country":"at","lat":47.55,"lon":15.533333},{"id":149801,"name":"waitzendorf","country":"at","lat":48.233333,"lon":15.6},{"id":145564,"name":"pottenbrunn","country":"at","lat":48.233333,"lon":15.7},{"id":141076,"name":"josefsdorf","country":"at","lat":48.266667,"lon":16.35},{"id":143112,"name":"matzendorf","country":"at","lat":47.883333,"lon":16.216667},{"id":148808,"name":"trattenbach","country":"at","lat":47.6,"lon":15.866667},{"id":147625,"name":"schwarzlackenau","country":"at","lat":48.283333,"lon":16.383333},{"id":136391,"name":"altmannsdorf","country":"at","lat":48.15,"lon":15.65},{"id":138941,"name":"gerasdorf","country":"at","lat":47.766667,"lon":16.066667},{"id":140154,"name":"hauersteig","country":"at","lat":48.216667,"lon":16.133333},{"id":137059,"name":"blindendorf","country":"at","lat":47.7,"lon":16.05},{"id":145211,"name":"pettendorf","country":"at","lat":48.4,"lon":16.066667},{"id":137755,"name":"durnrohr","country":"at","lat":48.333333,"lon":15.9},{"id":136330,"name":"altendorf","country":"at","lat":47.65,"lon":16.016667},{"id":136182,"name":"ahrenberg","country":"at","lat":48.333333,"lon":15.8},{"id":148581,"name":"teesdorf","country":"at","lat":47.95,"lon":16.283333},{"id":142148,"name":"kulm","country":"at","lat":47.666667,"lon":16.083333},{"id":146076,"name":"reichenhag","country":"at","lat":48.166667,"lon":15.716667},{"id":147906,"name":"sitzenberg","country":"at","lat":48.316667,"lon":15.8},{"id":142824,"name":"ludmerfeld","country":"at","lat":48.166667,"lon":15.866667},{"id":144911,"name":"ollern","country":"at","lat":48.266667,"lon":16.083333},{"id":148291,"name":"stinkenbrunn","country":"at","lat":47.833333,"lon":16.416667},{"id":140302,"name":"hessendorf","country":"at","lat":48.316667,"lon":15.5},{"id":150513,"name":"wolfenreith","country":"at","lat":48.333333,"lon":15.5},{"id":146221,"name":"rettenegg","country":"at","lat":47.533333,"lon":15.783333},{"id":140954,"name":"inprugg","country":"at","lat":48.216667,"lon":15.916667},{"id":146086,"name":"reichersdorf","country":"at","lat":48.333333,"lon":15.7},{"id":144455,"name":"oberkreuzstetten","country":"at","lat":48.483333,"lon":16.45},{"id":142545,"name":"leopoldau","country":"at","lat":48.266667,"lon":16.45},{"id":150349,"name":"willersdorf","country":"at","lat":48.15,"lon":15.55},{"id":141223,"name":"kapellen","country":"at","lat":47.633333,"lon":15.616667},{"id":149458,"name":"untertullnerbach","country":"at","lat":48.183333,"lon":16.1},{"id":147475,"name":"schoneben","country":"at","lat":47.6,"lon":15.716667},{"id":147873,"name":"simmeringer heide","country":"at","lat":48.174722,"lon":16.444167},{"id":140915,"name":"innerfurth","country":"at","lat":48.116667,"lon":15.916667},{"id":149213,"name":"unterkniewald","country":"at","lat":48.133333,"lon":16.033333},{"id":145900,"name":"rametzberg","country":"at","lat":48.083333,"lon":15.616667},{"id":145037,"name":"panzing","country":"at","lat":48.25,"lon":15.783333},{"id":143421,"name":"mitterstockstall","country":"at","lat":48.433333,"lon":15.916667},{"id":148902,"name":"tulbingerkogel","country":"at","lat":48.266667,"lon":16.15},{"id":150286,"name":"wiesen","country":"at","lat":48.216667,"lon":15.8},{"id":141597,"name":"kleinkrottenbach","country":"at","lat":48.1,"lon":16.0},{"id":146569,"name":"ruppersthal","country":"at","lat":48.45,"lon":15.933333},{"id":144848,"name":"ochsenburg","country":"at","lat":48.133333,"lon":15.633333},{"id":141605,"name":"kleinmariazell","country":"at","lat":48.033333,"lon":15.966667},{"id":147610,"name":"schwarzenbach","country":"at","lat":47.633333,"lon":16.35},{"id":150300,"name":"wiesmath","country":"at","lat":47.616667,"lon":16.283333},{"id":141943,"name":"krampen","country":"at","lat":47.666667,"lon":15.533333},{"id":142774,"name":"loipersbach","country":"at","lat":47.716667,"lon":16.116667},{"id":150459,"name":"wipfing","country":"at","lat":48.316667,"lon":16.133333},{"id":138330,"name":"feistritzberg","country":"at","lat":47.583333,"lon":15.583333},{"id":136137,"name":"adamsthal","country":"at","lat":47.966667,"lon":15.816667},{"id":144836,"name":"oberzwischenbrunn","country":"at","lat":48.216667,"lon":15.7},{"id":140588,"name":"hoflein an der donau","country":"at","lat":48.35,"lon":16.266667},{"id":142684,"name":"lindgraben","country":"at","lat":47.566667,"lon":16.4},{"id":136445,"name":"amlos","country":"at","lat":47.566667,"lon":16.2},{"id":148018,"name":"spratzeck","country":"at","lat":47.566667,"lon":16.3},{"id":141977,"name":"kreith","country":"at","lat":47.633333,"lon":16.166667},{"id":144948,"name":"ossarn","country":"at","lat":48.266667,"lon":15.716667},{"id":139126,"name":"gobelsburg","country":"at","lat":48.45,"lon":15.683333},{"id":139886,"name":"hafnerberg","country":"at","lat":48.016667,"lon":16.016667},{"id":141080,"name":"judenau","country":"at","lat":48.283333,"lon":16.0},{"id":141764,"name":"kobersdorf","country":"at","lat":47.6,"lon":16.4},{"id":144621,"name":"oberradlberg","country":"at","lat":48.233333,"lon":15.666667},{"id":136418,"name":"ambach","country":"at","lat":48.3,"lon":15.566667},{"id":142599,"name":"lichtenegg","country":"at","lat":47.6,"lon":16.2},{"id":150007,"name":"weidling","country":"at","lat":48.283333,"lon":16.3},{"id":138479,"name":"flinsdorf","country":"at","lat":48.25,"lon":15.633333},{"id":148812,"name":"tratten","country":"at","lat":47.6,"lon":16.0},{"id":144442,"name":"oberkirchbach","country":"at","lat":48.283333,"lon":16.2},{"id":139614,"name":"grottendorf","country":"at","lat":47.6,"lon":16.1},{"id":144780,"name":"oberwaltersdorf","country":"at","lat":47.966667,"lon":16.316667},{"id":147695,"name":"seegrotte","country":"at","lat":48.083333,"lon":16.266667},{"id":138724,"name":"furth an der triesting","country":"at","lat":47.966667,"lon":15.966667},{"id":144876,"name":"oepping","country":"at","lat":48.233333,"lon":16.016667},{"id":141540,"name":"kleindurlas","country":"at","lat":48.083333,"lon":15.766667},{"id":139567,"name":"grossriedenthal","country":"at","lat":48.483333,"lon":15.866667},{"id":137668,"name":"dornberg","country":"at","lat":48.2,"lon":15.983333},{"id":138928,"name":"geitzendorf","country":"at","lat":48.483333,"lon":16.216667},{"id":147511,"name":"schrambach","country":"at","lat":48.0,"lon":15.566667},{"id":150006,"name":"weidlingbach","country":"at","lat":48.266667,"lon":16.25},{"id":140460,"name":"hirschentanz","country":"at","lat":48.133333,"lon":16.183333},{"id":137514,"name":"diepolz","country":"at","lat":47.7,"lon":16.083333},{"id":146200,"name":"reitzing","country":"at","lat":48.15,"lon":15.566667},{"id":150078,"name":"weissenbach an der triesting","country":"at","lat":47.966667,"lon":16.033333},{"id":145951,"name":"ranzen","country":"at","lat":48.116667,"lon":16.016667},{"id":147634,"name":"schwechat","country":"at","lat":48.133333,"lon":16.466667},{"id":143063,"name":"marktl","country":"at","lat":48.016667,"lon":15.6},{"id":149803,"name":"walbersdorf","country":"at","lat":47.733333,"lon":16.416667},{"id":143892,"name":"neumuhle","country":"at","lat":48.366667,"lon":16.083333},{"id":145636,"name":"preinsfeld","country":"at","lat":48.05,"lon":16.116667},{"id":139771,"name":"gunselsdorf","country":"at","lat":47.933333,"lon":16.266667},{"id":141249,"name":"karl","country":"at","lat":47.5,"lon":16.35},{"id":138326,"name":"feistritz am wechsel","country":"at","lat":47.6,"lon":16.05},{"id":148355,"name":"stranzendorf","country":"at","lat":48.45,"lon":16.066667},{"id":138195,"name":"erpersdorf","country":"at","lat":48.333333,"lon":15.916667},{"id":136109,"name":"abstetten","country":"at","lat":48.266667,"lon":15.983333},{"id":144121,"name":"nostach","country":"at","lat":48.033333,"lon":16.033333},{"id":143922,"name":"neusiedl am steinfelde","country":"at","lat":47.766667,"lon":16.1},{"id":142810,"name":"losenheim","country":"at","lat":47.783333,"lon":15.85},{"id":139629,"name":"gruberau","country":"at","lat":48.1,"lon":16.083333},{"id":139650,"name":"grunbach am schneeberg","country":"at","lat":47.783333,"lon":15.983333},{"id":138573,"name":"frauenwart","country":"at","lat":48.183333,"lon":16.116667},{"id":144050,"name":"niederrussbach","country":"at","lat":48.45,"lon":16.033333},{"id":150250,"name":"wiener neustadt","country":"at","lat":47.8,"lon":16.25},{"id":150210,"name":"wetzleinsdorf","country":"at","lat":48.466667,"lon":16.366667},{"id":145194,"name":"petersbaumgarten","country":"at","lat":47.633333,"lon":16.133333},{"id":140178,"name":"hausheim","country":"at","lat":48.316667,"lon":15.616667},{"id":136123,"name":"achau","country":"at","lat":48.066667,"lon":16.383333},{"id":147958,"name":"sonnleit","country":"at","lat":48.116667,"lon":15.783333},{"id":148882,"name":"trumau","country":"at","lat":47.983333,"lon":16.333333},{"id":144756,"name":"obertriesting","country":"at","lat":48.05,"lon":15.883333},{"id":139674,"name":"gruntal","country":"at","lat":48.316667,"lon":16.283333},{"id":136621,"name":"aspang markt","country":"at","lat":47.55,"lon":16.083333},{"id":146381,"name":"rohrbachgraben","country":"at","lat":47.75,"lon":15.883333},{"id":138729,"name":"furthof","country":"at","lat":47.916667,"lon":15.6},{"id":141821,"name":"kollersdorf","country":"at","lat":48.416667,"lon":15.85},{"id":150005,"name":"weidlingau","country":"at","lat":48.2,"lon":16.216667},{"id":138458,"name":"flandorf","country":"at","lat":48.35,"lon":16.383333},{"id":138505,"name":"forchtenau","country":"at","lat":47.7,"lon":16.35},{"id":143783,"name":"neuberg an der murz","country":"at","lat":47.666667,"lon":15.566667},{"id":150578,"name":"wopfing","country":"at","lat":47.866667,"lon":16.066667},{"id":137929,"name":"eggsdorf","country":"at","lat":48.2,"lon":15.566667},{"id":139116,"name":"gneixendorf","country":"at","lat":48.433333,"lon":15.6},{"id":148620,"name":"thalheim","country":"at","lat":48.233333,"lon":15.783333},{"id":146168,"name":"reitersberg","country":"at","lat":47.666667,"lon":16.15},{"id":150238,"name":"wielandsthal","country":"at","lat":48.3,"lon":15.683333},{"id":150778,"name":"zillingdorf","country":"at","lat":47.85,"lon":16.333333},{"id":141514,"name":"klausenleopoldsdorf","country":"at","lat":48.083333,"lon":16.0},{"id":148960,"name":"ulrichskirchen","country":"at","lat":48.4,"lon":16.483333},{"id":143963,"name":"neuwald","country":"at","lat":47.55,"lon":15.983333},{"id":136675,"name":"audorf","country":"at","lat":48.116667,"lon":15.9},{"id":138031,"name":"eitzersthal","country":"at","lat":48.483333,"lon":16.083333},{"id":137795,"name":"eberbach","country":"at","lat":47.983333,"lon":16.0},{"id":148033,"name":"stadlau","country":"at","lat":48.233333,"lon":16.45},{"id":146457,"name":"rosental","country":"at","lat":48.033333,"lon":16.183333},{"id":150458,"name":"winzing","country":"at","lat":48.283333,"lon":15.583333},{"id":147961,"name":"sooss","country":"at","lat":47.983333,"lon":16.2},{"id":147140,"name":"sauerbrunn","country":"at","lat":47.766667,"lon":16.333333},{"id":138260,"name":"fahrenbach","country":"at","lat":48.0,"lon":15.833333},{"id":140340,"name":"hilzmannsdorf","country":"at","lat":47.666667,"lon":16.0},{"id":139321,"name":"gramatl","country":"at","lat":47.666667,"lon":16.05},{"id":147410,"name":"schneedorfl","country":"at","lat":47.7,"lon":15.866667},{"id":136513,"name":"antau","country":"at","lat":47.766667,"lon":16.483333},{"id":146437,"name":"roseldorf","country":"at","lat":48.483333,"lon":16.25},{"id":150714,"name":"zeiselmauer","country":"at","lat":48.333333,"lon":16.166667},{"id":149795,"name":"waidmannsfeld","country":"at","lat":47.866667,"lon":15.966667},{"id":136364,"name":"alterlaa","country":"at","lat":48.133333,"lon":16.316667},{"id":150001,"name":"weidern","country":"at","lat":48.233333,"lon":15.633333},{"id":140381,"name":"hinterholz","country":"at","lat":48.133333,"lon":15.666667},{"id":148338,"name":"stossing","country":"at","lat":48.116667,"lon":15.8},{"id":144670,"name":"ober-sankt-veit","country":"at","lat":48.183333,"lon":16.266667},{"id":140073,"name":"hart","country":"at","lat":47.666667,"lon":16.2},{"id":145512,"name":"pommern","country":"at","lat":48.116667,"lon":15.6},{"id":148642,"name":"thann","country":"at","lat":47.666667,"lon":16.1}]});