callback({"markets":[{"id":1979355,"name":"adoa","country":"ng","lat":6.316667,"lon":5.833333},{"id":2010424,"name":"okuo","country":"ng","lat":6.199433,"lon":6.084677},{"id":1996234,"name":"iguegbe","country":"ng","lat":6.366566,"lon":5.957251},{"id":2010194,"name":"okpara waterside","country":"ng","lat":5.742644,"lon":5.913943},{"id":1995815,"name":"ifie","country":"ng","lat":5.558675,"lon":5.686286},{"id":2016130,"name":"tori","country":"ng","lat":5.566667,"lon":5.75},{"id":1992539,"name":"gbosien","country":"ng","lat":5.804406,"lon":5.625614},{"id":2008326,"name":"oben","country":"ng","lat":5.993686,"lon":5.899503},{"id":1979079,"name":"adagbarassa","country":"ng","lat":5.849819,"lon":5.756994},{"id":2009161,"name":"ogbole-ogume","country":"ng","lat":5.74575,"lon":6.336541},{"id":1989422,"name":"egbisi","country":"ng","lat":6.488413,"lon":6.045537},{"id":1990593,"name":"ewan","country":"ng","lat":6.433333,"lon":5.966667},{"id":2017669,"name":"uchi quarters","country":"ng","lat":5.917344,"lon":6.481376},{"id":2012169,"name":"owe","country":"ng","lat":6.103799,"lon":6.048017},{"id":2008201,"name":"obadan","country":"ng","lat":6.475648,"lon":5.904844},{"id":2012296,"name":"oyenke","country":"ng","lat":5.724776,"lon":5.747646},{"id":2010449,"name":"okuta","country":"ng","lat":6.472853,"lon":6.233654},{"id":2009289,"name":"ogiza","country":"ng","lat":6.179297,"lon":5.546771},{"id":2010931,"name":"oluku","country":"ng","lat":6.449697,"lon":5.597074},{"id":2017982,"name":"uhie","country":"ng","lat":6.166667,"lon":5.633333},{"id":1996638,"name":"ikobi","country":"ng","lat":6.0,"lon":5.933333},{"id":1996054,"name":"igbogilete","country":"ng","lat":5.985847,"lon":5.565817},{"id":2008765,"name":"odjeva","country":"ng","lat":6.383333,"lon":5.75},{"id":1990558,"name":"evboikhuenbo","country":"ng","lat":6.45,"lon":5.733333},{"id":2017791,"name":"ugbebe","country":"ng","lat":5.647763,"lon":5.964154},{"id":2007900,"name":"nsukwa","country":"ng","lat":6.015247,"lon":6.444702},{"id":2011978,"name":"otolokpo","country":"ng","lat":6.213318,"lon":6.299537},{"id":2012129,"name":"owa-alidima","country":"ng","lat":6.028882,"lon":6.286289},{"id":1989087,"name":"ebada","country":"ng","lat":5.775749,"lon":5.736421},{"id":1983501,"name":"avdesagbon","country":"ng","lat":6.483333,"lon":5.866667},{"id":2018651,"name":"umusadege","country":"ng","lat":5.692382,"lon":6.428201},{"id":1989590,"name":"ejeve","country":"ng","lat":5.542052,"lon":5.65701},{"id":1996242,"name":"iguelenebue","country":"ng","lat":6.35,"lon":5.933333},{"id":2014189,"name":"sapoba","country":"ng","lat":6.106357,"lon":5.89857},{"id":2017844,"name":"ugbogo","country":"ng","lat":6.127652,"lon":6.003534},{"id":1980428,"name":"ajafitor","country":"ng","lat":5.758833,"lon":5.921561},{"id":1995737,"name":"idumessa","country":"ng","lat":6.0,"lon":5.9},{"id":2018658,"name":"umute","country":"ng","lat":6.020353,"lon":6.475893},{"id":2017850,"name":"ugboko-niro","country":"ng","lat":6.139388,"lon":5.963236},{"id":2011935,"name":"oteghele","country":"ng","lat":5.562133,"lon":5.640833},{"id":1989813,"name":"ekraka","country":"ng","lat":5.69072,"lon":5.998393},{"id":1990574,"name":"evbuarhue","country":"ng","lat":6.183333,"lon":5.766667},{"id":2008438,"name":"obi-onikegu","country":"ng","lat":6.085683,"lon":6.370548},{"id":2010122,"name":"okorikpehre","country":"ng","lat":5.58074,"lon":5.839099},{"id":2008745,"name":"odiete","country":"ng","lat":5.621608,"lon":5.854992},{"id":1998019,"name":"isa-ogwashi","country":"ng","lat":6.215156,"lon":6.498885},{"id":2006160,"name":"michaga","country":"ng","lat":5.9,"lon":5.733333},{"id":2012344,"name":"ozanisi","country":"ng","lat":6.342748,"lon":6.055033},{"id":1989829,"name":"eku","country":"ng","lat":5.743939,"lon":5.990492},{"id":1990573,"name":"evbozegbo","country":"ng","lat":6.333333,"lon":5.95},{"id":1990304,"name":"erhomeghwu","country":"ng","lat":5.676007,"lon":5.993761},{"id":2008471,"name":"obodo","country":"ng","lat":5.505133,"lon":5.835015},{"id":1996275,"name":"iguoke","country":"ng","lat":6.351338,"lon":6.068012},{"id":1989839,"name":"ekuma-abavo","country":"ng","lat":6.155593,"lon":6.157484},{"id":1978630,"name":"abavo","country":"ng","lat":6.119022,"lon":6.184208},{"id":2011489,"name":"ora","country":"ng","lat":6.466667,"lon":5.6},{"id":1980866,"name":"akiewe","country":"ng","lat":5.516881,"lon":6.164881},{"id":1998144,"name":"isievbie","country":"ng","lat":6.409132,"lon":6.07468},{"id":1998135,"name":"isiehor","country":"ng","lat":6.413545,"lon":5.603726},{"id":1995765,"name":"idunmwowinna","country":"ng","lat":6.177745,"lon":5.897684},{"id":1990273,"name":"erawah","country":"ng","lat":5.543441,"lon":6.169451},{"id":2009015,"name":"ofuoma","country":"ng","lat":5.564249,"lon":6.029928},{"id":2009642,"name":"ojiguo","country":"ng","lat":5.926209,"lon":5.624225},{"id":2010567,"name":"old iyekezie","country":"ng","lat":6.466667,"lon":5.5},{"id":2011658,"name":"orokpor","country":"ng","lat":5.6,"lon":6.016667},{"id":2020454,"name":"warri","country":"ng","lat":5.516667,"lon":5.75},{"id":1989575,"name":"ejeba","country":"ng","lat":5.618818,"lon":6.101885},{"id":1996287,"name":"iguozevbaru","country":"ng","lat":6.479204,"lon":5.838469},{"id":2017880,"name":"ugbosien waterside","country":"ng","lat":5.785442,"lon":5.598524},{"id":1983497,"name":"avbiaman","country":"ng","lat":6.311632,"lon":5.677794},{"id":1983866,"name":"azamu","country":"ng","lat":6.094286,"lon":6.415512},{"id":2011144,"name":"onicha-ukwu","country":"ng","lat":6.368474,"lon":6.464396},{"id":1978584,"name":"abara","country":"ng","lat":5.612109,"lon":6.353108},{"id":2017805,"name":"ugbemisi","country":"ng","lat":6.38574,"lon":6.047388},{"id":1989324,"name":"effurun","country":"ng","lat":5.554632,"lon":5.786239},{"id":2019937,"name":"ushie","country":"ng","lat":5.626276,"lon":6.329083},{"id":1989201,"name":"ebute-ujogba","country":"ng","lat":6.465032,"lon":6.109669},{"id":2012351,"name":"ozarra","country":"ng","lat":6.314821,"lon":6.125662},{"id":1997927,"name":"iriama","country":"ng","lat":5.695502,"lon":5.716758},{"id":1989622,"name":"ekakpamre","country":"ng","lat":5.517212,"lon":5.905722},{"id":2018330,"name":"umudike","country":"ng","lat":5.907284,"lon":6.468752},{"id":2008414,"name":"obi-nte","country":"ng","lat":6.055016,"lon":6.382828},{"id":1982756,"name":"aragba-okpe","country":"ng","lat":5.768187,"lon":5.825204},{"id":1989801,"name":"ekpo","country":"ng","lat":6.411828,"lon":6.268714},{"id":2008242,"name":"obanaghoro","country":"ng","lat":5.806133,"lon":5.911036},{"id":2010019,"name":"okoh idjerhe","country":"ng","lat":5.680007,"lon":6.017884},{"id":2010409,"name":"okuodede","country":"ng","lat":5.760583,"lon":5.681698},{"id":2018653,"name":"umusedel","country":"ng","lat":6.043079,"lon":6.364963},{"id":2020574,"name":"wiri-ale","country":"ng","lat":6.353973,"lon":6.235136},{"id":2009540,"name":"oha","country":"ng","lat":6.195139,"lon":5.638799},{"id":1989294,"name":"eduweke","country":"ng","lat":6.171199,"lon":5.985951},{"id":2010415,"name":"okuoke","country":"ng","lat":5.730336,"lon":5.731426},{"id":2009204,"name":"ogboyoko","country":"ng","lat":6.315355,"lon":5.563943},{"id":2011404,"name":"opete","country":"ng","lat":5.535149,"lon":5.800909},{"id":2018007,"name":"ujode","country":"ng","lat":5.544867,"lon":5.98922},{"id":1995487,"name":"idale quarters","country":"ng","lat":5.852726,"lon":6.143505},{"id":2004520,"name":"maholo","country":"ng","lat":6.183333,"lon":6.35},{"id":1990598,"name":"ewatto","country":"ng","lat":6.496733,"lon":6.370059},{"id":2017654,"name":"ubuluku","country":"ng","lat":6.233792,"lon":6.455334},{"id":1982453,"name":"anioma","country":"ng","lat":6.177815,"lon":6.411403},{"id":2018487,"name":"umulua-obiogba","country":"ng","lat":6.358718,"lon":6.178874},{"id":2019874,"name":"uruhue","country":"ng","lat":5.965305,"lon":5.997228},{"id":2001608,"name":"kokori","country":"ng","lat":5.631222,"lon":6.035071},{"id":2010454,"name":"okuvo","country":"ng","lat":5.675069,"lon":5.748729},{"id":2018124,"name":"ukunuse","country":"ng","lat":5.715604,"lon":5.965789},{"id":1980514,"name":"ajayibo","country":"ng","lat":5.781153,"lon":5.908675},{"id":1997964,"name":"iru","country":"ng","lat":6.322619,"lon":6.029871},{"id":1989366,"name":"egbahe","country":"ng","lat":5.583658,"lon":6.134933},{"id":2009022,"name":"ogaga","country":"ng","lat":6.404945,"lon":5.892634},{"id":1998635,"name":"iyohiu","country":"ng","lat":6.238694,"lon":6.099384},{"id":2017585,"name":"ubakotete camp","country":"ng","lat":5.666835,"lon":5.598342},{"id":1996092,"name":"igbomaja inland","country":"ng","lat":5.835392,"lon":5.828292},{"id":1996283,"name":"iguosa","country":"ng","lat":6.439174,"lon":5.597684},{"id":2002970,"name":"kwale station","country":"ng","lat":5.706322,"lon":6.43741},{"id":2019906,"name":"useh","country":"ng","lat":6.36221,"lon":5.582728},{"id":1979663,"name":"agaua","country":"ng","lat":6.488066,"lon":5.524522},{"id":1980438,"name":"ajagbodudu","country":"ng","lat":5.952335,"lon":5.583344},{"id":2012079,"name":"ovade","country":"ng","lat":6.011806,"lon":5.704743},{"id":1996285,"name":"iguosodin","country":"ng","lat":6.4,"lon":5.533333},{"id":2009287,"name":"ogirisen","country":"ng","lat":5.738217,"lon":5.711319},{"id":2018243,"name":"umuachi-ator","country":"ng","lat":5.788225,"lon":6.458728},{"id":2010601,"name":"olgbo","country":"ng","lat":6.061806,"lon":5.661319},{"id":1978485,"name":"abah","country":"ng","lat":6.062698,"lon":6.488526},{"id":2010411,"name":"okuogbe","country":"ng","lat":5.766734,"lon":5.936001},{"id":2011642,"name":"oroghe","country":"ng","lat":6.479569,"lon":6.236415},{"id":1989098,"name":"ebazogbe-niro","country":"ng","lat":6.136858,"lon":5.931319},{"id":1983910,"name":"azuowa","country":"ng","lat":6.094591,"lon":6.220239},{"id":1986757,"name":"chemisan","country":"ng","lat":5.766667,"lon":5.616667},{"id":1985846,"name":"bokodo","country":"ng","lat":5.583515,"lon":5.679792},{"id":1981612,"name":"alihagu","country":"ng","lat":6.246072,"lon":6.131151},{"id":1983289,"name":"atakolo","country":"ng","lat":5.833333,"lon":5.7},{"id":1996243,"name":"iguelenisi","country":"ng","lat":6.342799,"lon":5.952517},{"id":2018661,"name":"umutu","country":"ng","lat":5.915224,"lon":6.224111},{"id":2012174,"name":"owere-uteokpu","country":"ng","lat":6.186822,"lon":6.282883},{"id":1989273,"name":"edoide","country":"ng","lat":5.565808,"lon":6.086544},{"id":1990555,"name":"evbodobian","country":"ng","lat":6.117929,"lon":6.045701},{"id":1981113,"name":"akpobome","country":"ng","lat":5.873989,"lon":5.728574},{"id":2008967,"name":"ofia ekpone","country":"ng","lat":5.726703,"lon":5.618029},{"id":2020014,"name":"utoka","country":"ng","lat":6.373211,"lon":5.52807},{"id":2011866,"name":"ossissa-stat","country":"ng","lat":5.923055,"lon":6.488532},{"id":1978661,"name":"abbi","country":"ng","lat":5.672722,"lon":6.21247},{"id":1996260,"name":"iguiyase","country":"ng","lat":6.383333,"lon":5.916667},{"id":2009235,"name":"oghada","country":"ng","lat":6.379962,"lon":6.105818},{"id":1981209,"name":"akuodo","country":"ng","lat":5.943918,"lon":5.750189},{"id":2010338,"name":"okuetolor","country":"ng","lat":5.733141,"lon":5.773668},{"id":1997561,"name":"imasabo","country":"ng","lat":6.087915,"lon":5.662437},{"id":2011962,"name":"otobayo","country":"ng","lat":6.121515,"lon":6.081803},{"id":1989578,"name":"ejeketa","country":"ng","lat":5.820861,"lon":5.837827},{"id":1990165,"name":"emonu","country":"ng","lat":5.698073,"lon":6.102297},{"id":2009939,"name":"oki-agbie","country":"ng","lat":6.209935,"lon":6.127047},{"id":2007639,"name":"niro","country":"ng","lat":6.316667,"lon":5.733333},{"id":1989404,"name":"egbeleku","country":"ng","lat":5.691446,"lon":5.793055},{"id":1989766,"name":"ekpe ajaokotie","country":"ng","lat":5.873434,"lon":5.557084},{"id":1990315,"name":"eriem fields","country":"ng","lat":5.522957,"lon":6.070252},{"id":2010020,"name":"okoh ikoro","country":"ng","lat":5.720977,"lon":6.016809},{"id":2009578,"name":"ohrerhe waterside","country":"ng","lat":5.567117,"lon":5.850724},{"id":1989277,"name":"edopa","country":"ng","lat":6.389879,"lon":5.737059},{"id":2009236,"name":"oghanda water-side","country":"ng","lat":6.378918,"lon":6.131239},{"id":2009547,"name":"ohen","country":"ng","lat":6.216667,"lon":5.733333},{"id":2019836,"name":"urhokuosa","country":"ng","lat":6.385351,"lon":5.851715},{"id":2009755,"name":"okavbogu","country":"ng","lat":6.283333,"lon":5.666667},{"id":2012147,"name":"owa-nta","country":"ng","lat":6.234922,"lon":6.186318},{"id":1996270,"name":"iguododo","country":"ng","lat":6.220732,"lon":6.002181},{"id":1989562,"name":"eilo-edo","country":"ng","lat":6.43523,"lon":6.120372},{"id":2011536,"name":"orhokpokpor","country":"ng","lat":5.575295,"lon":5.891779},{"id":1984334,"name":"bakana","country":"ng","lat":5.92525,"lon":5.576112},{"id":2009713,"name":"ojuvwre","country":"ng","lat":5.53871,"lon":6.097673},{"id":2018655,"name":"umuseta","country":"ng","lat":5.68217,"lon":6.417908},{"id":1990194,"name":"enerhe","country":"ng","lat":5.533969,"lon":5.787692},{"id":1985346,"name":"benji","country":"ng","lat":5.551043,"lon":5.734114},{"id":1990174,"name":"emu-obiogo","country":"ng","lat":5.652165,"lon":6.289508},{"id":2020081,"name":"uwelu","country":"ng","lat":6.383333,"lon":5.583333},{"id":1989214,"name":"echuwa","country":"ng","lat":6.393051,"lon":5.664149},{"id":1986225,"name":"bukurusu","country":"ng","lat":5.817031,"lon":5.601363},{"id":1990591,"name":"ewalto","country":"ng","lat":6.460289,"lon":6.276052},{"id":2002967,"name":"kwale","country":"ng","lat":5.790229,"lon":6.104731},{"id":2011405,"name":"opheri","country":"ng","lat":5.509192,"lon":6.062188},{"id":1997942,"name":"irokhin","country":"ng","lat":6.383333,"lon":5.866667},{"id":1981642,"name":"alisomor","country":"ng","lat":6.281996,"lon":6.124881},{"id":1996259,"name":"iguiya","country":"ng","lat":6.249841,"lon":6.095295},{"id":1998196,"name":"isompe","country":"ng","lat":6.02033,"lon":6.316093},{"id":1979870,"name":"agbor-nta","country":"ng","lat":6.224172,"lon":6.144532},{"id":1989819,"name":"ekreka","country":"ng","lat":5.532204,"lon":6.16316},{"id":2006064,"name":"mele","country":"ng","lat":5.887793,"lon":5.702237},{"id":1990500,"name":"etete","country":"ng","lat":6.29285,"lon":5.633233},{"id":1979932,"name":"aghalokpe waterside","country":"ng","lat":5.779721,"lon":5.8648},{"id":1979438,"name":"aduwawa","country":"ng","lat":6.362941,"lon":5.679103},{"id":1995544,"name":"idheze","country":"ng","lat":5.506964,"lon":6.28213},{"id":2009097,"name":"ogbeofu","country":"ng","lat":6.32657,"lon":6.485361},{"id":1982751,"name":"aradhe","country":"ng","lat":5.61811,"lon":6.296392},{"id":2017873,"name":"ugboroke","country":"ng","lat":5.54069,"lon":5.753458},{"id":2011513,"name":"orekhie","country":"ng","lat":6.491424,"lon":6.410446},{"id":1996056,"name":"igbogilli","country":"ng","lat":6.116667,"lon":6.141901},{"id":1979931,"name":"aghalokpe","country":"ng","lat":5.768628,"lon":5.860973},{"id":1981860,"name":"amai-nge","country":"ng","lat":5.751925,"lon":6.22812},{"id":2008766,"name":"odjighori","country":"ng","lat":5.555109,"lon":6.078156},{"id":2008549,"name":"obotie","country":"ng","lat":5.840918,"lon":5.572072},{"id":1998528,"name":"iwremeragha","country":"ng","lat":5.54156,"lon":6.027455},{"id":1995754,"name":"idumwvago-ugbeka","country":"ng","lat":6.183955,"lon":6.084619},{"id":1990366,"name":"ero-ikeh","country":"ng","lat":5.642801,"lon":6.073048},{"id":2008380,"name":"obidugbo","country":"ng","lat":6.060277,"lon":6.32528},{"id":2009812,"name":"okegberode","country":"ng","lat":5.779609,"lon":5.651272},{"id":1989472,"name":"egho","country":"ng","lat":5.993294,"lon":5.601689},{"id":1995672,"name":"idogbo","country":"ng","lat":6.266667,"lon":5.716667},{"id":2010335,"name":"okuenebele","country":"ng","lat":5.7,"lon":6.05},{"id":1989099,"name":"ebazogbenugu","country":"ng","lat":6.023414,"lon":5.944763},{"id":2008885,"name":"odovie","country":"ng","lat":5.576024,"lon":6.016648},{"id":1981848,"name":"amahia","country":"ng","lat":6.233974,"lon":6.126251},{"id":2012099,"name":"oviorie","country":"ng","lat":5.660854,"lon":5.919483},{"id":2008236,"name":"obamahan","country":"ng","lat":6.097275,"lon":5.588984},{"id":2017715,"name":"udomi","country":"ng","lat":6.13505,"lon":6.177959},{"id":2009069,"name":"ogba-ofu quarters","country":"ng","lat":5.855266,"lon":6.154796},{"id":1997235,"name":"ikpoba","country":"ng","lat":6.35,"lon":5.65},{"id":2017937,"name":"ugono","country":"ng","lat":5.68861,"lon":6.071274},{"id":1981171,"name":"akuku agbor","country":"ng","lat":6.080924,"lon":6.307813},{"id":1990553,"name":"evbiyomwanru","country":"ng","lat":6.22427,"lon":5.518782},{"id":2008378,"name":"obi-doke","country":"ng","lat":6.021625,"lon":6.272673},{"id":1989369,"name":"egbal","country":"ng","lat":6.273766,"lon":5.703021},{"id":2017912,"name":"ughoton-waterside","country":"ng","lat":5.619755,"lon":5.653633},{"id":2008283,"name":"obazagbon-nugu","country":"ng","lat":6.034894,"lon":6.070477},{"id":2009175,"name":"ogbomoro","country":"ng","lat":5.566572,"lon":5.833922},{"id":1995899,"name":"igbaki","country":"ng","lat":6.347536,"lon":6.209022},{"id":1981899,"name":"amangba","country":"ng","lat":6.233333,"lon":5.6},{"id":2009577,"name":"ohrerhe","country":"ng","lat":5.564743,"lon":5.855561},{"id":1996095,"name":"igbomoya","country":"ng","lat":5.838933,"lon":5.781157},{"id":1979144,"name":"ada-obadan","country":"ng","lat":6.498087,"lon":5.852518},{"id":1980104,"name":"ago osakwe","country":"ng","lat":6.35,"lon":5.55},{"id":1990502,"name":"etewe quarters","country":"ng","lat":5.540162,"lon":6.23112},{"id":2010086,"name":"okomwere","country":"ng","lat":6.3,"lon":5.5},{"id":2010657,"name":"ologbo","country":"ng","lat":5.893323,"lon":5.978746},{"id":1980704,"name":"akadimon","country":"ng","lat":5.683333,"lon":5.816667},{"id":1981849,"name":"amaho","country":"ng","lat":6.468528,"lon":6.200381},{"id":1995735,"name":"idumeje-ugboko","country":"ng","lat":6.363316,"lon":6.404736},{"id":2009240,"name":"ogharefe","country":"ng","lat":5.93193,"lon":5.665184},{"id":2010373,"name":"okumude","country":"ng","lat":5.744847,"lon":5.83583},{"id":2012267,"name":"owuwu","country":"ng","lat":6.300484,"lon":6.133993},{"id":2008400,"name":"obikwele","country":"ng","lat":5.858487,"lon":6.494788},{"id":2017939,"name":"ugo","country":"ng","lat":6.087967,"lon":6.002172},{"id":2018435,"name":"umuhumu","country":"ng","lat":5.95,"lon":5.966667},{"id":1989429,"name":"egbokor","country":"ng","lat":6.111118,"lon":6.024054},{"id":1981965,"name":"amasowomwan","country":"ng","lat":6.260461,"lon":6.036184},{"id":2011368,"name":"opaetensm","country":"ng","lat":5.680891,"lon":6.431872},{"id":2010070,"name":"okolovu","country":"ng","lat":5.71476,"lon":5.757265},{"id":2011101,"name":"onaghagha","country":"ng","lat":5.991205,"lon":5.692688},{"id":1982935,"name":"arogun","country":"ng","lat":5.683333,"lon":6.183333},{"id":1995767,"name":"idunmwunivdiode","country":"ng","lat":6.3,"lon":5.633333},{"id":1980460,"name":"ajamangoro","country":"ng","lat":5.933333,"lon":5.533333},{"id":2015239,"name":"suoroagbene","country":"ng","lat":5.525432,"lon":5.639664},{"id":2019992,"name":"uteh-enugu","country":"ng","lat":6.157956,"lon":6.377565},{"id":1980427,"name":"ajadogho","country":"ng","lat":5.844019,"lon":5.77925},{"id":2009382,"name":"ogume","country":"ng","lat":5.751684,"lon":6.326196},{"id":1989760,"name":"ekpan","country":"ng","lat":5.562395,"lon":5.740199},{"id":1981613,"name":"alihagun","country":"ng","lat":6.275358,"lon":6.089384},{"id":2010014,"name":"okoh egbogho","country":"ng","lat":5.700868,"lon":6.020573},{"id":1998531,"name":"iwrogbovwa","country":"ng","lat":5.532581,"lon":6.0174},{"id":1997288,"name":"ikwewu","country":"ng","lat":5.613125,"lon":5.864396},{"id":2008815,"name":"odogu","country":"ng","lat":6.15,"lon":5.516667},{"id":2009101,"name":"ogbe-orogho","country":"ng","lat":6.133737,"lon":5.66031},{"id":1999228,"name":"jelu","country":"ng","lat":5.64849,"lon":5.660734},{"id":2018212,"name":"umiaghwa","country":"ng","lat":5.681184,"lon":5.833832},{"id":2009757,"name":"okavbor","country":"ng","lat":6.266667,"lon":5.683333},{"id":2010334,"name":"okuemaife","country":"ng","lat":5.67584,"lon":5.779744},{"id":1995732,"name":"idulaka","country":"ng","lat":6.15098,"lon":6.076196},{"id":1990187,"name":"enamaro","country":"ng","lat":5.688722,"lon":5.976233},{"id":1990571,"name":"evbouhuan","country":"ng","lat":6.42714,"lon":5.90141},{"id":1996237,"name":"iguehenze","country":"ng","lat":6.331744,"lon":6.040515},{"id":2017816,"name":"ugbenu","country":"ng","lat":6.037167,"lon":5.673125},{"id":2011774,"name":"osemele","country":"ng","lat":5.718191,"lon":6.456322},{"id":1996252,"name":"iguhie","country":"ng","lat":6.266667,"lon":5.533333},{"id":1989248,"name":"edhou","country":"ng","lat":6.30754,"lon":6.12029},{"id":1990374,"name":"eruemukohwarien","country":"ng","lat":5.524886,"lon":5.93524},{"id":2011537,"name":"orhokpor","country":"ng","lat":5.569119,"lon":5.971117},{"id":2010405,"name":"okunu","country":"ng","lat":5.657041,"lon":5.891917},{"id":2009500,"name":"ogwiomugo","country":"ng","lat":5.837571,"lon":5.796233},{"id":2009719,"name":"okabere","country":"ng","lat":6.283333,"lon":5.65},{"id":2017985,"name":"uholor","country":"ng","lat":6.276067,"lon":5.549193},{"id":1996206,"name":"igomersi","country":"ng","lat":6.255022,"lon":6.136735},{"id":2011140,"name":"onicha","country":"ng","lat":5.828842,"lon":6.392863},{"id":2009728,"name":"okahmavwen","country":"ng","lat":6.396872,"lon":5.833838},{"id":2009551,"name":"oheze-naka","country":"ng","lat":6.20173,"lon":6.019868},{"id":2012135,"name":"owa-eke","country":"ng","lat":6.22421,"lon":6.216678},{"id":2010494,"name":"okwovwisi","country":"ng","lat":5.761376,"lon":5.788514},{"id":1980665,"name":"ajovwuni ugbevwe","country":"ng","lat":5.878651,"lon":5.81072},{"id":2008764,"name":"odjedi","country":"ng","lat":5.639236,"lon":5.819573},{"id":1983530,"name":"awah","country":"ng","lat":5.521799,"lon":6.382611},{"id":2009985,"name":"okobia","country":"ng","lat":5.733404,"lon":5.796687},{"id":1997600,"name":"imiroje","country":"ng","lat":5.579787,"lon":6.094125},{"id":1990559,"name":"evbokabua ii","country":"ng","lat":6.112347,"lon":6.07747},{"id":1985759,"name":"boborokun","country":"ng","lat":5.798093,"lon":5.892825},{"id":1996148,"name":"igbudu","country":"ng","lat":5.525254,"lon":5.772604},{"id":1979862,"name":"agboramo","country":"ng","lat":5.816667,"lon":5.816667},{"id":2001993,"name":"kpokiti","country":"ng","lat":5.628237,"lon":5.625678},{"id":1981643,"name":"alisor","country":"ng","lat":6.296538,"lon":6.120506},{"id":2017870,"name":"ugborikoko","country":"ng","lat":5.537057,"lon":5.764538},{"id":1981173,"name":"akuku-akumazi","country":"ng","lat":6.280778,"lon":6.344167},{"id":2006495,"name":"mosagon","country":"ng","lat":5.899872,"lon":5.727939},{"id":2018221,"name":"umoghunmwun","country":"ng","lat":6.058001,"lon":6.046323},{"id":1979160,"name":"adavwari","country":"ng","lat":5.802334,"lon":5.771258},{"id":1996258,"name":"iguiodia","country":"ng","lat":6.491994,"lon":5.588268},{"id":2011976,"name":"otokutu","country":"ng","lat":5.548547,"lon":5.834786},{"id":2010390,"name":"okunigho","country":"ng","lat":5.873353,"lon":5.826839},{"id":2009053,"name":"ogbagu ogume","country":"ng","lat":5.769153,"lon":6.334937},{"id":2019886,"name":"uruovo owe","country":"ng","lat":5.512497,"lon":6.141112},{"id":2010329,"name":"okuechi","country":"ng","lat":5.719236,"lon":5.9914},{"id":1983134,"name":"ashaka","country":"ng","lat":5.637182,"lon":6.398717},{"id":2018001,"name":"ujevbe","country":"ng","lat":5.579787,"lon":6.153805},{"id":1989869,"name":"ekwese","country":"ng","lat":5.607585,"lon":5.895641},{"id":2010312,"name":"okuabude","country":"ng","lat":5.72516,"lon":5.754722},{"id":1997471,"name":"ilobi","country":"ng","lat":6.380211,"lon":5.952417},{"id":2018626,"name":"umuosonmu","country":"ng","lat":5.741192,"lon":6.445028},{"id":2011773,"name":"osele","country":"ng","lat":5.501278,"lon":5.679243},{"id":1995740,"name":"idumohen","country":"ng","lat":6.233333,"lon":5.733333},{"id":1998525,"name":"iwrekpokpo","country":"ng","lat":5.502095,"lon":6.016594},{"id":2007285,"name":"ndoni","country":"ng","lat":5.601349,"lon":6.316414},{"id":1995651,"name":"idmuguokha","country":"ng","lat":6.464785,"lon":6.329071},{"id":2009056,"name":"ogbahu","country":"ng","lat":6.376852,"lon":6.138526},{"id":2018203,"name":"umegbe","country":"ng","lat":6.227783,"lon":5.55555},{"id":1980505,"name":"ajatitor","country":"ng","lat":5.57634,"lon":5.683423},{"id":2010488,"name":"okwode omoniyi","country":"ng","lat":5.875987,"lon":5.785517},{"id":1990623,"name":"ewhotie","country":"ng","lat":5.546076,"lon":6.148912},{"id":1982168,"name":"amuegbedi","country":"ng","lat":5.765214,"lon":5.713216},{"id":1998406,"name":"ituru","country":"ng","lat":5.775749,"lon":5.707859},{"id":2008345,"name":"obetim-uno","country":"ng","lat":5.746071,"lon":6.442221},{"id":1995882,"name":"igbado-igboko","country":"ng","lat":6.370451,"lon":6.332496},{"id":1996224,"name":"iguagbon","country":"ng","lat":6.41284,"lon":5.937965},{"id":1995733,"name":"iduleha","country":"ng","lat":6.313233,"lon":6.11917},{"id":1981215,"name":"akure","country":"ng","lat":5.771559,"lon":6.014836},{"id":1996273,"name":"iguohan","country":"ng","lat":6.189174,"lon":5.810272},{"id":1996222,"name":"iguadolor","country":"ng","lat":6.426838,"lon":5.555035},{"id":2014186,"name":"sapele","country":"ng","lat":5.894053,"lon":5.67666},{"id":2018359,"name":"umuegim quarters","country":"ng","lat":5.914535,"lon":6.471205},{"id":2018507,"name":"umunede","country":"ng","lat":6.263741,"lon":6.311613},{"id":1989758,"name":"ekpagha","country":"ng","lat":5.669832,"lon":5.975597},{"id":2011930,"name":"otefe","country":"ng","lat":5.700272,"lon":5.867757},{"id":1988123,"name":"degbrode","country":"ng","lat":5.738692,"lon":5.678792},{"id":2011441,"name":"opre","country":"ng","lat":5.542205,"lon":6.104394},{"id":1998526,"name":"iwrekpokpor","country":"ng","lat":5.560378,"lon":6.124449},{"id":2018367,"name":"umuekete quarters","country":"ng","lat":5.913712,"lon":6.477211},{"id":1997666,"name":"inam","country":"ng","lat":5.679577,"lon":6.17687},{"id":2010135,"name":"okorokura","country":"ng","lat":5.608712,"lon":5.969876},{"id":1998533,"name":"iwu","country":"ng","lat":6.482274,"lon":5.586579},{"id":2009253,"name":"oghrere","country":"ng","lat":5.575325,"lon":6.116007},{"id":1998162,"name":"isiokolo","country":"ng","lat":5.594958,"lon":6.000513},{"id":2008386,"name":"obi-enugu","country":"ng","lat":6.08556,"lon":6.423991},{"id":1990740,"name":"ezionum","country":"ng","lat":5.728589,"lon":6.232598},{"id":1989487,"name":"egor","country":"ng","lat":6.381118,"lon":5.569789},{"id":2010015,"name":"okoh ekrudu","country":"ng","lat":5.707858,"lon":6.019981},{"id":1979694,"name":"agbadu","country":"ng","lat":5.585603,"lon":5.8604},{"id":2017935,"name":"ugoneki","country":"ng","lat":6.302523,"lon":5.879987},{"id":2010492,"name":"okwokolo","country":"ng","lat":5.671103,"lon":5.747646},{"id":1989814,"name":"ekrebuo","country":"ng","lat":5.596368,"lon":5.992142},{"id":2010459,"name":"okwagbaye","country":"ng","lat":5.853737,"lon":5.828292},{"id":2008432,"name":"obi-okonye","country":"ng","lat":6.110258,"lon":6.395671},{"id":1995736,"name":"idumesa","country":"ng","lat":6.163955,"lon":6.240773},{"id":1998584,"name":"iyanomo","country":"ng","lat":6.34821,"lon":6.056157},{"id":2012148,"name":"owa-ofie","country":"ng","lat":6.201436,"lon":6.181442},{"id":2010443,"name":"okuruvu","country":"ng","lat":5.712698,"lon":5.924921},{"id":2008366,"name":"obi-anyima","country":"ng","lat":6.054129,"lon":6.243911},{"id":2009562,"name":"ohoghobi","country":"ng","lat":6.224841,"lon":5.634948},{"id":2008783,"name":"ododegbo","country":"ng","lat":5.534608,"lon":5.963989},{"id":1996151,"name":"igbuku","country":"ng","lat":5.571454,"lon":6.180903},{"id":1979747,"name":"agbarha-otor","country":"ng","lat":5.534678,"lon":6.074769},{"id":1989677,"name":"ekeresa","country":"ng","lat":5.783333,"lon":5.583333},{"id":2012130,"name":"owa-aliosimi","country":"ng","lat":6.220271,"lon":6.197946},{"id":2018469,"name":"umukoro","country":"ng","lat":6.321136,"lon":6.049933},{"id":1978970,"name":"abunwa","country":"ng","lat":6.446173,"lon":5.90564},{"id":2018147,"name":"ukwu","country":"ng","lat":6.04369,"lon":6.488419},{"id":2009229,"name":"ogen","country":"ng","lat":5.958631,"lon":5.788423},{"id":2009729,"name":"okaigben","country":"ng","lat":6.470383,"lon":6.357344},{"id":1995751,"name":"idumuodi","country":"ng","lat":6.335461,"lon":6.207096},{"id":2017799,"name":"ugbeka","country":"ng","lat":6.200425,"lon":6.111603},{"id":1996304,"name":"igweowieoba","country":"ng","lat":6.416667,"lon":5.783333},{"id":2008998,"name":"ofori","country":"ng","lat":5.598274,"lon":5.91367},{"id":2010410,"name":"okuodibo","country":"ng","lat":5.837662,"lon":5.811127},{"id":2009096,"name":"ogbe-odogwu","country":"ng","lat":6.130181,"lon":6.494875},{"id":2008413,"name":"obinomba","country":"ng","lat":5.860781,"lon":6.171512},{"id":1990076,"name":"elume","country":"ng","lat":5.735059,"lon":5.635604},{"id":1990092,"name":"emanweta","country":"ng","lat":5.576837,"lon":6.338706},{"id":1996238,"name":"iguelaba","country":"ng","lat":5.954995,"lon":5.854813},{"id":1999070,"name":"jatitor","country":"ng","lat":5.719483,"lon":5.666576},{"id":1983611,"name":"awirhe","country":"ng","lat":5.616725,"lon":6.072188},{"id":2017578,"name":"ubagheja","country":"ng","lat":5.860851,"lon":5.554706},{"id":2017824,"name":"ugbevwe","country":"ng","lat":5.977128,"lon":5.793859},{"id":2017933,"name":"ugolo","country":"ng","lat":5.585372,"lon":5.841914},{"id":2017915,"name":"ugho","country":"ng","lat":6.107871,"lon":5.507164},{"id":2008328,"name":"obe","country":"ng","lat":6.246224,"lon":5.636426},{"id":2008213,"name":"obagie","country":"ng","lat":5.753542,"lon":5.973252},{"id":2009339,"name":"ogorode","country":"ng","lat":5.921395,"lon":5.648473},{"id":1982463,"name":"aniwachor","country":"ng","lat":6.200642,"lon":6.369003},{"id":2014172,"name":"sanubi","country":"ng","lat":5.759289,"lon":6.022667},{"id":1981852,"name":"amai","country":"ng","lat":5.752807,"lon":6.20409},{"id":2010438,"name":"okurogba","country":"ng","lat":5.722026,"lon":5.940689},{"id":2010018,"name":"okoh idiovwa","country":"ng","lat":5.643608,"lon":6.08321},{"id":1982456,"name":"aniorpo","country":"ng","lat":6.072432,"lon":6.378399},{"id":2019997,"name":"ute okpo","country":"ng","lat":6.190289,"lon":6.269637},{"id":2018578,"name":"umuokolo","country":"ng","lat":5.920837,"lon":6.481489},{"id":1989823,"name":"ekrokpe","country":"ng","lat":5.519845,"lon":5.893371},{"id":2010333,"name":"okueka","country":"ng","lat":5.907682,"lon":5.795688},{"id":2009748,"name":"oka","country":"ng","lat":6.296166,"lon":5.65809},{"id":2018084,"name":"ukpe sobo","country":"ng","lat":5.75,"lon":5.75},{"id":1983800,"name":"ayetugbene","country":"ng","lat":5.535785,"lon":5.631763},{"id":1997241,"name":"ikpolonfe","country":"ng","lat":6.145576,"lon":6.491006},{"id":1992696,"name":"ghana quarters","country":"ng","lat":5.843504,"lon":6.146311},{"id":1989165,"name":"ebruvwa","country":"ng","lat":5.731426,"lon":5.81594},{"id":2010437,"name":"okurobi","country":"ng","lat":5.723232,"lon":5.924104},{"id":2009098,"name":"ogbe","country":"ng","lat":5.699519,"lon":6.431007},{"id":2009549,"name":"ohere","country":"ng","lat":6.253532,"lon":5.724352},{"id":2017984,"name":"uhkirhi","country":"ng","lat":6.266667,"lon":5.75},{"id":2008597,"name":"obumese camp","country":"ng","lat":6.478616,"lon":6.167875},{"id":1980274,"name":"ahijo","country":"ng","lat":6.188659,"lon":6.415223},{"id":1978774,"name":"abigborudu","country":"ng","lat":5.892009,"lon":5.53524},{"id":2017730,"name":"uduere","country":"ng","lat":5.505913,"lon":6.0381},{"id":1995564,"name":"idibo","country":"ng","lat":6.419386,"lon":5.86707},{"id":1980495,"name":"ajasolo","country":"ng","lat":5.788893,"lon":5.577727},{"id":2008211,"name":"obagboro","country":"ng","lat":5.844821,"lon":5.532157},{"id":1980424,"name":"ajademadema","country":"ng","lat":5.534605,"lon":5.668181},{"id":2013972,"name":"samagidi","country":"ng","lat":5.584357,"lon":6.080844},{"id":2010310,"name":"okrufor-okpara","country":"ng","lat":5.644675,"lon":5.946263},{"id":2011522,"name":"orerukpe","country":"ng","lat":5.635058,"lon":5.889557},{"id":2009257,"name":"oghwrughelli","country":"ng","lat":5.598177,"lon":5.907666},{"id":2010343,"name":"okughurhe","country":"ng","lat":5.617394,"lon":5.80445},{"id":2010104,"name":"oko","country":"ng","lat":6.299496,"lon":5.593827},{"id":2020088,"name":"uwosan","country":"ng","lat":6.225664,"lon":5.692112},{"id":2011293,"name":"onma","country":"ng","lat":6.456005,"lon":6.285927},{"id":1979864,"name":"agbor-boiiboji","country":"ng","lat":6.251827,"lon":6.193374},{"id":2012084,"name":"ovara-umusu","country":"ng","lat":5.67205,"lon":6.100093},{"id":2011272,"name":"onitsha-ugbo","country":"ng","lat":6.319779,"lon":6.422383},{"id":1990114,"name":"emesoye","country":"ng","lat":5.509354,"lon":6.190204},{"id":2010332,"name":"okuejeba","country":"ng","lat":5.703905,"lon":5.759808},{"id":1996200,"name":"igogogin","country":"ng","lat":6.166667,"lon":5.55},{"id":1986984,"name":"consin camp","country":"ng","lat":6.320301,"lon":6.068588},{"id":2009220,"name":"ogegere","country":"ng","lat":5.833333,"lon":5.766667},{"id":2017782,"name":"ugbakele","country":"ng","lat":5.98851,"lon":5.800411},{"id":2008508,"name":"obomkpa","country":"ng","lat":6.412796,"lon":6.491371},{"id":2017907,"name":"ughere-urhuagbesa","country":"ng","lat":5.728558,"lon":6.108856},{"id":1996278,"name":"iguomo","country":"ng","lat":6.390674,"lon":6.045731},{"id":2010029,"name":"okoh uti","country":"ng","lat":5.692051,"lon":6.018745},{"id":2010008,"name":"okogba","country":"ng","lat":6.201614,"lon":5.875749},{"id":1996199,"name":"igoge","country":"ng","lat":6.35,"lon":5.5},{"id":2018557,"name":"umuogwaye quarters","country":"ng","lat":5.911629,"lon":6.476629},{"id":2008417,"name":"obi-obawu","country":"ng","lat":5.652978,"lon":6.306401},{"id":2008935,"name":"ofagbe","country":"ng","lat":5.549278,"lon":6.342702},{"id":1995967,"name":"igbe-ogume","country":"ng","lat":5.742796,"lon":6.323951},{"id":1999379,"name":"jikwa","country":"ng","lat":5.95,"lon":5.633333},{"id":2009548,"name":"ohe","country":"ng","lat":6.424192,"lon":6.04712},{"id":1983912,"name":"azuwa","country":"ng","lat":6.111229,"lon":6.167659},{"id":1979865,"name":"agborhoro","country":"ng","lat":5.673206,"lon":5.938601},{"id":1998622,"name":"iyere shrine","country":"ng","lat":5.617543,"lon":6.300158},{"id":2009542,"name":"oharhe","country":"ng","lat":5.622607,"lon":5.774528},{"id":1995193,"name":"hwohwokpa camp","country":"ng","lat":6.353314,"lon":6.110081},{"id":1995515,"name":"idedaka-jesse","country":"ng","lat":5.878712,"lon":5.772711},{"id":1989513,"name":"egun","country":"ng","lat":6.239325,"lon":5.692195},{"id":2010429,"name":"okuovwori","country":"ng","lat":5.834423,"lon":5.724569},{"id":1989288,"name":"edumega","country":"ng","lat":6.40423,"lon":5.756344},{"id":1989402,"name":"egbeku","country":"ng","lat":5.807356,"lon":5.761581},{"id":2012076,"name":"ovade jesse","country":"ng","lat":5.807783,"lon":5.796142},{"id":2018354,"name":"umuedede quarters","country":"ng","lat":5.848311,"lon":6.149228},{"id":1997220,"name":"ikpe","country":"ng","lat":6.215056,"lon":5.740886},{"id":2010095,"name":"okon urhuokpe","country":"ng","lat":5.649414,"lon":6.007884},{"id":2012081,"name":"ovah","country":"ng","lat":6.383333,"lon":5.55},{"id":2020065,"name":"uvbe","country":"ng","lat":6.315291,"lon":6.129955},{"id":2008443,"name":"obior","country":"ng","lat":6.267529,"lon":6.378856},{"id":2009395,"name":"ogun camp","country":"ng","lat":6.122607,"lon":6.37229},{"id":1980969,"name":"akiuwa","country":"ng","lat":6.408759,"lon":5.64247},{"id":2010027,"name":"okoh unoh","country":"ng","lat":5.731999,"lon":6.04138},{"id":2017851,"name":"ugboko numagbai","country":"ng","lat":6.166667,"lon":5.966667},{"id":2019851,"name":"urora","country":"ng","lat":6.370501,"lon":5.695661},{"id":2008349,"name":"obi-agbor","country":"ng","lat":6.059874,"lon":6.247976},{"id":1981546,"name":"aledimma","country":"ng","lat":6.024756,"lon":6.299337},{"id":2010678,"name":"ologua","country":"ng","lat":6.464409,"lon":6.415921},{"id":1978680,"name":"abedei","country":"ng","lat":5.819634,"lon":6.272828},{"id":1998863,"name":"jalla","country":"ng","lat":5.537209,"lon":5.687352},{"id":2015138,"name":"suberu debowa camp","country":"ng","lat":6.328381,"lon":6.090191},{"id":1990182,"name":"emu-uno","country":"ng","lat":5.632451,"lon":6.244547},{"id":1998337,"name":"iterigbi","country":"ng","lat":5.574019,"lon":5.843367},{"id":2020003,"name":"ute","country":"ng","lat":6.237493,"lon":6.069429},{"id":1996171,"name":"ighedu","country":"ng","lat":6.483803,"lon":6.429016},{"id":2018656,"name":"umusume quarters","country":"ng","lat":5.852887,"lon":6.160893},{"id":1981635,"name":"aliokpu-agbor","country":"ng","lat":6.245889,"lon":6.168896},{"id":1989616,"name":"ekae","country":"ng","lat":6.262034,"lon":5.631923},{"id":1980276,"name":"ahimua","country":"ng","lat":6.313614,"lon":6.154559},{"id":1983861,"name":"azama","country":"ng","lat":6.121701,"lon":6.36381},{"id":1996257,"name":"iguikpe","country":"ng","lat":6.206344,"lon":5.559869},{"id":1980996,"name":"akoko","country":"ng","lat":5.840919,"lon":6.29593},{"id":1990084,"name":"emaka","country":"ng","lat":5.666667,"lon":5.9},{"id":2011644,"name":"orogho","country":"ng","lat":5.877158,"lon":5.956405},{"id":1996184,"name":"iginene","country":"ng","lat":5.662671,"lon":5.766213},{"id":1997925,"name":"irhodo","country":"ng","lat":5.862183,"lon":5.82811},{"id":2009539,"name":"oha","country":"ng","lat":5.63406,"lon":5.859445},{"id":1990365,"name":"eroh-obaro","country":"ng","lat":5.659092,"lon":6.089286},{"id":2019911,"name":"uselu","country":"ng","lat":6.384544,"lon":5.610999},{"id":1982169,"name":"amufi","country":"ng","lat":6.35,"lon":5.716667},{"id":2012085,"name":"ovara-unukpo","country":"ng","lat":5.668071,"lon":6.094662},{"id":2010178,"name":"okpaka","country":"ng","lat":5.528792,"lon":5.812035},{"id":2010317,"name":"okua","country":"ng","lat":6.138379,"lon":5.523831},{"id":1998614,"name":"iyekezie","country":"ng","lat":6.466667,"lon":5.516667},{"id":2017729,"name":"uduehen","country":"ng","lat":6.197073,"lon":5.679482},{"id":1999295,"name":"jesse","country":"ng","lat":5.864759,"lon":5.753723},{"id":1990145,"name":"emioboma","country":"ng","lat":5.788146,"lon":5.909402},{"id":2010013,"name":"okogho","country":"ng","lat":5.809599,"lon":5.562469},{"id":2019947,"name":"usomehe","country":"ng","lat":6.046035,"lon":6.144626},{"id":2009192,"name":"ogborode","country":"ng","lat":5.633618,"lon":5.73712},{"id":2017853,"name":"ugbokpa-mosogar","country":"ng","lat":5.919579,"lon":5.776163},{"id":1983790,"name":"ayen","country":"ng","lat":6.450503,"lon":5.739073},{"id":2010192,"name":"okpara","country":"ng","lat":5.556345,"lon":6.063478},{"id":1989311,"name":"eferesuogbene","country":"ng","lat":5.512086,"lon":5.522493},{"id":1981163,"name":"akuekpara","country":"ng","lat":5.759105,"lon":5.740926},{"id":2010458,"name":"okwadiokpara","country":"ng","lat":5.85,"lon":5.65},{"id":2010325,"name":"okuboafe","country":"ng","lat":5.681971,"lon":5.945139},{"id":1989726,"name":"ekokor","country":"ng","lat":5.683969,"lon":5.658585},{"id":2008226,"name":"obajie-oheze","country":"ng","lat":6.262355,"lon":6.037502},{"id":2010144,"name":"okorowhe","country":"ng","lat":5.603717,"lon":5.851178},{"id":1998215,"name":"issua","country":"ng","lat":6.316667,"lon":5.95},{"id":2009038,"name":"ogan","country":"ng","lat":6.277352,"lon":6.070909},{"id":2017858,"name":"ugbolokposo","country":"ng","lat":5.559852,"lon":5.81703},{"id":1996178,"name":"ighwrenene","country":"ng","lat":5.523616,"lon":5.990492},{"id":1983220,"name":"asoro","country":"ng","lat":5.704887,"lon":5.891228},{"id":2020074,"name":"uvwiamuge","country":"ng","lat":5.556401,"lon":5.884871},{"id":1990628,"name":"ewohimi","country":"ng","lat":6.480545,"lon":6.324192},{"id":1989495,"name":"egua-eholor","country":"ng","lat":6.422285,"lon":6.030543},{"id":2017614,"name":"ubeji","country":"ng","lat":5.567935,"lon":5.706687},{"id":1989718,"name":"ekogboro","country":"ng","lat":5.808087,"lon":6.111134},{"id":1996050,"name":"igbogidi","country":"ng","lat":5.512267,"lon":5.81992},{"id":2010605,"name":"oligie","country":"ng","lat":6.32694,"lon":6.229403},{"id":2010756,"name":"olomogbene","country":"ng","lat":5.532879,"lon":5.599432},{"id":2011938,"name":"ote ogbeji","country":"ng","lat":6.241633,"lon":6.36885},{"id":2011647,"name":"orogun","country":"ng","lat":5.640543,"lon":6.159128},{"id":2011406,"name":"ophori","country":"ng","lat":5.57226,"lon":6.067994},{"id":2017656,"name":"ubulu-unor","country":"ng","lat":6.191567,"lon":6.46587},{"id":1980448,"name":"ajakaketiewe","country":"ng","lat":5.853464,"lon":5.771258},{"id":1996205,"name":"igo","country":"ng","lat":6.266667,"lon":5.516667},{"id":2008284,"name":"obazagbon","country":"ng","lat":6.297881,"lon":5.694147},{"id":2011949,"name":"oteri-urhuagbesa","country":"ng","lat":5.737806,"lon":6.110039},{"id":2009932,"name":"okhuaihe","country":"ng","lat":6.329196,"lon":5.756761},{"id":2011394,"name":"opekeli","country":"ng","lat":5.981834,"lon":5.789235},{"id":1981164,"name":"akuenebele","country":"ng","lat":5.667211,"lon":6.022347},{"id":2020034,"name":"utue-ogume","country":"ng","lat":5.712497,"lon":6.295108},{"id":1989817,"name":"ekrejeba","country":"ng","lat":5.514569,"lon":6.032831},{"id":1983060,"name":"asamagidi","country":"ng","lat":5.705977,"lon":5.998937},{"id":1998524,"name":"iwre-grigri","country":"ng","lat":5.52957,"lon":6.109071},{"id":2012150,"name":"owa","country":"ng","lat":6.291103,"lon":5.989892},{"id":1996217,"name":"igoyo","country":"ng","lat":5.9,"lon":5.6},{"id":2019948,"name":"usonigbe","country":"ng","lat":5.984215,"lon":6.176998},{"id":2017574,"name":"uatenide","country":"ng","lat":6.452271,"lon":6.153303},{"id":1995752,"name":"idumwunha","country":"ng","lat":6.4,"lon":5.766667},{"id":1989160,"name":"ebowe","country":"ng","lat":6.26425,"lon":5.585549},{"id":1995764,"name":"idunmwowina","country":"ng","lat":6.433333,"lon":5.6},{"id":2018316,"name":"umubu","country":"ng","lat":5.734902,"lon":6.185796},{"id":2008322,"name":"obeneubueribo","country":"ng","lat":6.25,"lon":5.666667},{"id":1979294,"name":"adeyanba","country":"ng","lat":6.106848,"lon":5.916868},{"id":2015318,"name":"taboga","country":"ng","lat":6.366667,"lon":5.65},{"id":2010416,"name":"okuokoko","country":"ng","lat":5.576744,"lon":5.825022},{"id":2017785,"name":"ugbanabebe","country":"ng","lat":5.501278,"lon":5.550737},{"id":1996023,"name":"igbodo","country":"ng","lat":6.300761,"lon":6.371003},{"id":2017631,"name":"ubodu","country":"ng","lat":6.379322,"lon":6.458591},{"id":2019822,"name":"ureghin","country":"ng","lat":6.183333,"lon":5.516667},{"id":2019975,"name":"utagba uno","country":"ng","lat":5.887984,"lon":6.386929},{"id":1990556,"name":"evbogida","country":"ng","lat":6.366667,"lon":5.6},{"id":1997517,"name":"ilueologbo owe","country":"ng","lat":5.592943,"lon":6.197046},{"id":2012137,"name":"owah-abe","country":"ng","lat":5.87637,"lon":6.187102},{"id":1986632,"name":"centre-nsukwa","country":"ng","lat":6.031335,"lon":6.464712},{"id":1996300,"name":"igwedayi","country":"ng","lat":6.35,"lon":5.533333},{"id":1997718,"name":"inorin fishing camp","country":"ng","lat":5.51363,"lon":5.607589},{"id":2020021,"name":"utonyatsere","country":"ng","lat":5.9,"lon":5.616667},{"id":2009733,"name":"okakhinawan","country":"ng","lat":6.329398,"lon":5.773125},{"id":2017848,"name":"ugbokhirima","country":"ng","lat":6.138901,"lon":6.036172},{"id":1983425,"name":"atuar-etiti","country":"ng","lat":6.001526,"lon":6.383731},{"id":2017977,"name":"uhege","country":"ng","lat":6.433333,"lon":5.733333},{"id":1982461,"name":"ani-ugbo","country":"ng","lat":6.128834,"lon":6.39547},{"id":1983498,"name":"avbiugu","country":"ng","lat":6.202417,"lon":5.83716},{"id":2019847,"name":"uroho","country":"ng","lat":6.19228,"lon":5.667441},{"id":1981187,"name":"akumazi","country":"ng","lat":6.250378,"lon":6.326022},{"id":2009964,"name":"okirighwre","country":"ng","lat":5.866179,"lon":5.709775},{"id":2017835,"name":"ugboanyo","country":"ng","lat":6.3,"lon":5.883333},{"id":2011507,"name":"oregbeni","country":"ng","lat":6.349193,"lon":5.656677},{"id":2017934,"name":"ugomoson","country":"ng","lat":6.293222,"lon":5.923226},{"id":2012185,"name":"owe-ugbakele","country":"ng","lat":5.990326,"lon":5.796233},{"id":1979390,"name":"adonta","country":"ng","lat":6.08089,"lon":6.460723},{"id":2012231,"name":"owo","country":"ng","lat":5.882344,"lon":5.94363},{"id":1998697,"name":"izihiri","country":"ng","lat":6.366667,"lon":5.983333},{"id":2017871,"name":"ugboritseduwa","country":"ng","lat":5.750296,"lon":5.596708},{"id":2005948,"name":"mbiri farm settlement","country":"ng","lat":6.331839,"lon":6.272299},{"id":2012078,"name":"ovade-ofo","country":"ng","lat":5.800336,"lon":5.798685},{"id":2009122,"name":"ogbigun","country":"ng","lat":5.762647,"lon":5.94481},{"id":1995746,"name":"idumu-isogba","country":"ng","lat":6.126974,"lon":6.140045},{"id":1982755,"name":"aragba","country":"ng","lat":5.729551,"lon":6.138519},{"id":2017955,"name":"ugwagbagare","country":"ng","lat":5.61585,"lon":5.843956},{"id":1997719,"name":"inorin","country":"ng","lat":5.526159,"lon":5.675537},{"id":2010346,"name":"okuighele","country":"ng","lat":5.64513,"lon":5.80368},{"id":1980440,"name":"ajagolo","country":"ng","lat":5.77525,"lon":5.899818},{"id":1999193,"name":"jeddo","country":"ng","lat":5.593279,"lon":5.70477},{"id":1980962,"name":"akisimie i","country":"ng","lat":6.30039,"lon":6.162145},{"id":2008357,"name":"obiakambu","country":"ng","lat":5.785739,"lon":6.319955},{"id":1989437,"name":"egborode","country":"ng","lat":5.645187,"lon":5.746277},{"id":2011535,"name":"orhokpokpo","country":"ng","lat":5.633607,"lon":6.119287},{"id":2008421,"name":"obiogo","country":"ng","lat":5.805224,"lon":6.20483},{"id":1979746,"name":"agbarha","country":"ng","lat":5.784443,"lon":5.908938},{"id":2010588,"name":"olecha","country":"ng","lat":5.520161,"lon":6.194076},{"id":2011684,"name":"orrode","country":"ng","lat":5.587102,"lon":6.322828},{"id":2019821,"name":"urchie","country":"ng","lat":5.530881,"lon":5.869069},{"id":2017887,"name":"ugbowo","country":"ng","lat":6.400303,"lon":5.610091},{"id":2002028,"name":"krikridoge","country":"ng","lat":5.67074,"lon":5.610512},{"id":2012177,"name":"owerre olubor","country":"ng","lat":6.257117,"lon":6.348704},{"id":1982428,"name":"ani-efume","country":"ng","lat":6.14698,"lon":6.339787},{"id":1995771,"name":"iduwenbo","country":"ng","lat":6.185541,"lon":6.000205},{"id":2010417,"name":"okuokpokpo","country":"ng","lat":5.66184,"lon":5.815577},{"id":1979521,"name":"afiesere","country":"ng","lat":5.525161,"lon":6.013475},{"id":2009930,"name":"okha","country":"ng","lat":6.209384,"lon":5.637067},{"id":1995447,"name":"ibuwo","country":"ng","lat":5.781446,"lon":5.704962},{"id":2012077,"name":"ovade new site","country":"ng","lat":5.981306,"lon":5.696049},{"id":2009072,"name":"ogba","country":"ng","lat":6.062773,"lon":6.11769},{"id":2020016,"name":"utonbubu","country":"ng","lat":6.115052,"lon":5.511823},{"id":2015039,"name":"sogbojaya camp","country":"ng","lat":6.335778,"lon":6.095345},{"id":1990199,"name":"eniagbodhi","country":"ng","lat":5.554517,"lon":6.176924},{"id":1989152,"name":"eboh","country":"ng","lat":5.701675,"lon":6.129879},{"id":1989440,"name":"egbudu","country":"ng","lat":6.112245,"lon":6.351307},{"id":2018482,"name":"umuleke-ossissa","country":"ng","lat":5.913058,"lon":6.475153},{"id":2017804,"name":"ugbeku","country":"ng","lat":6.311666,"lon":5.642485},{"id":1982433,"name":"anifekajae","country":"ng","lat":6.206525,"lon":6.400202},{"id":2005950,"name":"mbiri","country":"ng","lat":6.304791,"lon":6.278416},{"id":2011541,"name":"oriah","country":"ng","lat":5.760091,"lon":6.053849},{"id":1999494,"name":"john holt","country":"ng","lat":5.740578,"lon":5.924104},{"id":2012121,"name":"ovwere","country":"ng","lat":5.724685,"lon":5.884417},{"id":2011840,"name":"osoguo","country":"ng","lat":5.825402,"lon":5.830471},{"id":2010348,"name":"okuijorugu","country":"ng","lat":5.637014,"lon":5.76594},{"id":1996289,"name":"iguozogbar","country":"ng","lat":6.384475,"lon":6.00064},{"id":2017655,"name":"ubulu-uku","country":"ng","lat":6.245607,"lon":6.421705},{"id":2018650,"name":"umusa-dege","country":"ng","lat":6.008913,"lon":6.292515},{"id":1982952,"name":"aronwon","country":"ng","lat":5.931517,"lon":5.519482},{"id":1995650,"name":"idjere","country":"ng","lat":5.647533,"lon":6.138535},{"id":2009933,"name":"okhuepen","country":"ng","lat":6.3,"lon":5.85},{"id":1995274,"name":"ibekwe","country":"ng","lat":6.151309,"lon":5.898993},{"id":1979198,"name":"adedje","country":"ng","lat":5.683333,"lon":5.76376},{"id":2010497,"name":"okwugbogbo","country":"ng","lat":5.66812,"lon":5.737783},{"id":1979348,"name":"adjekemevor","country":"ng","lat":5.581347,"lon":6.077134},{"id":1998147,"name":"isikaguma","country":"ng","lat":5.75379,"lon":6.202602},{"id":1990662,"name":"ewussa","country":"ng","lat":5.963219,"lon":6.027238},{"id":1990627,"name":"ewohigha","country":"ng","lat":6.149985,"lon":6.061799},{"id":1989748,"name":"ekose","country":"ng","lat":6.425529,"lon":5.750201},{"id":2005949,"name":"mbiri-igboko","country":"ng","lat":6.354878,"lon":6.298775},{"id":2008212,"name":"obagia","country":"ng","lat":6.416667,"lon":5.533333},{"id":1997491,"name":"ilokiri","country":"ng","lat":5.521621,"lon":5.574349},{"id":2001870,"name":"kosodi","country":"ng","lat":6.416667,"lon":5.616667},{"id":1989576,"name":"ejeba waterside","country":"ng","lat":5.78971,"lon":5.812671},{"id":1989706,"name":"ekiugbo","country":"ng","lat":5.512358,"lon":5.977851},{"id":2009563,"name":"ohogua","country":"ng","lat":6.433333,"lon":5.566667},{"id":2011663,"name":"oromuru","country":"ng","lat":5.691513,"lon":6.077672},{"id":2009116,"name":"ogbetiti","country":"ng","lat":5.923884,"lon":6.485979},{"id":1990588,"name":"evwonogba mosogar","country":"ng","lat":5.91195,"lon":5.772257},{"id":1983243,"name":"asubi","country":"ng","lat":5.593999,"lon":5.827202},{"id":1995745,"name":"idumuiru","country":"ng","lat":6.359403,"lon":6.196721},{"id":1979139,"name":"adanisievbe","country":"ng","lat":5.951245,"lon":5.695867},{"id":2008572,"name":"obromudu","country":"ng","lat":5.964232,"lon":5.696684},{"id":1989587,"name":"ejenessan","country":"ng","lat":5.861365,"lon":5.795052},{"id":2006394,"name":"mokonokpor","country":"ng","lat":6.008748,"lon":6.371055},{"id":1978905,"name":"abudu","country":"ng","lat":6.29343,"lon":6.036358},{"id":1995748,"name":"idumuje-uno","country":"ng","lat":6.361825,"lon":6.448866},{"id":2011953,"name":"otete","country":"ng","lat":6.345863,"lon":5.671914},{"id":2012154,"name":"owa oyiebu","country":"ng","lat":6.180779,"lon":6.201218},{"id":2010024,"name":"okoh ondhwakpor","country":"ng","lat":5.717643,"lon":6.023368},{"id":2010413,"name":"okuogume","country":"ng","lat":5.718782,"lon":5.792056},{"id":2009385,"name":"oguname-agbarho","country":"ng","lat":5.583061,"lon":5.918665},{"id":1990580,"name":"evengie","country":"ng","lat":6.3,"lon":5.55},{"id":1983500,"name":"avbriaria","country":"ng","lat":6.283333,"lon":5.633333},{"id":2020102,"name":"uzalla","country":"ng","lat":6.452523,"lon":5.718685},{"id":1990563,"name":"evbomede ii","country":"ng","lat":6.225447,"lon":6.09134},{"id":2009362,"name":"ogua","country":"ng","lat":6.254743,"lon":5.684645},{"id":2007822,"name":"nogororo","country":"ng","lat":6.352655,"lon":6.109093},{"id":1990054,"name":"ellu","country":"ng","lat":5.583894,"lon":6.281087},{"id":2010427,"name":"okuovu inland","country":"ng","lat":5.761037,"lon":5.659765},{"id":2008396,"name":"obi iduhon","country":"ng","lat":6.052828,"lon":6.304664},{"id":1979751,"name":"agbassa","country":"ng","lat":5.508728,"lon":6.054638},{"id":2011719,"name":"orugbo","country":"ng","lat":5.501551,"lon":5.711756},{"id":1990569,"name":"evborohun","country":"ng","lat":6.216667,"lon":5.533333},{"id":1997703,"name":"inigu","country":"ng","lat":5.689358,"lon":5.873973},{"id":2010398,"name":"okuno","country":"ng","lat":5.665927,"lon":5.895224},{"id":1979818,"name":"agbo","country":"ng","lat":6.266193,"lon":6.150523},{"id":2018477,"name":"umukwata","country":"ng","lat":5.802887,"lon":6.248075},{"id":1996284,"name":"iguoshodi nebudin","country":"ng","lat":6.45,"lon":5.533333},{"id":1990572,"name":"evbowe","country":"ng","lat":6.433333,"lon":5.95},{"id":1985825,"name":"boji-boji","country":"ng","lat":6.254287,"lon":6.208646},{"id":1981850,"name":"amahor","country":"ng","lat":6.449851,"lon":6.141939},{"id":2011356,"name":"onyobru","country":"ng","lat":5.663393,"lon":6.11348},{"id":2018547,"name":"umuogbebulu","country":"ng","lat":5.919471,"lon":6.484137},{"id":1981166,"name":"akugbe","country":"ng","lat":6.233852,"lon":6.019134},{"id":2018155,"name":"ulegu","country":"ng","lat":6.25,"lon":5.716667},{"id":1982178,"name":"amukpe","country":"ng","lat":5.860764,"lon":5.715487},{"id":2009311,"name":"ogoh","country":"ng","lat":6.459104,"lon":6.216859},{"id":2018145,"name":"ukwu-nzu","country":"ng","lat":6.387998,"lon":6.479969},{"id":2017888,"name":"ugbo wunagweh","country":"ng","lat":5.521208,"lon":5.717213},{"id":2009241,"name":"oghareki","country":"ng","lat":5.947703,"lon":5.636745},{"id":2010339,"name":"okuevue","country":"ng","lat":5.703071,"lon":5.746193},{"id":2012324,"name":"oyohe","country":"ng","lat":5.797003,"lon":5.732788},{"id":1990427,"name":"eso","country":"ng","lat":6.188261,"lon":6.003396},{"id":2008462,"name":"obodeko","country":"ng","lat":6.463962,"lon":6.209944},{"id":1989691,"name":"ekhor","country":"ng","lat":6.316667,"lon":5.816667},{"id":2019991,"name":"uteh-alohen","country":"ng","lat":6.19211,"lon":6.253159},{"id":2019994,"name":"utekon","country":"ng","lat":6.450202,"lon":5.628473},{"id":2017889,"name":"ugbukhuen","country":"ng","lat":6.080508,"lon":5.990901},{"id":1995215,"name":"ibada","country":"ng","lat":5.675372,"lon":5.956344},{"id":1989282,"name":"edosowan","country":"ng","lat":6.416667,"lon":5.65},{"id":1996245,"name":"iguenan","country":"ng","lat":6.4,"lon":5.666667},{"id":1995473,"name":"ichue","country":"ng","lat":6.242346,"lon":5.524119},{"id":1996177,"name":"ighwremaro","country":"ng","lat":5.507091,"lon":5.959415},{"id":2010484,"name":"okwirhie","country":"ng","lat":5.962961,"lon":5.711124},{"id":1981567,"name":"aleru","country":"ng","lat":6.206498,"lon":6.219573},{"id":1990489,"name":"etefe","country":"ng","lat":5.580379,"lon":6.056435},{"id":1998211,"name":"issele-uku","country":"ng","lat":6.315172,"lon":6.474054},{"id":1989746,"name":"ekosa","country":"ng","lat":6.12427,"lon":5.664451},{"id":2004031,"name":"london","country":"ng","lat":5.722571,"lon":5.787874},{"id":2011010,"name":"omi","country":"ng","lat":6.4,"lon":5.516667},{"id":2017867,"name":"ugbonoba","country":"ng","lat":6.315557,"lon":5.851312},{"id":1983496,"name":"avba","country":"ng","lat":5.514477,"lon":6.385556},{"id":2018321,"name":"umuchime ogume","country":"ng","lat":5.765223,"lon":6.352325},{"id":2010426,"name":"okuotomewo","country":"ng","lat":5.648366,"lon":5.769754},{"id":2017875,"name":"ugbor","country":"ng","lat":6.266667,"lon":5.616667},{"id":1995425,"name":"ibrede","country":"ng","lat":5.558501,"lon":6.390858},{"id":1981615,"name":"alijemisi","country":"ng","lat":6.287721,"lon":6.159084},{"id":2009465,"name":"ogunwenyi","country":"ng","lat":6.315053,"lon":5.536057},{"id":2019999,"name":"utesi","country":"ng","lat":6.21031,"lon":5.692011},{"id":2010163,"name":"okovwavwa","country":"ng","lat":5.711426,"lon":5.943721},{"id":1979418,"name":"aduhanhan","country":"ng","lat":6.319789,"lon":5.797785},{"id":1989584,"name":"ejeme unor","country":"ng","lat":6.017343,"lon":6.373538},{"id":1990566,"name":"evbonogbo","country":"ng","lat":5.888225,"lon":6.049439},{"id":1997069,"name":"ikoto","country":"ng","lat":5.51817,"lon":5.539566},{"id":2012086,"name":"ovbiebo camp","country":"ng","lat":6.055428,"lon":6.151324},{"id":1989340,"name":"efurokpe","country":"ng","lat":5.945371,"lon":5.725214},{"id":2009436,"name":"ogun","country":"ng","lat":6.476935,"lon":6.177171},{"id":1990562,"name":"evbomede i","country":"ng","lat":6.234762,"lon":6.091116},{"id":1982188,"name":"amurhu","country":"ng","lat":6.272013,"lon":6.262131},{"id":1990370,"name":"erovie quarters","country":"ng","lat":5.538011,"lon":6.229024},{"id":2019838,"name":"urhono","country":"ng","lat":5.72248,"lon":5.976203},{"id":1996256,"name":"iguikhimwiv","country":"ng","lat":6.481772,"lon":5.605791},{"id":2011657,"name":"orokosa","country":"ng","lat":6.452724,"lon":5.80666},{"id":2010345,"name":"okuidiemo","country":"ng","lat":5.661309,"lon":5.780336},{"id":2020073,"name":"uvwiama","country":"ng","lat":5.558308,"lon":5.876243},{"id":1990364,"name":"eroghor","country":"ng","lat":5.703633,"lon":5.631244},{"id":2010474,"name":"okwegba","country":"ng","lat":5.969318,"lon":5.730741},{"id":2017802,"name":"ugbekoko","country":"ng","lat":5.897094,"lon":5.576159},{"id":2010421,"name":"oku","country":"ng","lat":5.733151,"lon":5.654269},{"id":1989725,"name":"ekokor 2","country":"ng","lat":5.683727,"lon":5.650199},{"id":1998058,"name":"iselegu","country":"ng","lat":5.837343,"lon":6.470757},{"id":1996585,"name":"ikekogbe","country":"ng","lat":6.400652,"lon":6.273089},{"id":2010022,"name":"okoh khikirhe","country":"ng","lat":5.682265,"lon":6.017239},{"id":2019941,"name":"usiefrun","country":"ng","lat":5.50336,"lon":5.877703},{"id":2020084,"name":"uweyoba","country":"ng","lat":6.25,"lon":5.566667},{"id":1989818,"name":"ekrejegbe","country":"ng","lat":5.501908,"lon":5.898274},{"id":2010412,"name":"okuogholo","country":"ng","lat":5.741372,"lon":5.747003},{"id":2009242,"name":"oghede","country":"ng","lat":6.277379,"lon":5.527783},{"id":2012168,"name":"owe","country":"ng","lat":5.633333,"lon":6.25},{"id":2019835,"name":"urhodo","country":"ng","lat":5.699727,"lon":5.897458},{"id":2019789,"name":"unurhie aghalokpe","country":"ng","lat":5.759468,"lon":5.884326},{"id":2012102,"name":"oviri-okpe","country":"ng","lat":5.725886,"lon":5.842007},{"id":1982435,"name":"anighore camp","country":"ng","lat":6.347551,"lon":6.112716},{"id":2009959,"name":"oki","country":"ng","lat":6.228443,"lon":6.129814},{"id":1982758,"name":"arah","country":"ng","lat":6.423918,"lon":5.516465},{"id":2019949,"name":"uson","country":"ng","lat":6.235478,"lon":6.07417},{"id":2009590,"name":"ohwase","country":"ng","lat":5.507181,"lon":5.789677},{"id":2011948,"name":"oteri","country":"ng","lat":5.57183,"lon":6.058585},{"id":2009937,"name":"okhuokhuo","country":"ng","lat":6.412066,"lon":6.064361},{"id":1981639,"name":"alisimie ii","country":"ng","lat":6.309446,"lon":6.159511},{"id":2010428,"name":"okuovu","country":"ng","lat":5.768937,"lon":5.662944},{"id":1990392,"name":"erure","country":"ng","lat":5.549045,"lon":5.614962},{"id":2009639,"name":"ojieko","country":"ng","lat":6.101761,"lon":6.172667},{"id":1989822,"name":"ekroda","country":"ng","lat":5.851194,"lon":5.83701},{"id":2010981,"name":"omavovwe","country":"ng","lat":5.545323,"lon":6.053746},{"id":1979084,"name":"adagbrassa","country":"ng","lat":5.629246,"lon":5.822389},{"id":1980551,"name":"ajekimoni","country":"ng","lat":5.791981,"lon":5.687706},{"id":2010331,"name":"okuegba","country":"ng","lat":5.744914,"lon":5.813579},{"id":2009108,"name":"ogbesan","country":"ng","lat":6.337571,"lon":5.708964},{"id":1983059,"name":"asama","country":"ng","lat":6.16258,"lon":6.434667},{"id":1996614,"name":"ikhuen","country":"ng","lat":6.333333,"lon":5.733333},{"id":2010828,"name":"olote","country":"ng","lat":6.22031,"lon":6.083651},{"id":2019885,"name":"uruokpe","country":"ng","lat":5.696805,"lon":5.99258},{"id":1996226,"name":"iguasa","country":"ng","lat":6.321602,"lon":5.577543},{"id":1990486,"name":"ete-erumu","country":"ng","lat":6.129323,"lon":6.269402},{"id":2010456,"name":"okvomore","country":"ng","lat":5.924483,"lon":5.767626},{"id":1980426,"name":"ajadiye","country":"ng","lat":5.803969,"lon":5.564376},{"id":1990554,"name":"evbodia","country":"ng","lat":6.283333,"lon":5.566667},{"id":2018652,"name":"umusedeli","country":"ng","lat":5.677083,"lon":6.422533},{"id":2017576,"name":"ubagbon","country":"ng","lat":6.3,"lon":5.566667},{"id":2015125,"name":"sovie","country":"ng","lat":5.769313,"lon":6.065625},{"id":1995876,"name":"igawidi","country":"ng","lat":5.575836,"lon":5.993852},{"id":1981614,"name":"alihagwu","country":"ng","lat":6.236518,"lon":6.158652},{"id":2019976,"name":"utagba","country":"ng","lat":5.687744,"lon":6.413299},{"id":1996608,"name":"ikeresa","country":"ng","lat":5.8,"lon":5.6},{"id":1989557,"name":"ehwahwa","country":"ng","lat":5.569518,"lon":6.075038},{"id":1998838,"name":"jakpa","country":"ng","lat":5.709584,"lon":5.725022},{"id":1981626,"name":"aliliha","country":"ng","lat":6.294031,"lon":6.120454},{"id":2009243,"name":"ogheghe","country":"ng","lat":6.411117,"lon":5.552018},{"id":1998532,"name":"iwrohwaro","country":"ng","lat":5.533817,"lon":6.001647},{"id":1979083,"name":"adagbrasa","country":"ng","lat":5.736219,"lon":5.683347},{"id":1990739,"name":"eziokpor","country":"ng","lat":5.797835,"lon":6.214422},{"id":1981641,"name":"alisitue","country":"ng","lat":6.296646,"lon":6.157603},{"id":1995657,"name":"id-oboh","country":"ng","lat":6.450048,"lon":6.281815},{"id":2009238,"name":"oghara","country":"ng","lat":5.588928,"lon":6.100308},{"id":2010358,"name":"okuku","country":"ng","lat":6.047881,"lon":5.69556},{"id":2010349,"name":"okuitaire","country":"ng","lat":5.664474,"lon":5.794598},{"id":1988394,"name":"ditah","country":"ng","lat":6.307515,"lon":6.207714},{"id":1979094,"name":"adaigievbe","country":"ng","lat":6.405454,"lon":6.074486},{"id":2010432,"name":"okurekpo","country":"ng","lat":5.693824,"lon":5.954541},{"id":2011538,"name":"orhonore","country":"ng","lat":5.755109,"lon":5.916021},{"id":2019840,"name":"urhu agbesa","country":"ng","lat":5.733988,"lon":6.085683},{"id":2012032,"name":"otumara","country":"ng","lat":5.738738,"lon":5.940508},{"id":1990584,"name":"evporo","country":"ng","lat":6.312035,"lon":5.505035},{"id":2008369,"name":"obiaruku","country":"ng","lat":5.846712,"lon":6.152566},{"id":1995770,"name":"iduviga","country":"ng","lat":6.141756,"lon":6.057758},{"id":2008282,"name":"obayantor","country":"ng","lat":6.112832,"lon":5.667474},{"id":2017798,"name":"ugbeje","country":"ng","lat":6.356417,"lon":6.081929},{"id":1989710,"name":"ekodel","country":"ng","lat":6.383635,"lon":5.710826},{"id":2011675,"name":"orovie","country":"ng","lat":6.316667,"lon":5.516667},{"id":1996292,"name":"igure","country":"ng","lat":6.183333,"lon":5.883333},{"id":1996501,"name":"ijomi","country":"ng","lat":5.968773,"lon":5.722204},{"id":2017667,"name":"uchie","country":"ng","lat":5.632848,"lon":6.370586},{"id":2008744,"name":"odiete market","country":"ng","lat":5.603088,"lon":5.859536},{"id":1989714,"name":"eko-ekpon","country":"ng","lat":6.410227,"lon":6.293237},{"id":2009239,"name":"ogharefe junction","country":"ng","lat":5.949338,"lon":5.69732},{"id":1995742,"name":"idumowu","country":"ng","lat":6.49714,"lon":6.236536},{"id":2012113,"name":"ovu inland","country":"ng","lat":5.647639,"lon":5.93079},{"id":1985337,"name":"benim","country":"ng","lat":6.335045,"lon":5.627492},{"id":2018348,"name":"umuebu","country":"ng","lat":5.754959,"lon":6.162016},{"id":1990118,"name":"emevor","country":"ng","lat":5.512242,"lon":6.120208},{"id":1990100,"name":"emefune","country":"ng","lat":6.05304,"lon":6.402175},{"id":2008255,"name":"obanyotor","country":"ng","lat":6.283333,"lon":5.533333},{"id":2010189,"name":"okpara inland","country":"ng","lat":5.633424,"lon":5.966395},{"id":2008756,"name":"odi","country":"ng","lat":5.566667,"lon":5.716667},{"id":2009252,"name":"oghoghugbo","country":"ng","lat":6.35,"lon":5.566667},{"id":1990664,"name":"eyaem","country":"ng","lat":6.384139,"lon":5.690735},{"id":2009275,"name":"ogiedi","country":"ng","lat":5.738964,"lon":5.701816},{"id":2013050,"name":"riabome","country":"ng","lat":5.746936,"lon":5.692338},{"id":1989820,"name":"ekrerhavbe","country":"ng","lat":5.560673,"lon":5.923388},{"id":1981115,"name":"akpobome waterside","country":"ng","lat":5.884342,"lon":5.726485},{"id":2020452,"name":"warrigi","country":"ng","lat":5.94219,"lon":5.623296},{"id":2008281,"name":"obayanta","country":"ng","lat":6.127997,"lon":6.030976},{"id":2012361,"name":"ozoro","country":"ng","lat":5.541913,"lon":6.227493},{"id":2012104,"name":"oviri","country":"ng","lat":5.654269,"lon":5.768574},{"id":2012188,"name":"owika","country":"ng","lat":6.241482,"lon":6.029503},{"id":2011355,"name":"onyobru-oghobeye","country":"ng","lat":5.810689,"lon":5.856082},{"id":2017700,"name":"udeni","country":"ng","lat":6.450706,"lon":5.853935},{"id":2011357,"name":"onyobru waterside","country":"ng","lat":5.791527,"lon":5.841823},{"id":2010483,"name":"okwewu","country":"ng","lat":5.818211,"lon":5.734241},{"id":2010441,"name":"okurunoh","country":"ng","lat":5.681547,"lon":5.965335},{"id":2011552,"name":"orie","country":"ng","lat":5.509369,"lon":6.324432},{"id":1989581,"name":"ejeme-aniogo","country":"ng","lat":6.009216,"lon":6.352592},{"id":1997240,"name":"ikpokpogri","country":"ng","lat":5.681275,"lon":5.74147},{"id":2010975,"name":"omadino","country":"ng","lat":5.626158,"lon":5.651453},{"id":1996267,"name":"igun waterside","country":"ng","lat":5.742281,"lon":5.969256},{"id":1990552,"name":"evbiakagba","country":"ng","lat":6.234542,"lon":5.722307},{"id":1996235,"name":"iguehana","country":"ng","lat":6.327241,"lon":5.906093},{"id":1990578,"name":"evbuomoma","country":"ng","lat":6.233333,"lon":5.666667},{"id":1982427,"name":"anibon","country":"ng","lat":5.798792,"lon":5.898948},{"id":1997608,"name":"imodje","country":"ng","lat":5.642371,"lon":6.11762},{"id":2011991,"name":"otorhogba","country":"ng","lat":5.607638,"lon":6.115954},{"id":1990590,"name":"evwriyen","country":"ng","lat":5.653212,"lon":5.796687},{"id":1989421,"name":"egbiri","country":"ng","lat":6.227694,"lon":5.586656},{"id":2010418,"name":"okuokpokpor","country":"ng","lat":5.741463,"lon":5.901271},{"id":2006084,"name":"mereje","country":"ng","lat":5.66585,"lon":5.713489},{"id":2017793,"name":"ugbedun","country":"ng","lat":6.241895,"lon":6.071549},{"id":2009929,"name":"okeze","country":"ng","lat":6.323646,"lon":5.768181},{"id":1980443,"name":"ajaguyibe","country":"ng","lat":5.781809,"lon":5.874336},{"id":2010087,"name":"okonaovi","country":"ng","lat":6.283333,"lon":5.683333},{"id":2010920,"name":"olukobare","country":"ng","lat":5.695048,"lon":5.876657},{"id":2010407,"name":"okuobadjere","country":"ng","lat":5.745005,"lon":5.785966},{"id":1983035,"name":"asaboro","country":"ng","lat":6.060999,"lon":5.72373},{"id":1980611,"name":"ajikpoto","country":"ng","lat":5.83185,"lon":5.780158},{"id":1989114,"name":"ebelle","country":"ng","lat":6.49683,"lon":6.22604},{"id":1992469,"name":"gbimidaka","country":"ng","lat":5.74328,"lon":5.724702},{"id":2004953,"name":"makoghwre","country":"ng","lat":5.599842,"lon":6.089232},{"id":2020066,"name":"uvbe","country":"ng","lat":6.289387,"lon":5.952825},{"id":1996176,"name":"ighwreku","country":"ng","lat":5.502459,"lon":5.985752},{"id":1989841,"name":"ekum osadegbe","country":"ng","lat":6.013751,"lon":6.286555},{"id":2018375,"name":"umuekun-amai","country":"ng","lat":5.75544,"lon":6.239749},{"id":2008451,"name":"obi-udo","country":"ng","lat":6.069012,"lon":6.429589},{"id":1996173,"name":"ighobaye","country":"ng","lat":6.077794,"lon":5.661128},{"id":1990272,"name":"eranaka","country":"ng","lat":5.606348,"lon":6.034659},{"id":1996244,"name":"iguemokhua","country":"ng","lat":6.139476,"lon":5.827845},{"id":2011062,"name":"omoteka","country":"ng","lat":5.543959,"lon":5.959341},{"id":1989757,"name":"ekpagha","country":"ng","lat":5.67301,"lon":5.900219},{"id":1989588,"name":"ejerkeriede","country":"ng","lat":5.78299,"lon":5.829472},{"id":1989173,"name":"ebuenehian","country":"ng","lat":6.330614,"lon":5.866264},{"id":2003979,"name":"lodu imenyi","country":"ng","lat":5.633333,"lon":5.533333},{"id":1980452,"name":"ajakolo","country":"ng","lat":5.808177,"lon":5.667255},{"id":2020060,"name":"utuyo-okpara","country":"ng","lat":5.65848,"lon":5.961702},{"id":2011354,"name":"onyobru inland","country":"ng","lat":5.815503,"lon":5.84927},{"id":1980291,"name":"ahor","country":"ng","lat":6.41707,"lon":5.717876},{"id":1996157,"name":"igeduma","country":"ng","lat":6.4172,"lon":6.273171},{"id":2010021,"name":"okoh itukperi","country":"ng","lat":5.716783,"lon":6.014605},{"id":2017910,"name":"ughoton","country":"ng","lat":5.60781,"lon":5.662943},{"id":2012131,"name":"owa-alizomor","country":"ng","lat":6.19634,"lon":6.186042},{"id":1990166,"name":"emu-ebendo","country":"ng","lat":5.670837,"lon":6.351684},{"id":2008270,"name":"obaretin","country":"ng","lat":6.163337,"lon":5.645863},{"id":1985906,"name":"bomobolo","country":"ng","lat":5.518806,"lon":5.590515},{"id":2008431,"name":"obi-okonkwo","country":"ng","lat":6.094616,"lon":6.379535},{"id":2011957,"name":"otibio","country":"ng","lat":5.55945,"lon":6.167161},{"id":2010487,"name":"okwode","country":"ng","lat":5.867087,"lon":5.781611},{"id":1978887,"name":"abraka","country":"ng","lat":5.746247,"lon":6.128535},{"id":2009463,"name":"ogunu","country":"ng","lat":5.530063,"lon":5.711945},{"id":2009935,"name":"okhunmwum","country":"ng","lat":6.45,"lon":5.566667},{"id":1982426,"name":"anibon","country":"ng","lat":5.78962,"lon":5.864074},{"id":1996271,"name":"iguoghae","country":"ng","lat":6.346274,"lon":5.889073},{"id":1990305,"name":"erhua","country":"ng","lat":5.688903,"lon":5.980229},{"id":1990175,"name":"emu-obodeti","country":"ng","lat":5.657926,"lon":6.318993},{"id":1995739,"name":"idumodi","country":"ng","lat":6.45,"lon":6.216667},{"id":2012347,"name":"ozara","country":"ng","lat":6.323727,"lon":6.141275}]});