callback({"markets":[{"id":2953390,"name":"delta","country":"us","lat":32.3255556,"lon":-90.9269444},{"id":2974404,"name":"reedtown","country":"us","lat":32.0758333,"lon":-90.6427778},{"id":2973787,"name":"learned","country":"us","lat":32.1966667,"lon":-90.5472222},{"id":2974269,"name":"perth","country":"us","lat":31.6591667,"lon":-90.8677778},{"id":2974274,"name":"peyton","country":"us","lat":31.8375,"lon":-90.8022222},{"id":2974336,"name":"port gibson","country":"us","lat":31.9608333,"lon":-90.9838889},{"id":2955064,"name":"saint joseph","country":"us","lat":31.9183333,"lon":-91.2333333},{"id":2955334,"name":"tensas bluff landing","country":"us","lat":32.1647222,"lon":-91.4041667},{"id":2974130,"name":"newman","country":"us","lat":32.2355556,"lon":-90.6972222},{"id":2953293,"name":"county landing","country":"us","lat":32.4,"lon":-91.4855556},{"id":2973234,"name":"elmo","country":"us","lat":31.6216667,"lon":-90.9383333},{"id":2953148,"name":"chamblee","country":"us","lat":31.8613889,"lon":-91.3577778},{"id":2954595,"name":"new quarters","country":"us","lat":32.1536111,"lon":-91.4252778},{"id":2952779,"name":"barnes","country":"us","lat":32.3791667,"lon":-91.1230556},{"id":2952764,"name":"balmoral","country":"us","lat":32.1147222,"lon":-91.2238889},{"id":2973345,"name":"four forks","country":"us","lat":31.6280556,"lon":-91.1275},{"id":2954406,"name":"mayflower","country":"us","lat":31.9513889,"lon":-91.3913889},{"id":2953921,"name":"highland","country":"us","lat":31.8377778,"lon":-91.4855556},{"id":2953375,"name":"dearborn","country":"us","lat":32.1819444,"lon":-91.2786111},{"id":2974372,"name":"quentin","country":"us","lat":31.5061111,"lon":-90.7463889},{"id":2974320,"name":"pleasant hill","country":"us","lat":31.7241667,"lon":-90.7366667},{"id":2974948,"name":"westside","country":"us","lat":31.905,"lon":-91.1286111},{"id":2973867,"name":"loyd star","country":"us","lat":31.6263889,"lon":-90.55},{"id":2972865,"name":"cadillac","country":"us","lat":31.6513889,"lon":-91.1102778},{"id":2973050,"name":"cranfield","country":"us","lat":31.5438889,"lon":-91.2058333},{"id":2972744,"name":"blakely","country":"us","lat":32.4436111,"lon":-90.8222222},{"id":2954903,"name":"quebec","country":"us","lat":32.4266667,"lon":-91.3027778},{"id":2953080,"name":"canebrake","country":"us","lat":31.7013889,"lon":-91.4116667},{"id":2974172,"name":"oakley","country":"us","lat":32.2175,"lon":-90.5030556},{"id":2955315,"name":"talla bena","country":"us","lat":32.4916667,"lon":-91.1533333},{"id":2953226,"name":"coleman","country":"us","lat":32.3255556,"lon":-91.0844444},{"id":2973020,"name":"conn","country":"us","lat":31.8977778,"lon":-90.71},{"id":2974668,"name":"stampley","country":"us","lat":31.6369444,"lon":-91.1311111},{"id":2973679,"name":"johnsville","country":"us","lat":31.5502778,"lon":-91.3491667},{"id":2955332,"name":"tensas","country":"us","lat":32.05,"lon":-91.2502778},{"id":2973534,"name":"hermanville","country":"us","lat":31.9591667,"lon":-90.84},{"id":2954537,"name":"mound","country":"us","lat":32.3391667,"lon":-91.0238889},{"id":2955317,"name":"tallulah","country":"us","lat":32.4083333,"lon":-91.1866667},{"id":2972776,"name":"bonus","country":"us","lat":31.5861111,"lon":-90.8986111},{"id":2972561,"name":"allen","country":"us","lat":32.0016667,"lon":-91.0036111},{"id":2973215,"name":"edwards","country":"us","lat":32.33,"lon":-90.6055556},{"id":2972993,"name":"cobbs","country":"us","lat":31.5597222,"lon":-90.5744444},{"id":2972787,"name":"bowerton","country":"us","lat":31.7561111,"lon":-90.5694444},{"id":2974873,"name":"villanova","country":"us","lat":32.4336111,"lon":-90.7727778},{"id":2974371,"name":"queens hill","country":"us","lat":32.3941667,"lon":-90.5272222},{"id":2955543,"name":"westwood","country":"us","lat":32.185,"lon":-91.32},{"id":2972542,"name":"adams","country":"us","lat":32.1597222,"lon":-90.5605556},{"id":2953893,"name":"hedgeland","country":"us","lat":31.815,"lon":-91.3666667},{"id":2974848,"name":"valley mills","country":"us","lat":32.3897222,"lon":-90.8583333},{"id":2974902,"name":"waltersville","country":"us","lat":32.3794444,"lon":-90.8677778},{"id":2955229,"name":"spokane","country":"us","lat":31.6991667,"lon":-91.4602778},{"id":2974189,"name":"oldenburg","country":"us","lat":31.5738889,"lon":-90.9744444},{"id":2974087,"name":"myles","country":"us","lat":32.0197222,"lon":-90.7063889},{"id":2955310,"name":"taconey","country":"us","lat":31.5752778,"lon":-91.4680556},{"id":2953588,"name":"ferry newlight landing","country":"us","lat":32.1038889,"lon":-91.4291667},{"id":2974507,"name":"saint catherine","country":"us","lat":31.5452778,"lon":-91.3680556},{"id":2972983,"name":"clifton","country":"us","lat":31.8347222,"lon":-91.0444444},{"id":2974255,"name":"peelers","country":"us","lat":32.4913889,"lon":-91.0466667},{"id":2972937,"name":"chapel hill","country":"us","lat":32.1141667,"lon":-90.5136111},{"id":2954601,"name":"newellton","country":"us","lat":32.0725,"lon":-91.2408333},{"id":2952682,"name":"altoona","country":"us","lat":32.4544444,"lon":-91.4536111},{"id":2972579,"name":"anna","country":"us","lat":31.6966667,"lon":-91.3513889},{"id":2973209,"name":"eddiceton","country":"us","lat":31.5019444,"lon":-90.7913889},{"id":2973713,"name":"kimberly","country":"us","lat":32.1580556,"lon":-90.9433333},{"id":2975031,"name":"zetus","country":"us","lat":31.5636111,"lon":-90.5294444},{"id":2955094,"name":"saranac","country":"us","lat":32.0091667,"lon":-91.3527778},{"id":2973484,"name":"hamburg","country":"us","lat":31.5786111,"lon":-91.0666667},{"id":2952829,"name":"bedford","country":"us","lat":32.2408333,"lon":-91.015},{"id":2954286,"name":"locust ridge","country":"us","lat":31.8763889,"lon":-91.3416667},{"id":2953255,"name":"cool coosa","country":"us","lat":31.7105556,"lon":-91.4625},{"id":2952717,"name":"argent","country":"us","lat":31.7383333,"lon":-91.4061111},{"id":2974835,"name":"union church","country":"us","lat":31.6827778,"lon":-90.7875},{"id":2972824,"name":"browns wells","country":"us","lat":31.775,"lon":-90.5013889},{"id":2953896,"name":"helena","country":"us","lat":31.8711111,"lon":-91.3933333},{"id":2974171,"name":"oaklawn","country":"us","lat":32.005,"lon":-90.9977778},{"id":2974463,"name":"rodney","country":"us","lat":31.8611111,"lon":-91.1997222},{"id":2972720,"name":"big black","country":"us","lat":32.2155556,"lon":-90.8397222},{"id":2973640,"name":"insmore","country":"us","lat":32.0138889,"lon":-90.7319444},{"id":2973988,"name":"melton","country":"us","lat":31.7863889,"lon":-91.0569444},{"id":2973615,"name":"humphreys","country":"us","lat":32.0802778,"lon":-90.8408333},{"id":2955333,"name":"tensas bluff","country":"us","lat":32.1616667,"lon":-91.4055556},{"id":2974462,"name":"rocky springs","country":"us","lat":32.0886111,"lon":-90.815},{"id":2974396,"name":"red lick","country":"us","lat":31.7922222,"lon":-90.9791667},{"id":2972934,"name":"champion hill","country":"us","lat":32.35,"lon":-90.5372222},{"id":2973305,"name":"fenwick","country":"us","lat":31.5558333,"lon":-91.2488889},{"id":2972635,"name":"barland","country":"us","lat":31.8875,"lon":-90.8105556},{"id":2974671,"name":"stanton","country":"us","lat":31.6158333,"lon":-91.2402778},{"id":2954945,"name":"remolina landing","country":"us","lat":32.11,"lon":-91.4019444},{"id":2974843,"name":"utica","country":"us","lat":32.1094444,"lon":-90.6233333},{"id":2974599,"name":"signal","country":"us","lat":32.4008333,"lon":-90.8538889},{"id":2974909,"name":"washington","country":"us","lat":31.5786111,"lon":-91.2991667},{"id":2973871,"name":"lucien","country":"us","lat":31.5166667,"lon":-90.6638889},{"id":2954332,"name":"lums","country":"us","lat":32.3955556,"lon":-91.1547222},{"id":2973377,"name":"galloway","country":"us","lat":32.0663889,"lon":-90.9666667},{"id":2973125,"name":"dennis crossroads","country":"us","lat":31.7580556,"lon":-90.9594444},{"id":2972752,"name":"blue hill","country":"us","lat":31.7627778,"lon":-90.8575},{"id":2954655,"name":"notnac","country":"us","lat":32.1030556,"lon":-91.2022222},{"id":2974055,"name":"morning star","country":"us","lat":32.2197222,"lon":-90.5736111},{"id":2974131,"name":"newmans","country":"us","lat":32.3508333,"lon":-90.7527778},{"id":2954110,"name":"king","country":"us","lat":32.2405556,"lon":-91.1213889},{"id":2952752,"name":"azucena","country":"us","lat":31.7777778,"lon":-91.4377778},{"id":2974650,"name":"speeds addition","country":"us","lat":32.3388889,"lon":-90.8855556},{"id":2954464,"name":"mileston forks","country":"us","lat":31.6591667,"lon":-91.4166667},{"id":2974870,"name":"vicksburg","country":"us","lat":32.3525,"lon":-90.8777778},{"id":2974168,"name":"oak ridge","country":"us","lat":32.4811111,"lon":-90.7063889},{"id":2955353,"name":"thomastown","country":"us","lat":32.3572222,"lon":-91.0697222},{"id":2974508,"name":"saint elmo","country":"us","lat":31.995,"lon":-90.8102778},{"id":2955503,"name":"waterproof","country":"us","lat":31.8047222,"lon":-91.3833333},{"id":2973717,"name":"kings","country":"us","lat":32.3969444,"lon":-90.8563889},{"id":2972636,"name":"barlow","country":"us","lat":31.8225,"lon":-90.6491667},{"id":2954158,"name":"lake bruin","country":"us","lat":31.9877778,"lon":-91.2561111},{"id":2972914,"name":"cayuga","country":"us","lat":32.1591667,"lon":-90.6938889},{"id":2954960,"name":"richmond","country":"us","lat":32.3877778,"lon":-91.1819444},{"id":2975021,"name":"yokena","country":"us","lat":32.175,"lon":-90.9419444},{"id":2973666,"name":"jeff davis","country":"us","lat":32.1927778,"lon":-90.8791667},{"id":2955197,"name":"somerset","country":"us","lat":32.1761111,"lon":-91.2338889},{"id":2974403,"name":"redwood","country":"us","lat":32.4775,"lon":-90.8036111},{"id":2972829,"name":"bruinsburg","country":"us","lat":31.9422222,"lon":-91.1572222},{"id":2955507,"name":"waverly","country":"us","lat":32.4461111,"lon":-91.4113889},{"id":2973791,"name":"leesdale","country":"us","lat":31.5466667,"lon":-91.1577778},{"id":2974773,"name":"tillman","country":"us","lat":31.8544444,"lon":-90.9161111},{"id":2953641,"name":"fortune fork","country":"us","lat":32.3591667,"lon":-91.1258333},{"id":2973503,"name":"harriston","country":"us","lat":31.725,"lon":-91.0322222},{"id":2953386,"name":"delhi","country":"us","lat":32.4575,"lon":-91.4930556},{"id":2952741,"name":"aubrey","country":"us","lat":31.9319444,"lon":-91.3205556},{"id":2972785,"name":"bovina","country":"us","lat":32.3519444,"lon":-90.7347222},{"id":2955106,"name":"scott landing","country":"us","lat":32.4341667,"lon":-91.4872222},{"id":2953261,"name":"cooter point","country":"us","lat":31.93,"lon":-91.4905556},{"id":2953733,"name":"glade bayou landing","country":"us","lat":32.1027778,"lon":-91.3930556},{"id":2953038,"name":"bullitt bayou","country":"us","lat":31.6333333,"lon":-91.4333333},{"id":2974593,"name":"shucktown","country":"us","lat":31.5925,"lon":-90.6627778},{"id":2955565,"name":"wildcat","country":"us","lat":32.1386111,"lon":-91.3622222},{"id":2973723,"name":"kirby","country":"us","lat":31.5113889,"lon":-90.9808333},{"id":2972893,"name":"carpenter","country":"us","lat":32.0338889,"lon":-90.6802778},{"id":2974982,"name":"willing","country":"us","lat":31.9608333,"lon":-90.6041667},{"id":2973653,"name":"jack","country":"us","lat":32.0172222,"lon":-90.57},{"id":2974691,"name":"stonington","country":"us","lat":31.7588889,"lon":-91.0172222},{"id":2953318,"name":"cross keys","country":"us","lat":31.8838889,"lon":-91.3577778},{"id":2974692,"name":"stout","country":"us","lat":32.3002778,"lon":-90.8991667},{"id":2973493,"name":"hankinson","country":"us","lat":32.1063889,"lon":-90.8794444},{"id":2953315,"name":"crimea","country":"us","lat":31.9769444,"lon":-91.3363889},{"id":2973587,"name":"hoodtown","country":"us","lat":31.9777778,"lon":-90.6047222},{"id":2972554,"name":"alcorn","country":"us","lat":31.8777778,"lon":-91.1391667},{"id":2973641,"name":"institute","country":"us","lat":32.3355556,"lon":-90.6305556},{"id":2973433,"name":"gordon","country":"us","lat":31.8966667,"lon":-90.9722222},{"id":2974390,"name":"rawhide","country":"us","lat":32.4661111,"lon":-90.6277778},{"id":2973071,"name":"culkin","country":"us","lat":32.3680556,"lon":-90.8180556},{"id":2974609,"name":"simrall","country":"us","lat":32.2016667,"lon":-90.9452778},{"id":2974337,"name":"porters chapel","country":"us","lat":32.2936111,"lon":-90.8613889},{"id":2974409,"name":"reganton","country":"us","lat":32.1416667,"lon":-90.7486111},{"id":2974199,"name":"orange","country":"us","lat":31.5275,"lon":-91.0725},{"id":2974500,"name":"russum","country":"us","lat":31.8772222,"lon":-91.0113889},{"id":2974096,"name":"natchez","country":"us","lat":31.5602778,"lon":-91.4030556},{"id":2973817,"name":"linwood","country":"us","lat":31.5108333,"lon":-91.4138889},{"id":2953968,"name":"hopewell landing","country":"us","lat":32.1275,"lon":-91.3927778},{"id":2954906,"name":"quimby","country":"us","lat":32.2352778,"lon":-91.2163889},{"id":2955629,"name":"yucatan landing","country":"us","lat":32.0797222,"lon":-91.1538889},{"id":2974868,"name":"veto","country":"us","lat":31.5777778,"lon":-90.7708333},{"id":2954039,"name":"jackson landing","country":"us","lat":32.3483333,"lon":-91.4997222},{"id":2972886,"name":"carlisle","country":"us","lat":32.0025,"lon":-90.7844444},{"id":2953749,"name":"goldman","country":"us","lat":31.8283333,"lon":-91.3805556},{"id":2974631,"name":"smiths","country":"us","lat":32.3391667,"lon":-90.6730556},{"id":2974398,"name":"redbone","country":"us","lat":32.2175,"lon":-90.8908333},{"id":2972920,"name":"cedars","country":"us","lat":32.2505556,"lon":-90.9252778},{"id":2973514,"name":"hawthorne","country":"us","lat":31.5388889,"lon":-91.4013889},{"id":2973952,"name":"mccall creek","country":"us","lat":31.5125,"lon":-90.6986111},{"id":2953392,"name":"denhart","country":"us","lat":31.8972222,"lon":-91.2975},{"id":2954604,"name":"newlight","country":"us","lat":32.1033333,"lon":-91.4333333},{"id":2973342,"name":"foster","country":"us","lat":31.6002778,"lon":-91.3288889},{"id":2954370,"name":"mansford","country":"us","lat":32.4652778,"lon":-91.1441667},{"id":2973672,"name":"jetts","country":"us","lat":32.3077778,"lon":-90.9013889},{"id":2954759,"name":"pecan landing","country":"us","lat":32.1025,"lon":-91.4133333},{"id":2955389,"name":"troy","country":"us","lat":31.8125,"lon":-91.4508333},{"id":2974986,"name":"willows","country":"us","lat":32.0361111,"lon":-90.8961111},{"id":2953527,"name":"englewood","country":"us","lat":32.385,"lon":-91.2069444},{"id":2972881,"name":"cannonsburg","country":"us","lat":31.6336111,"lon":-91.2111111},{"id":2973951,"name":"mcbride","country":"us","lat":31.7655556,"lon":-90.7822222},{"id":2955589,"name":"wilsonia","country":"us","lat":31.9327778,"lon":-91.3141667},{"id":2973783,"name":"le tourneau","country":"us","lat":32.2141667,"lon":-90.9383333},{"id":2953722,"name":"gibson landing","country":"us","lat":31.6894444,"lon":-91.4041667},{"id":2973299,"name":"fayette","country":"us","lat":31.7113889,"lon":-91.0605556},{"id":2975024,"name":"youngton","country":"us","lat":32.4475,"lon":-90.6202778},{"id":2972846,"name":"burnell","country":"us","lat":31.8088889,"lon":-90.7475},{"id":2973130,"name":"dentville","country":"us","lat":31.9597222,"lon":-90.5552778},{"id":2973705,"name":"kennolia","country":"us","lat":31.5944444,"lon":-90.675},{"id":2953819,"name":"gretna green","country":"us","lat":31.8791667,"lon":-91.4633333},{"id":2952730,"name":"ashly","country":"us","lat":32.4413889,"lon":-91.1230556},{"id":2973441,"name":"grand gulf","country":"us","lat":32.0330556,"lon":-91.0525},{"id":2955330,"name":"tendal","country":"us","lat":32.4322222,"lon":-91.3666667},{"id":2954482,"name":"minorca","country":"us","lat":31.5791667,"lon":-91.4816667},{"id":2954077,"name":"justina","country":"us","lat":31.9772222,"lon":-91.4294444},{"id":2953750,"name":"goldman landing","country":"us","lat":31.8230556,"lon":-91.3552778},{"id":2972665,"name":"bear creek","country":"us","lat":32.0636111,"lon":-90.5194444},{"id":2974243,"name":"pattison","country":"us","lat":31.8883333,"lon":-90.8872222},{"id":2973636,"name":"ingleside","country":"us","lat":32.0355556,"lon":-90.9827778},{"id":2974484,"name":"roxie","country":"us","lat":31.5044444,"lon":-91.0688889},{"id":2972906,"name":"caseyville","country":"us","lat":31.6727778,"lon":-90.6555556},{"id":2973173,"name":"duke","country":"us","lat":32.1127778,"lon":-90.7172222},{"id":2974907,"name":"warrenton","country":"us","lat":32.2472222,"lon":-90.9283333},{"id":2974859,"name":"vaughn","country":"us","lat":31.5769444,"lon":-90.5733333},{"id":2955452,"name":"vidalia","country":"us","lat":31.5652778,"lon":-91.4258333},{"id":2952774,"name":"barcelona","country":"us","lat":31.8525,"lon":-91.4227778},{"id":2974876,"name":"violet","country":"us","lat":31.8205556,"lon":-90.8527778},{"id":2973857,"name":"lorman","country":"us","lat":31.8202778,"lon":-91.05},{"id":2974827,"name":"twin lake","country":"us","lat":32.4888889,"lon":-90.82},{"id":2974556,"name":"selma","country":"us","lat":31.6013889,"lon":-91.2788889},{"id":2973610,"name":"hubbard","country":"us","lat":32.2125,"lon":-90.66},{"id":2974132,"name":"newmans grove","country":"us","lat":32.3458333,"lon":-90.7708333},{"id":2952642,"name":"afton","country":"us","lat":32.2447222,"lon":-91.1913889}]});