callback({"markets":[{"id":2997481,"name":"barton","country":"us","lat":48.5069444,"lon":-100.1758333},{"id":2998033,"name":"overly","country":"us","lat":48.6819444,"lon":-100.1497222},{"id":2997510,"name":"bottineau","country":"us","lat":48.8272222,"lon":-100.4452778},{"id":2997984,"name":"mylo","country":"us","lat":48.6352778,"lon":-99.6183333},{"id":2998201,"name":"thorne","country":"us","lat":48.7391667,"lon":-99.9311111},{"id":2997643,"name":"east dunseith","country":"us","lat":48.8655556,"lon":-100.0163889},{"id":2998269,"name":"willow city","country":"us","lat":48.6044444,"lon":-100.2938889},{"id":2997693,"name":"fonda","country":"us","lat":48.6697222,"lon":-100.0183333},{"id":2998107,"name":"rolette","country":"us","lat":48.6608333,"lon":-99.8411111},{"id":2998126,"name":"san haven","country":"us","lat":48.8347222,"lon":-100.0386111},{"id":346843,"name":"boissevain","country":"ca","lat":49.233333,"lon":-100.05},{"id":2997986,"name":"nanson","country":"us","lat":48.5738889,"lon":-99.7794444},{"id":2997489,"name":"belmar","country":"us","lat":48.6608333,"lon":-100.3272222},{"id":2998123,"name":"saint john","country":"us","lat":48.9444444,"lon":-99.7105556},{"id":349690,"name":"ninette","country":"ca","lat":49.4,"lon":-99.633333},{"id":2997486,"name":"belcourt","country":"us","lat":48.8391667,"lon":-99.7444444},{"id":347753,"name":"elgin","country":"ca","lat":49.433333,"lon":-100.266667},{"id":2998145,"name":"shell valley","country":"us","lat":48.7980556,"lon":-99.8644444},{"id":349691,"name":"ninga","country":"ca","lat":49.216667,"lon":-99.883333},{"id":349431,"name":"minto","country":"ca","lat":49.4,"lon":-100.016667},{"id":2997719,"name":"gardena","country":"us","lat":48.7008333,"lon":-100.4972222},{"id":2998195,"name":"tasco","country":"us","lat":48.6872222,"lon":-100.2547222},{"id":2998108,"name":"rolla","country":"us","lat":48.8577778,"lon":-99.6175},{"id":2997845,"name":"kelvin","country":"us","lat":48.9372222,"lon":-100.0505556},{"id":348721,"name":"killarney","country":"ca","lat":49.183333,"lon":-99.666667},{"id":2997637,"name":"dunseith","country":"us","lat":48.8130556,"lon":-100.0605556},{"id":2998025,"name":"omemee","country":"us","lat":48.7063889,"lon":-100.3547222},{"id":2997574,"name":"cole ford","country":"us","lat":48.5291667,"lon":-100.4627778}]});