callback({"markets":[{"id":492476,"name":"huangcaowa","country":"cn","lat":39.038605,"lon":113.971879},{"id":459774,"name":"dongqilihe","country":"cn","lat":38.533333,"lon":113.666667},{"id":511621,"name":"kouchuantsun","country":"cn","lat":39.081915,"lon":113.822062},{"id":444562,"name":"chuanling","country":"cn","lat":39.298056,"lon":114.254722},{"id":544294,"name":"nanhehui","country":"cn","lat":39.29479,"lon":113.706692},{"id":571374,"name":"shangkuan","country":"cn","lat":39.15,"lon":114.216667},{"id":549167,"name":"niuyuehe","country":"cn","lat":39.270643,"lon":113.69452},{"id":475646,"name":"guanyintang","country":"cn","lat":38.531944,"lon":113.826111},{"id":581312,"name":"shitanggou","country":"cn","lat":39.236894,"lon":113.804788},{"id":654275,"name":"zhongzhuangcun","country":"cn","lat":39.154722,"lon":114.236667},{"id":650390,"name":"zhanshangpu","country":"cn","lat":39.216667,"lon":114.133333},{"id":505671,"name":"jinshanpu xiang","country":"cn","lat":39.294676,"lon":113.679132},{"id":514906,"name":"langyakou","country":"cn","lat":39.185,"lon":114.351667},{"id":603175,"name":"tungchienkou","country":"cn","lat":38.932222,"lon":113.742778},{"id":576554,"name":"shengou","country":"cn","lat":39.368018,"lon":113.768701},{"id":602205,"name":"tuanpokou","country":"cn","lat":38.633333,"lon":114.183333},{"id":547362,"name":"niangzicheng","country":"cn","lat":39.059747,"lon":113.805156},{"id":581863,"name":"shiyaogou","country":"cn","lat":39.171712,"lon":113.911777},{"id":602054,"name":"tuanbokou","country":"cn","lat":38.591667,"lon":113.985},{"id":474662,"name":"guangmingsi","country":"cn","lat":39.02871,"lon":113.603324},{"id":639890,"name":"yimaling","country":"cn","lat":39.401667,"lon":114.4675},{"id":654686,"name":"zhoujiawan","country":"cn","lat":38.921111,"lon":114.323056},{"id":553820,"name":"pianliang","country":"cn","lat":39.460017,"lon":113.896668},{"id":502520,"name":"jiaotanzhuang","country":"cn","lat":38.525833,"lon":113.747222},{"id":647052,"name":"zaisuangou","country":"cn","lat":39.461319,"lon":113.97129},{"id":559236,"name":"qicheng","country":"cn","lat":39.316517,"lon":113.803892},{"id":512510,"name":"kuchihho","country":"cn","lat":39.410833,"lon":114.093611},{"id":458841,"name":"dongjiancha","country":"cn","lat":39.339355,"lon":113.700826},{"id":461894,"name":"duijiu","country":"cn","lat":39.050548,"lon":113.754366},{"id":442624,"name":"chinkangku","country":"cn","lat":38.880278,"lon":113.660833},{"id":653048,"name":"zhongersi","country":"cn","lat":39.151635,"lon":113.896371},{"id":562958,"name":"quhuisi","country":"cn","lat":39.185,"lon":114.048889},{"id":424207,"name":"baiyang","country":"cn","lat":39.407043,"lon":113.955363},{"id":460383,"name":"dongwafangtai","country":"cn","lat":38.660833,"lon":114.1475},{"id":638011,"name":"yaozijian","country":"cn","lat":39.356854,"lon":113.867454},{"id":596034,"name":"tatso","country":"cn","lat":39.435833,"lon":114.155833},{"id":622086,"name":"xiataizhuang","country":"cn","lat":39.325557,"lon":113.754159},{"id":587851,"name":"songyankou","country":"cn","lat":38.743333,"lon":113.573611},{"id":460160,"name":"dongshuigou","country":"cn","lat":39.243541,"lon":113.929519},{"id":524289,"name":"liuchuang","country":"cn","lat":39.266111,"lon":114.358611},{"id":637244,"name":"yaogou","country":"cn","lat":39.43719,"lon":113.823428},{"id":462674,"name":"dushancheng","country":"cn","lat":39.217222,"lon":114.488611},{"id":430818,"name":"caijiayu","country":"cn","lat":39.384926,"lon":113.988466},{"id":565031,"name":"saanhui","country":"cn","lat":39.240248,"lon":113.604657},{"id":629818,"name":"xiwan","country":"cn","lat":39.102778,"lon":114.242222},{"id":507229,"name":"jiuying","country":"cn","lat":38.788056,"lon":113.929444},{"id":422146,"name":"baidaoan","country":"cn","lat":39.138889,"lon":114.483889},{"id":653256,"name":"zhonghuyu","country":"cn","lat":39.307797,"lon":113.644439},{"id":529068,"name":"longxutai","country":"cn","lat":39.140556,"lon":114.344167},{"id":573188,"name":"shangxiyaojie","country":"cn","lat":39.132285,"lon":113.727452},{"id":593789,"name":"tangtzuwa","country":"cn","lat":39.426389,"lon":114.151944},{"id":613755,"name":"wuqiang","country":"cn","lat":38.693333,"lon":113.627222},{"id":439458,"name":"chenzhuang","country":"cn","lat":38.568889,"lon":114.093889},{"id":544105,"name":"nanganshao","country":"cn","lat":39.462165,"lon":113.692403},{"id":567496,"name":"sanshanzhen","country":"cn","lat":39.466667,"lon":114.316667},{"id":427816,"name":"beihongshui","country":"cn","lat":39.325602,"lon":113.723913},{"id":552915,"name":"peikaohungkou","country":"cn","lat":38.680833,"lon":113.516667},{"id":641423,"name":"yixingzhai","country":"cn","lat":39.365541,"lon":113.591816},{"id":473050,"name":"geziyu","country":"cn","lat":39.484226,"lon":113.86352},{"id":503092,"name":"jiebangou","country":"cn","lat":39.481153,"lon":113.545419},{"id":436792,"name":"chechang","country":"cn","lat":39.176687,"lon":113.713426},{"id":497763,"name":"hungchientsun","country":"cn","lat":39.272963,"lon":113.880223},{"id":472744,"name":"gengzhuang","country":"cn","lat":39.125737,"lon":113.604213},{"id":427758,"name":"beiguoyuan","country":"cn","lat":38.773611,"lon":114.307778},{"id":590860,"name":"taianling","country":"cn","lat":39.384594,"lon":113.824775},{"id":587024,"name":"sizi","country":"cn","lat":39.186462,"lon":113.55866},{"id":441758,"name":"chimuti","country":"cn","lat":39.233333,"lon":114.433333},{"id":648131,"name":"zhaitou","country":"cn","lat":39.416466,"lon":113.848653},{"id":454234,"name":"daxipu","country":"cn","lat":39.388178,"lon":113.509693},{"id":458433,"name":"donggoumen","country":"cn","lat":39.123167,"lon":113.843146},{"id":454410,"name":"dayangpo","country":"cn","lat":39.300862,"lon":113.97615},{"id":647781,"name":"zeqingling","country":"cn","lat":39.431369,"lon":113.726024},{"id":655969,"name":"zhujiafang","country":"cn","lat":39.40548,"lon":113.594332},{"id":582377,"name":"shouchangsi","country":"cn","lat":39.004722,"lon":113.911667},{"id":630307,"name":"xiyuting","country":"cn","lat":38.517778,"lon":114.493611},{"id":571976,"name":"shangniuhai","country":"cn","lat":39.391259,"lon":113.890622},{"id":602067,"name":"tuanchiachuang","country":"cn","lat":39.416667,"lon":114.016667},{"id":533778,"name":"machiachuang","country":"cn","lat":38.675556,"lon":113.668056},{"id":489344,"name":"hsihokou","country":"cn","lat":39.410305,"lon":113.835122},{"id":489595,"name":"hsimachuang","country":"cn","lat":39.101667,"lon":114.460556},{"id":567234,"name":"sanlou","country":"cn","lat":39.145833,"lon":113.994722},{"id":637052,"name":"yaochantsun","country":"cn","lat":39.4,"lon":114.45},{"id":568365,"name":"satangwan","country":"cn","lat":39.038798,"lon":113.708202},{"id":529279,"name":"loshuihotsun","country":"cn","lat":39.444167,"lon":114.319167},{"id":428202,"name":"beipotou","country":"cn","lat":39.440496,"lon":113.945095},{"id":570533,"name":"shangfang","country":"cn","lat":38.526111,"lon":114.4525},{"id":542299,"name":"mujiazhuang","country":"cn","lat":39.452964,"lon":113.652623},{"id":658166,"name":"zuosuo","country":"cn","lat":39.275332,"lon":113.775719},{"id":570758,"name":"shangguanyintang","country":"cn","lat":39.47686,"lon":113.677928},{"id":645474,"name":"yuncailing","country":"cn","lat":39.45,"lon":114.35},{"id":448999,"name":"daibao","country":"cn","lat":39.276877,"lon":113.571056},{"id":541673,"name":"moqiang","country":"cn","lat":39.133333,"lon":113.616667},{"id":456421,"name":"diaowanggou","country":"cn","lat":39.462783,"lon":113.827533},{"id":532031,"name":"luojiaping","country":"cn","lat":39.352363,"lon":113.638466},{"id":560498,"name":"qingliangshe","country":"cn","lat":38.999614,"lon":113.616969},{"id":624074,"name":"xieziping","country":"cn","lat":39.086667,"lon":114.207222},{"id":607486,"name":"wangkuai","country":"cn","lat":38.770278,"lon":114.439167},{"id":552149,"name":"paochi","country":"cn","lat":39.335286,"lon":113.912792},{"id":420564,"name":"anmin","country":"cn","lat":39.397206,"lon":113.648114},{"id":441228,"name":"chihchiaotsun","country":"cn","lat":39.4,"lon":114.183333},{"id":584545,"name":"shuimo","country":"cn","lat":39.4553,"lon":113.897305},{"id":523751,"name":"lishucao","country":"cn","lat":38.696667,"lon":114.063889},{"id":461263,"name":"doufangshicun","country":"cn","lat":39.240783,"lon":114.009585},{"id":525810,"name":"liushishan","country":"cn","lat":39.47933,"lon":113.980426},{"id":548385,"name":"niubangkou","country":"cn","lat":39.128027,"lon":113.968568},{"id":457952,"name":"dongchengpu","country":"cn","lat":38.718889,"lon":114.370278},{"id":643093,"name":"yuanjiadi","country":"cn","lat":39.232878,"lon":113.682573},{"id":454617,"name":"daying zhen","country":"cn","lat":39.290186,"lon":113.75758},{"id":422698,"name":"baijiazhuang xiang","country":"cn","lat":39.364144,"lon":113.666368},{"id":616267,"name":"xialangjian","country":"cn","lat":39.297664,"lon":113.616861},{"id":611266,"name":"wenxi","country":"cn","lat":39.145221,"lon":113.770922},{"id":579272,"name":"shihtsui","country":"cn","lat":38.863333,"lon":113.699444},{"id":436087,"name":"chaopitsun","country":"cn","lat":39.484444,"lon":114.032778},{"id":622425,"name":"xiaxiaoyan","country":"cn","lat":39.312361,"lon":113.538151},{"id":573353,"name":"shangyenho","country":"cn","lat":39.311389,"lon":114.368611},{"id":462843,"name":"duyu","country":"cn","lat":39.189167,"lon":114.184444},{"id":614361,"name":"wuwangkou","country":"cn","lat":39.045122,"lon":114.018577},{"id":428921,"name":"beizhuang","country":"cn","lat":38.5925,"lon":114.130833},{"id":590203,"name":"tachaikou","country":"cn","lat":39.178473,"lon":113.867354},{"id":627219,"name":"xinkulue","country":"cn","lat":39.345293,"lon":113.779617},{"id":424344,"name":"baiyatai xiang","country":"cn","lat":39.328056,"lon":113.973611},{"id":615338,"name":"xiadawan","country":"cn","lat":39.210789,"lon":113.736184},{"id":556655,"name":"puxi","country":"cn","lat":39.349578,"lon":113.934432},{"id":603326,"name":"tunghonanchen","country":"cn","lat":39.381944,"lon":114.044167},{"id":453131,"name":"datai","country":"cn","lat":38.981111,"lon":114.372778},{"id":429984,"name":"boqiang","country":"cn","lat":39.136698,"lon":113.620405},{"id":489239,"name":"hsienliushih","country":"cn","lat":38.766667,"lon":113.966667},{"id":545038,"name":"nanmajuan","country":"cn","lat":39.422804,"lon":113.547918},{"id":457790,"name":"dongbeizhuang","country":"cn","lat":38.856944,"lon":114.436111},{"id":579453,"name":"shihuyan","country":"cn","lat":39.030119,"lon":113.86417},{"id":634447,"name":"yanglinjie","country":"cn","lat":39.008979,"lon":113.590902},{"id":621239,"name":"xiaoyinchang","country":"cn","lat":39.497916,"lon":113.67677},{"id":637957,"name":"yaoyu","country":"cn","lat":39.458777,"lon":113.519727},{"id":465053,"name":"fanshahe","country":"cn","lat":39.266667,"lon":113.55},{"id":526074,"name":"liutingssu","country":"cn","lat":38.848333,"lon":113.5625},{"id":561471,"name":"qinjiatai","country":"cn","lat":38.570833,"lon":114.377778},{"id":600172,"name":"tonglu","country":"cn","lat":39.371065,"lon":113.556567},{"id":447713,"name":"dadi","country":"cn","lat":38.983974,"lon":113.745508},{"id":476095,"name":"gufu","country":"cn","lat":39.328045,"lon":113.771901},{"id":447417,"name":"dachegou","country":"cn","lat":38.985295,"lon":113.55071},{"id":567782,"name":"santiaoling","country":"cn","lat":39.440918,"lon":113.528579},{"id":433311,"name":"changchengling","country":"cn","lat":38.92,"lon":113.780556},{"id":620144,"name":"xiaonanchuan","country":"cn","lat":39.373688,"lon":113.634271},{"id":579811,"name":"shijiazhai","country":"cn","lat":38.918611,"lon":114.271111},{"id":502006,"name":"jiantou","country":"cn","lat":39.329474,"lon":113.84187},{"id":556735,"name":"puzigou","country":"cn","lat":39.279635,"lon":113.936992},{"id":611575,"name":"wuaiwan","country":"cn","lat":38.798333,"lon":114.409444},{"id":447747,"name":"dadipo","country":"cn","lat":39.181423,"lon":113.806135},{"id":529145,"name":"longyuchi","country":"cn","lat":39.301944,"lon":114.262778},{"id":530277,"name":"lugutai","country":"cn","lat":39.206001,"lon":113.884756},{"id":578850,"name":"shihkuangkou","country":"cn","lat":39.216667,"lon":113.8},{"id":472451,"name":"gejiatai","country":"cn","lat":38.981389,"lon":114.169167},{"id":569942,"name":"shangbao","country":"cn","lat":38.9975,"lon":114.103611},{"id":430297,"name":"bulaotai","country":"cn","lat":39.076722,"lon":113.968246},{"id":427817,"name":"beihongya","country":"cn","lat":39.353899,"lon":113.520104},{"id":423373,"name":"baipotou","country":"cn","lat":39.221829,"lon":113.846452},{"id":491850,"name":"huaishuzhuang","country":"cn","lat":38.810833,"lon":114.240556},{"id":485019,"name":"hongshuicun","country":"cn","lat":39.433417,"lon":113.87853},{"id":627184,"name":"xinkai","country":"cn","lat":38.618611,"lon":114.066389},{"id":495607,"name":"huaping","country":"cn","lat":38.992059,"lon":113.688987},{"id":502095,"name":"jianyu","country":"cn","lat":39.312621,"lon":113.686148},{"id":450193,"name":"daliushucun","country":"cn","lat":38.904444,"lon":114.111389},{"id":575716,"name":"shayaogou","country":"cn","lat":39.173374,"lon":113.539364},{"id":563549,"name":"ranzhuangpucun","country":"cn","lat":39.283606,"lon":114.01016},{"id":499567,"name":"janchuang","country":"cn","lat":39.263798,"lon":114.025045},{"id":527435,"name":"longchihe","country":"cn","lat":39.329303,"lon":113.792481},{"id":638803,"name":"yeli","country":"cn","lat":39.320278,"lon":114.1025},{"id":490920,"name":"hsiwan","country":"cn","lat":39.390196,"lon":113.794263},{"id":571470,"name":"shanglianzhuang","country":"cn","lat":38.65,"lon":114.283333},{"id":545560,"name":"nanshansi","country":"cn","lat":38.981333,"lon":113.572413},{"id":630464,"name":"xizhuangwang","country":"cn","lat":39.056883,"lon":113.906828},{"id":438026,"name":"chengnanzhuang","country":"cn","lat":38.736111,"lon":114.209444},{"id":617347,"name":"xianglushicun","country":"cn","lat":39.189849,"lon":114.004501},{"id":591378,"name":"taipinggou","country":"cn","lat":39.084441,"lon":113.649713},{"id":574062,"name":"shanling","country":"cn","lat":39.221847,"lon":113.940146},{"id":602807,"name":"tuling","country":"cn","lat":39.483686,"lon":113.605873},{"id":514905,"name":"langyakou","country":"cn","lat":39.120556,"lon":114.385},{"id":650254,"name":"zhangzhuangcun","country":"cn","lat":39.296443,"lon":114.014921},{"id":598989,"name":"tienyentsun","country":"cn","lat":39.228504,"lon":113.655648},{"id":460541,"name":"dongxiaguan","country":"cn","lat":38.887222,"lon":113.932222},{"id":524732,"name":"liuhoti","country":"cn","lat":39.4075,"lon":114.0775},{"id":570948,"name":"shanghongyugoucun","country":"cn","lat":39.454303,"lon":114.008768},{"id":455127,"name":"dazhuangshang","country":"cn","lat":38.654167,"lon":114.037778},{"id":588751,"name":"sujiakou","country":"cn","lat":39.227219,"lon":113.51299},{"id":444485,"name":"chuangwang","country":"cn","lat":39.093872,"lon":113.78746},{"id":585376,"name":"shupaotsun","country":"cn","lat":39.292222,"lon":114.44},{"id":654134,"name":"zhongyewo","country":"cn","lat":39.372222,"lon":114.071944},{"id":602845,"name":"tulou","country":"cn","lat":39.100629,"lon":113.740855},{"id":450905,"name":"danangou","country":"cn","lat":39.013141,"lon":113.990799},{"id":607430,"name":"wangjuangbu","country":"cn","lat":39.435385,"lon":113.909016},{"id":447540,"name":"dachuanhuangkuang","country":"cn","lat":39.039444,"lon":114.128333},{"id":621065,"name":"xiaoxipu","country":"cn","lat":39.417032,"lon":113.526024},{"id":570291,"name":"shangcunzhen","country":"cn","lat":39.460097,"lon":113.787927},{"id":552358,"name":"paowo","country":"cn","lat":39.170338,"lon":113.759612},{"id":639982,"name":"yinchangtsun","country":"cn","lat":39.291389,"lon":114.173056},{"id":506748,"name":"jiukouzi","country":"cn","lat":38.643611,"lon":114.353889},{"id":519650,"name":"lianzhuangcun","country":"cn","lat":39.48357,"lon":114.009127},{"id":654281,"name":"zhongzhuangzhai","country":"cn","lat":39.22314,"lon":113.537289},{"id":575976,"name":"shehuchuan","country":"cn","lat":38.883333,"lon":113.716667},{"id":578689,"name":"shihe","country":"cn","lat":39.252713,"lon":113.67571},{"id":511498,"name":"kopaitsun","country":"cn","lat":39.398056,"lon":114.395},{"id":422063,"name":"baicaodicun","country":"cn","lat":39.163241,"lon":114.001401},{"id":620625,"name":"xiaosongyu","country":"cn","lat":39.202848,"lon":113.506261},{"id":519580,"name":"lianxing","country":"cn","lat":39.250072,"lon":113.525296},{"id":511711,"name":"koutoutsun","country":"cn","lat":39.266667,"lon":114.333333},{"id":570072,"name":"shangchai","country":"cn","lat":39.217222,"lon":114.308611},{"id":615713,"name":"xiaguanyintang","country":"cn","lat":39.466667,"lon":113.666667},{"id":460223,"name":"dongtaigou","country":"cn","lat":39.040541,"lon":113.626213},{"id":542560,"name":"muqutaicun","country":"cn","lat":39.170949,"lon":114.020302},{"id":510324,"name":"kengchen","country":"cn","lat":38.7175,"lon":113.554722},{"id":554454,"name":"pinghsingkuan","country":"cn","lat":39.308307,"lon":113.904918},{"id":611329,"name":"wenzhuang","country":"cn","lat":39.441094,"lon":113.740446},{"id":569026,"name":"shahe","country":"cn","lat":39.270833,"lon":113.547778},{"id":448216,"name":"daganhe","country":"cn","lat":38.907778,"lon":113.641667},{"id":626499,"name":"xingsheng","country":"cn","lat":39.2091,"lon":113.625395},{"id":546635,"name":"nanzhuangwang","country":"cn","lat":39.042664,"lon":113.925588},{"id":545342,"name":"nanpotou","country":"cn","lat":39.416807,"lon":113.940217},{"id":538166,"name":"mazishan","country":"cn","lat":39.086147,"lon":113.729896},{"id":650048,"name":"zhangxiangou","country":"cn","lat":39.0879,"lon":113.630156},{"id":428878,"name":"beizhangzhuang","country":"cn","lat":39.419167,"lon":114.057222},{"id":624973,"name":"xilianzhong","country":"cn","lat":39.245203,"lon":113.839732},{"id":490128,"name":"hsingshutai","country":"cn","lat":39.183333,"lon":114.383333},{"id":511838,"name":"kuancaoping","country":"cn","lat":39.130556,"lon":114.053333},{"id":441058,"name":"chiensotsun","country":"cn","lat":39.274118,"lon":113.855591},{"id":539842,"name":"miaodingan","country":"cn","lat":39.046811,"lon":113.565756},{"id":475490,"name":"guanxigou","country":"cn","lat":39.445446,"lon":113.502954},{"id":430296,"name":"bulaoshu","country":"cn","lat":38.875278,"lon":114.028889},{"id":428051,"name":"beilinzhuang","country":"cn","lat":39.398351,"lon":113.542803},{"id":544179,"name":"nangou","country":"cn","lat":39.030006,"lon":113.935919},{"id":487334,"name":"houyu","country":"cn","lat":39.143002,"lon":113.604348},{"id":467420,"name":"foupingchengkuan","country":"cn","lat":38.846944,"lon":114.186667},{"id":609016,"name":"wantzu","country":"cn","lat":38.805278,"lon":113.785833},{"id":630471,"name":"xizhuang","country":"cn","lat":38.825833,"lon":114.269167},{"id":629157,"name":"xishahe","country":"cn","lat":39.259414,"lon":113.510133},{"id":511707,"name":"koutou","country":"cn","lat":38.601111,"lon":114.388333},{"id":478151,"name":"guzhuang","country":"cn","lat":39.337882,"lon":113.824299},{"id":541899,"name":"moyugou","country":"cn","lat":39.299506,"lon":113.849344},{"id":615351,"name":"xiadazhicun","country":"cn","lat":39.475009,"lon":113.889274},{"id":427789,"name":"beihe","country":"cn","lat":38.6325,"lon":114.495833},{"id":572062,"name":"shangpeilo","country":"cn","lat":39.494444,"lon":114.413611},{"id":471019,"name":"gaojiazhuang","country":"cn","lat":39.4125,"lon":114.254167},{"id":432476,"name":"chafangtzu","country":"cn","lat":39.165874,"lon":113.624324},{"id":446867,"name":"daandi","country":"cn","lat":38.763889,"lon":114.0925},{"id":461719,"name":"duanzhuang","country":"cn","lat":39.041944,"lon":114.278889},{"id":479693,"name":"hanshui","country":"cn","lat":39.37058,"lon":113.933273},{"id":480785,"name":"hehekou","country":"cn","lat":38.614444,"lon":113.783611},{"id":459992,"name":"dongshan xiang","country":"cn","lat":39.217679,"lon":113.590092},{"id":488439,"name":"hsiaopaiyu","country":"cn","lat":39.239894,"lon":113.716554},{"id":648127,"name":"zhaitou","country":"cn","lat":38.563611,"lon":114.028056},{"id":607755,"name":"wangpincun","country":"cn","lat":39.413056,"lon":113.939722},{"id":516659,"name":"laoyanggou","country":"cn","lat":39.166029,"lon":113.682299},{"id":442498,"name":"chingyangkou","country":"cn","lat":39.100153,"lon":113.864678},{"id":577083,"name":"shentangbu","country":"cn","lat":39.117796,"lon":113.923314},{"id":450442,"name":"daluoding","country":"cn","lat":39.009324,"lon":113.598994},{"id":427424,"name":"beichengzhai","country":"cn","lat":38.525556,"lon":114.3625},{"id":492457,"name":"huangcao","country":"cn","lat":39.16387,"lon":113.582303},{"id":615856,"name":"xiahongyucun","country":"cn","lat":39.455516,"lon":114.026716},{"id":582223,"name":"shiziping","country":"cn","lat":39.111498,"lon":113.633588},{"id":423998,"name":"baitouan","country":"cn","lat":38.936111,"lon":113.586111},{"id":460938,"name":"dongyudi","country":"cn","lat":39.266357,"lon":113.905559},{"id":532592,"name":"luotuoyan","country":"cn","lat":39.174488,"lon":113.673805},{"id":608768,"name":"wanminzhuang","country":"cn","lat":39.356773,"lon":113.73984},{"id":603067,"name":"tungchatou","country":"cn","lat":38.55,"lon":114.25},{"id":575749,"name":"shayu","country":"cn","lat":38.9925,"lon":114.045278},{"id":591874,"name":"taiyu","country":"cn","lat":38.945556,"lon":114.471944},{"id":528219,"name":"longmenzhuang","country":"cn","lat":38.845278,"lon":114.109167},{"id":504210,"name":"jinfengdian","country":"cn","lat":39.489444,"lon":113.853611},{"id":495039,"name":"huangtuzui","country":"cn","lat":39.437508,"lon":113.534386},{"id":456511,"name":"dibugou","country":"cn","lat":39.42588,"lon":113.560753},{"id":487693,"name":"hsiakuanchen","country":"cn","lat":39.12,"lon":114.160278},{"id":593746,"name":"tangtou","country":"cn","lat":39.402452,"lon":113.934154},{"id":516093,"name":"laolukou","country":"cn","lat":39.065278,"lon":114.343611},{"id":500080,"name":"jiajiajing","country":"cn","lat":39.267697,"lon":113.653845},{"id":518669,"name":"lianglingkou","country":"cn","lat":38.665278,"lon":114.357778},{"id":554260,"name":"pingdao","country":"cn","lat":39.450225,"lon":113.609118},{"id":497930,"name":"hungshihleng","country":"cn","lat":39.305556,"lon":114.348889},{"id":630169,"name":"xiyankou","country":"cn","lat":39.302327,"lon":113.581091},{"id":539593,"name":"menxianshi","country":"cn","lat":38.775556,"lon":113.685278},{"id":603987,"name":"tungwangliukou","country":"cn","lat":38.821389,"lon":114.3475},{"id":632841,"name":"yangbaiyu","country":"cn","lat":38.990846,"lon":113.574326},{"id":522096,"name":"lingchiu","country":"cn","lat":39.467988,"lon":114.148425},{"id":473946,"name":"goumendi","country":"cn","lat":39.111667,"lon":114.265833},{"id":555085,"name":"pingyang","country":"cn","lat":38.814722,"lon":114.481389},{"id":423283,"name":"baimutai","country":"cn","lat":38.937222,"lon":114.068333},{"id":623306,"name":"xichatou","country":"cn","lat":38.558056,"lon":114.226667},{"id":430127,"name":"bozhiyan","country":"cn","lat":39.050556,"lon":113.627222},{"id":572289,"name":"shangrongyigou","country":"cn","lat":39.455596,"lon":113.862558},{"id":640725,"name":"yinhecun","country":"cn","lat":39.010508,"lon":113.890338},{"id":567444,"name":"sanquansi","country":"cn","lat":39.017041,"lon":113.580372},{"id":488680,"name":"hsiapeichuan","country":"cn","lat":39.316667,"lon":114.383333},{"id":531005,"name":"lungchuankuan","country":"cn","lat":38.915556,"lon":113.839444},{"id":569216,"name":"shajiancun","country":"cn","lat":39.400556,"lon":114.259444},{"id":446168,"name":"cigouying","country":"cn","lat":39.101806,"lon":113.922107},{"id":615921,"name":"xiahui","country":"cn","lat":39.283489,"lon":113.602129},{"id":437914,"name":"chengkou","country":"cn","lat":39.142764,"lon":113.535926},{"id":594113,"name":"tanhuipu","country":"cn","lat":39.033333,"lon":114.411389},{"id":644554,"name":"yueyanzhuang","country":"cn","lat":39.377623,"lon":113.730579},{"id":557137,"name":"qiandadi","country":"cn","lat":38.583333,"lon":113.766667},{"id":546476,"name":"nanyukou","country":"cn","lat":39.212569,"lon":113.584591},{"id":459220,"name":"donglenggou","country":"cn","lat":39.147188,"lon":113.501383},{"id":517923,"name":"letaoshan","country":"cn","lat":39.486667,"lon":114.287222}]});