callback({"markets":[{"id":1148617,"name":"berelah","country":"id","lat":-0.366667,"lon":104.316667},{"id":1171442,"name":"djago","country":"id","lat":-0.35,"lon":104.466667},{"id":1174296,"name":"durai","country":"id","lat":0.492222,"lon":103.602778},{"id":1210955,"name":"kualatjukas","country":"id","lat":-0.433333,"lon":104.3},{"id":1291545,"name":"teloeknjirih","country":"id","lat":0.233333,"lon":103.566667},{"id":1257684,"name":"posik","country":"id","lat":-0.366667,"lon":104.216667},{"id":1291760,"name":"telukkaju-hilir","country":"id","lat":0.283333,"lon":103.566667},{"id":1291366,"name":"telaga","country":"id","lat":0.016667,"lon":103.666667},{"id":1270018,"name":"sebetik","country":"id","lat":-0.3,"lon":104.4},{"id":1227506,"name":"medang","country":"id","lat":0.366667,"lon":104.416667},{"id":1252862,"name":"perigiradja","country":"id","lat":-0.266667,"lon":103.5},{"id":1271247,"name":"selayar","country":"id","lat":-0.3,"lon":104.433333},{"id":1252382,"name":"penuba","country":"id","lat":-0.333333,"lon":104.466667},{"id":1207725,"name":"koealamandah","country":"id","lat":-0.05,"lon":103.583333},{"id":1283468,"name":"sungaibela","country":"id","lat":-0.366667,"lon":103.566667},{"id":1283397,"name":"sungaiakar","country":"id","lat":-0.4,"lon":104.333333},{"id":1290138,"name":"teban","country":"id","lat":0.316667,"lon":104.416667},{"id":1297661,"name":"tjoekas","country":"id","lat":-0.416667,"lon":104.3},{"id":1147709,"name":"benan","country":"id","lat":0.466667,"lon":104.45},{"id":1157485,"name":"burung","country":"id","lat":0.4,"lon":103.55},{"id":1230551,"name":"mojopait","country":"id","lat":0.25,"lon":103.566667},{"id":1283531,"name":"sungaiguntung","country":"id","lat":0.3,"lon":103.616667},{"id":1228524,"name":"mentoda","country":"id","lat":-0.183333,"lon":104.466667},{"id":1294708,"name":"tjempah","country":"id","lat":0.116667,"lon":104.316667},{"id":1262615,"name":"rantaupanjang","country":"id","lat":0.233333,"lon":103.55},{"id":1265257,"name":"rotansemoeloer","country":"id","lat":0.2,"lon":103.516667},{"id":1288828,"name":"tanjungpalama","country":"id","lat":-0.283333,"lon":104.483333},{"id":1210855,"name":"kualagaung","country":"id","lat":-0.15,"lon":103.5},{"id":1268011,"name":"sandam","country":"id","lat":0.495556,"lon":103.627222},{"id":1261280,"name":"raja","country":"id","lat":0.3,"lon":103.583333}]});