callback({"markets":[{"id":2490566,"name":"plyusnino","country":"ru","lat":51.75,"lon":119.0},{"id":2363542,"name":"argun","country":"ru","lat":52.3821,"lon":118.5604},{"id":2368994,"name":"bazanikha","country":"ru","lat":52.233333,"lon":119.1},{"id":2546314,"name":"ust-nachin","country":"ru","lat":52.366667,"lon":119.233333},{"id":2437855,"name":"kultuma","country":"ru","lat":52.166667,"lon":119.083333},{"id":2545109,"name":"uryumkanskaya","country":"ru","lat":51.591,"lon":118.6735},{"id":2454163,"name":"mangiday","country":"ru","lat":52.3753,"lon":118.5125},{"id":2365330,"name":"ayan","country":"ru","lat":52.25,"lon":119.283333},{"id":2436378,"name":"kryukovo","country":"ru","lat":51.833333,"lon":119.1},{"id":2447133,"name":"lugiya","country":"ru","lat":51.633333,"lon":118.783333},{"id":2518922,"name":"sivochikan","country":"ru","lat":52.133333,"lon":119.016667},{"id":2562794,"name":"yelginskiy","country":"ru","lat":51.8778,"lon":118.58},{"id":2440520,"name":"kuzmino","country":"ru","lat":52.426,"lon":118.5779},{"id":2562972,"name":"yelizavetovka","country":"ru","lat":51.583333,"lon":118.816667},{"id":2545110,"name":"uryumkan","country":"ru","lat":51.633333,"lon":118.733333},{"id":2383020,"name":"bychiy lug","country":"ru","lat":52.2,"lon":119.116667},{"id":2560234,"name":"yakovlevsk","country":"ru","lat":51.516667,"lon":118.7},{"id":2382180,"name":"burkan","country":"ru","lat":51.8366,"lon":118.5256},{"id":2439039,"name":"kurleya","country":"ru","lat":52.183333,"lon":119.183333},{"id":2401331,"name":"gondobay","country":"ru","lat":51.55,"lon":119.266667},{"id":2464344,"name":"nachin","country":"ru","lat":52.416667,"lon":119.066667},{"id":2570041,"name":"zeren","country":"ru","lat":52.033333,"lon":119.45},{"id":2488628,"name":"petrovskiy","country":"ru","lat":52.283333,"lon":119.15},{"id":2383336,"name":"bystro","country":"ru","lat":51.5,"lon":118.633333},{"id":2453046,"name":"malyye boty","country":"ru","lat":52.3958,"lon":118.5808},{"id":2397995,"name":"gagarek","country":"ru","lat":51.616667,"lon":119.4},{"id":2359609,"name":"aktaguchi","country":"ru","lat":51.933333,"lon":118.633333},{"id":2447285,"name":"lugovskoi","country":"ru","lat":52.0554,"lon":118.82},{"id":2376220,"name":"bolshiye boty","country":"ru","lat":52.3968,"lon":118.5636},{"id":2444550,"name":"lezhankinskiy","country":"ru","lat":51.583333,"lon":119.2},{"id":2566984,"name":"zakamenskiy","country":"ru","lat":52.0793,"lon":118.9191},{"id":2368378,"name":"batanskiy","country":"ru","lat":52.0714,"lon":118.8521},{"id":2521816,"name":"solonechnyy rudnik","country":"ru","lat":51.5243,"lon":118.9002},{"id":2373938,"name":"bogdat","country":"ru","lat":52.0,"lon":119.416667},{"id":2494923,"name":"poselok klyuchi","country":"ru","lat":51.6934,"lon":119.4647}]});