callback({"markets":[{"id":2653657,"name":"cabdi cali","country":"so","lat":0.7333333,"lon":42.65},{"id":2655329,"name":"geedgoy","country":"so","lat":0.5063889,"lon":42.7391667},{"id":2656993,"name":"merefle gumerr","country":"so","lat":1.4166667,"lon":43.2},{"id":2656725,"name":"mabaarag","country":"so","lat":0.8327778,"lon":42.605},{"id":2655759,"name":"hagi tomal","country":"so","lat":0.65,"lon":42.7},{"id":2658055,"name":"uel scimber","country":"so","lat":0.6166667,"lon":43.05},{"id":2657757,"name":"shoongole","country":"so","lat":0.8011111,"lon":42.6727778},{"id":2653451,"name":"bunle","country":"so","lat":1.1591667,"lon":42.5525},{"id":2653157,"name":"biliq diinle","country":"so","lat":0.5666667,"lon":42.9833333},{"id":2656469,"name":"kut barrey","country":"so","lat":0.7294444,"lon":42.9338889},{"id":2657875,"name":"tansaani","country":"so","lat":0.7608333,"lon":42.6527778},{"id":2653821,"name":"caschei","country":"so","lat":0.9219444,"lon":42.5988889},{"id":2655370,"name":"ghedgoi","country":"so","lat":0.5166667,"lon":42.7333333},{"id":2653966,"name":"cismaan yarow","country":"so","lat":1.2188889,"lon":42.5513889},{"id":2656853,"name":"mansuura yar","country":"so","lat":0.5616667,"lon":42.7169444},{"id":2657618,"name":"scianlei","country":"so","lat":0.7833333,"lon":43.2833333},{"id":2652556,"name":"arbey cabdi","country":"so","lat":0.5102778,"lon":42.9755556},{"id":2656837,"name":"manaane","country":"so","lat":0.8447222,"lon":42.6455556},{"id":2657671,"name":"seylac","country":"so","lat":0.55,"lon":42.75},{"id":2654965,"name":"farham","country":"so","lat":0.5977778,"lon":42.6966667},{"id":2658332,"name":"xawaal gedow","country":"so","lat":0.595,"lon":42.9055556},{"id":2653298,"name":"boxo","country":"so","lat":0.9666667,"lon":42.6166667},{"id":2657876,"name":"tarba","country":"so","lat":0.8113889,"lon":42.6588889},{"id":2653482,"name":"burfuul","country":"so","lat":0.6,"lon":42.7166667},{"id":2656233,"name":"jiirfa","country":"so","lat":0.6833333,"lon":43.15},{"id":2655352,"name":"gerarey","country":"so","lat":1.1166667,"lon":42.5830556},{"id":2656733,"name":"macalim iman","country":"so","lat":0.7672222,"lon":42.6538889},{"id":2654140,"name":"dahar","country":"so","lat":0.9491667,"lon":42.6216667},{"id":2654799,"name":"el gode","country":"so","lat":0.5166667,"lon":42.9},{"id":2654359,"name":"dheg cadey","country":"so","lat":0.6158333,"lon":42.935},{"id":2652972,"name":"barire","country":"so","lat":0.55,"lon":42.6833333},{"id":2656520,"name":"labadaad","country":"so","lat":0.5,"lon":42.7666667},{"id":2655875,"name":"heer bucool","country":"so","lat":0.7686111,"lon":42.9572222},{"id":2655415,"name":"gigia","country":"so","lat":0.7,"lon":42.6666667},{"id":2656786,"name":"magnagao","country":"so","lat":0.5094444,"lon":42.7680556},{"id":2657267,"name":"osbolei","country":"so","lat":0.5383333,"lon":42.7519444},{"id":2656447,"name":"kumbareere","country":"so","lat":0.5811111,"lon":42.7155556},{"id":2657698,"name":"shangaani","country":"so","lat":0.8383333,"lon":42.6088889},{"id":2653306,"name":"bu\u0027aale","country":"so","lat":1.0833333,"lon":42.5833333},{"id":2654556,"name":"dudun guduud","country":"so","lat":0.6544444,"lon":42.9472222},{"id":2656797,"name":"maionda","country":"so","lat":0.7383333,"lon":42.6925},{"id":2652844,"name":"balley","country":"so","lat":0.6119444,"lon":42.7525},{"id":2654585,"name":"duqiyo ereey","country":"so","lat":1.1683333,"lon":42.6},{"id":2658225,"name":"washaan","country":"so","lat":0.9116667,"lon":42.6066667},{"id":2652902,"name":"bandar jidiid","country":"so","lat":1.1158333,"lon":42.5838889},{"id":2657362,"name":"qoryooley","country":"so","lat":0.9458333,"lon":42.595},{"id":2652565,"name":"arenaga","country":"so","lat":0.5333333,"lon":42.9166667},{"id":2653640,"name":"caanoole","country":"so","lat":1.0863889,"lon":42.5816667},{"id":2657044,"name":"mobileyn","country":"so","lat":0.5091667,"lon":42.7411111},{"id":2656672,"name":"limoole","country":"so","lat":0.5255556,"lon":42.7602778},{"id":2656925,"name":"mashemba","country":"so","lat":0.5644444,"lon":42.7375},{"id":2656852,"name":"mansuura","country":"so","lat":0.5611111,"lon":42.7119444},{"id":2657894,"name":"teitei","country":"so","lat":1.2783333,"lon":42.5152778},{"id":2654152,"name":"dalaama","country":"so","lat":0.5833333,"lon":42.7166667},{"id":2654167,"name":"dambaley","country":"so","lat":0.6702778,"lon":42.7113889},{"id":2658387,"name":"yaaqle","country":"so","lat":0.5669444,"lon":42.7216667},{"id":2656234,"name":"jilaalow","country":"so","lat":0.8313889,"lon":42.5977778},{"id":2653483,"name":"burfuule","country":"so","lat":1.1383333,"lon":42.5730556},{"id":2654942,"name":"fanoole","country":"so","lat":0.7508333,"lon":42.6527778},{"id":2652391,"name":"addomo","country":"so","lat":0.6666667,"lon":42.7166667},{"id":2652555,"name":"arbadinle","country":"so","lat":0.7833333,"lon":43.3},{"id":2657131,"name":"munfuudhi","country":"so","lat":0.8127778,"lon":42.6183333},{"id":2657756,"name":"shongool shawawila","country":"so","lat":0.6333333,"lon":42.7},{"id":2653224,"name":"bodboode","country":"so","lat":0.6591667,"lon":42.7083333},{"id":2656941,"name":"mawunde","country":"so","lat":0.7,"lon":42.7},{"id":2657808,"name":"so-gid","country":"so","lat":1.1972222,"lon":42.5475},{"id":2653110,"name":"berdaale","country":"so","lat":0.8797222,"lon":42.5919444},{"id":2657980,"name":"uagadi","country":"so","lat":0.6872222,"lon":42.7083333},{"id":2654588,"name":"duqiyo weyn","country":"so","lat":1.1480556,"lon":42.6169444},{"id":2657157,"name":"muuna","country":"so","lat":0.5091667,"lon":42.7605556},{"id":2653267,"name":"boox","country":"so","lat":0.9863889,"lon":42.61},{"id":2658327,"name":"xasow","country":"so","lat":0.8166667,"lon":42.6072222},{"id":2653978,"name":"comia","country":"so","lat":1.1,"lon":43.4833333},{"id":2653698,"name":"cadduudo","country":"so","lat":1.1666667,"lon":43.1333333},{"id":2656754,"name":"madhooka","country":"so","lat":0.5497222,"lon":42.7669444},{"id":2652598,"name":"arundolei","country":"so","lat":0.6333333,"lon":42.7497222},{"id":2654674,"name":"elahano","country":"so","lat":0.7333333,"lon":43.0666667},{"id":2654353,"name":"dhedhey","country":"so","lat":0.5666667,"lon":42.7},{"id":2654682,"name":"ela mahallim","country":"so","lat":1.0,"lon":43.2333333},{"id":2656394,"name":"kolonyaale","country":"so","lat":0.6333333,"lon":42.9333333},{"id":2657047,"name":"moccoscidedei","country":"so","lat":0.9166667,"lon":43.2833333},{"id":2652940,"name":"baraka","country":"so","lat":0.64,"lon":42.7391667},{"id":2656757,"name":"madiina","country":"so","lat":0.8205556,"lon":42.6005556},{"id":2652803,"name":"baladul kariim","country":"so","lat":0.5472222,"lon":42.7405556},{"id":2652921,"name":"banta","country":"so","lat":1.1841667,"lon":42.5425},{"id":2658328,"name":"xatal baraka","country":"so","lat":0.5,"lon":42.7611111},{"id":2658316,"name":"xaramka","country":"so","lat":0.6166667,"lon":42.75},{"id":2657550,"name":"sala","country":"so","lat":0.8666667,"lon":42.9},{"id":2656054,"name":"iidow","country":"so","lat":0.8333333,"lon":42.6},{"id":2657379,"name":"qunyo barrow","country":"so","lat":0.7833333,"lon":43.4166667},{"id":2654055,"name":"daad jerow","country":"so","lat":0.8333333,"lon":43.1833333},{"id":2658317,"name":"xaramka","country":"so","lat":0.6333333,"lon":43.1833333},{"id":2658086,"name":"uruai","country":"so","lat":0.8666667,"lon":42.5666667},{"id":2658423,"name":"yoontoy","country":"so","lat":0.6263889,"lon":42.7375},{"id":2653717,"name":"caitoi anjuma","country":"so","lat":0.8,"lon":42.6},{"id":2652400,"name":"adelta","country":"so","lat":1.15,"lon":43.4666667},{"id":2652639,"name":"avai onole","country":"so","lat":0.9333333,"lon":43.2833333},{"id":2657304,"name":"qalooliyow","country":"so","lat":0.6294444,"lon":42.6961111},{"id":2654364,"name":"dheydhey","country":"so","lat":0.7147222,"lon":42.6902778},{"id":2655328,"name":"geed ful","country":"so","lat":0.8063889,"lon":42.6186111},{"id":2656805,"name":"makanyaaga","country":"so","lat":0.5,"lon":42.7166667},{"id":2652943,"name":"barako","country":"so","lat":0.75,"lon":42.6},{"id":2652464,"name":"aifelle","country":"so","lat":0.9,"lon":43.2833333},{"id":2652775,"name":"bafley","country":"so","lat":0.7,"lon":43.1},{"id":2653158,"name":"biliq maro","country":"so","lat":0.5386111,"lon":42.9597222},{"id":2653139,"name":"bidde","country":"so","lat":0.9827778,"lon":42.6291667},{"id":2657186,"name":"nassib mohallim","country":"so","lat":0.5,"lon":42.75},{"id":2657067,"name":"moloolow","country":"so","lat":0.8883333,"lon":42.5933333},{"id":2654446,"name":"dilduch","country":"so","lat":0.5,"lon":42.6833333},{"id":2653160,"name":"biliq tale","country":"so","lat":0.6333333,"lon":43.0666667},{"id":2656741,"name":"mada addomat","country":"so","lat":0.8,"lon":43.2166667},{"id":2657187,"name":"nassib","country":"so","lat":0.7211111,"lon":42.6925},{"id":2654944,"name":"fanoole no. 2","country":"so","lat":0.5061111,"lon":42.765},{"id":2653177,"name":"biloo","country":"so","lat":0.7166667,"lon":42.7166667},{"id":2655088,"name":"galaame","country":"so","lat":0.5827778,"lon":42.6913889},{"id":2654378,"name":"dhisma","country":"so","lat":0.8725,"lon":42.9958333},{"id":2657036,"name":"misra","country":"so","lat":0.5041667,"lon":42.7616667},{"id":2654379,"name":"dhokaal","country":"so","lat":1.0083333,"lon":42.6005556},{"id":2656735,"name":"macalim weyn","country":"so","lat":0.8861111,"lon":42.6013889},{"id":2656940,"name":"mawgley","country":"so","lat":1.2730556,"lon":42.5280556},{"id":2658087,"name":"urufle","country":"so","lat":0.8569444,"lon":42.5983333},{"id":2657582,"name":"sarei","country":"so","lat":1.0166667,"lon":43.35},{"id":2655786,"name":"hangoodle","country":"so","lat":1.0966667,"lon":42.5930556},{"id":2657817,"name":"soojiida","country":"so","lat":1.1947222,"lon":42.5555556},{"id":2655916,"name":"hiila shiid","country":"so","lat":0.6433333,"lon":42.7458333},{"id":2653161,"name":"bilisa","country":"so","lat":0.5269444,"lon":42.6808333},{"id":2653172,"name":"billei ueno","country":"so","lat":0.9258333,"lon":42.5844444},{"id":2658391,"name":"yaaqtoole","country":"so","lat":0.8166667,"lon":43.2833333},{"id":2652928,"name":"baqdaad","country":"so","lat":0.8,"lon":42.6333333},{"id":2654567,"name":"duguia gussa","country":"so","lat":1.1641667,"lon":42.5627778},{"id":2657270,"name":"osman molo","country":"so","lat":0.6955556,"lon":42.6969444},{"id":2652488,"name":"ali assan","country":"so","lat":1.0666667,"lon":43.4166667},{"id":2654943,"name":"fanoole no. 1","country":"so","lat":0.7488889,"lon":42.6688889},{"id":2655696,"name":"guudaanto","country":"so","lat":0.8166667,"lon":43.3166667},{"id":2657861,"name":"tafanyo","country":"so","lat":0.7216667,"lon":42.6886111},{"id":2656435,"name":"kud","country":"so","lat":1.0,"lon":43.0833333},{"id":2655672,"name":"gunafo","country":"so","lat":1.2988889,"lon":42.5013889},{"id":2654275,"name":"deg hiray","country":"so","lat":0.85,"lon":43.45},{"id":2655252,"name":"gardale","country":"so","lat":1.1130556,"lon":42.5947222},{"id":2653708,"name":"caggiaua","country":"so","lat":0.5422222,"lon":42.7605556},{"id":2656297,"name":"kafiinge","country":"so","lat":1.0113889,"lon":42.5883333},{"id":2657176,"name":"nasiib","country":"so","lat":0.6019444,"lon":42.7433333},{"id":2655814,"name":"harau","country":"so","lat":0.6116667,"lon":42.7058333},{"id":2652523,"name":"angole uen","country":"so","lat":1.0833333,"lon":42.5811111},{"id":2654568,"name":"duguia iantar","country":"so","lat":1.1333333,"lon":42.5833333},{"id":2657464,"name":"revai","country":"so","lat":1.2644444,"lon":42.5547222},{"id":2655333,"name":"geele","country":"so","lat":1.2372222,"lon":42.5605556},{"id":2657314,"name":"qarareey","country":"so","lat":1.1211111,"lon":42.6052778},{"id":2657454,"name":"reidab dere","country":"so","lat":0.7166667,"lon":42.9166667},{"id":2656881,"name":"mareer","country":"so","lat":0.6066667,"lon":42.7419444},{"id":2657410,"name":"radiile","country":"so","lat":1.2844444,"lon":42.5805556},{"id":2654939,"name":"fakiya","country":"so","lat":0.7166667,"lon":42.65},{"id":2656924,"name":"mashane","country":"so","lat":0.8261111,"lon":42.66},{"id":2654562,"name":"dugiuma","country":"so","lat":1.2533333,"lon":42.5708333},{"id":2653654,"name":"cabdalle kakane","country":"so","lat":0.5166667,"lon":42.75},{"id":2654587,"name":"duqiyo madow","country":"so","lat":1.1813889,"lon":42.5608333},{"id":2656809,"name":"makungo","country":"so","lat":0.8166667,"lon":42.5833333},{"id":2657630,"name":"scidle","country":"so","lat":0.8,"lon":43.1833333},{"id":2656358,"name":"kaytooy","country":"so","lat":0.7925,"lon":42.6666667},{"id":2656825,"name":"malenda","country":"so","lat":0.7408333,"lon":42.6636111},{"id":2656943,"name":"maxad","country":"so","lat":0.5166667,"lon":42.7666667},{"id":2654993,"name":"ferlito","country":"so","lat":0.8872222,"lon":42.6183333},{"id":2657438,"name":"raxoole","country":"so","lat":0.8527778,"lon":42.5963889}]});