callback({"markets":[{"id":867103,"name":"ermita de montemayor","country":"es","lat":37.267062,"lon":-6.813271},{"id":869195,"name":"hacienda de la luz","country":"es","lat":37.294444,"lon":-6.766737},{"id":865087,"name":"cortijo de la canada","country":"es","lat":37.183594,"lon":-6.554186},{"id":862976,"name":"caserio santa clara","country":"es","lat":37.307377,"lon":-7.433547},{"id":866025,"name":"el acebuche","country":"es","lat":37.047357,"lon":-6.565353},{"id":2300827,"name":"fonte do penedo","country":"pt","lat":37.331383,"lon":-7.471143},{"id":860105,"name":"candon","country":"es","lat":37.326151,"lon":-6.763458},{"id":871707,"name":"las mallas","country":"es","lat":37.35,"lon":-6.716667},{"id":2308724,"name":"torneiro","country":"pt","lat":37.434675,"lon":-7.496877},{"id":872969,"name":"los mimbrales","country":"es","lat":37.102253,"lon":-6.51187},{"id":874483,"name":"moguer","country":"es","lat":37.275593,"lon":-6.838507},{"id":873223,"name":"lucena del puerto","country":"es","lat":37.303964,"lon":-6.729259},{"id":867402,"name":"estacion de san bartolome de la torre","country":"es","lat":37.45034,"lon":-7.074484},{"id":862853,"name":"caserio rabo-conejo","country":"es","lat":37.484623,"lon":-6.707634},{"id":883360,"name":"trigueros","country":"es","lat":37.386059,"lon":-6.826803},{"id":861477,"name":"caserio canela","country":"es","lat":37.199479,"lon":-7.404416},{"id":882959,"name":"torre de la higuera","country":"es","lat":37.00678,"lon":-6.568196},{"id":869845,"name":"isla-cristina","country":"es","lat":37.199508,"lon":-7.317076},{"id":860530,"name":"cartaya","country":"es","lat":37.281136,"lon":-7.150706},{"id":862389,"name":"caserio lavapies","country":"es","lat":37.40889,"lon":-6.681545},{"id":870985,"name":"la mogaya","country":"es","lat":37.316667,"lon":-7.083333},{"id":879216,"name":"rociana","country":"es","lat":37.30899,"lon":-6.595644},{"id":855957,"name":"aljaraque","country":"es","lat":37.269895,"lon":-7.023125},{"id":858031,"name":"barrio punta del caiman","country":"es","lat":37.195445,"lon":-7.326081},{"id":867509,"name":"fabrica de gas del puerto","country":"es","lat":37.233333,"lon":-6.95},{"id":860378,"name":"cardenas","country":"es","lat":37.29034,"lon":-6.943821},{"id":861694,"name":"caserio dehesa de las yeguas","country":"es","lat":37.363602,"lon":-7.248719},{"id":877763,"name":"pozo del camino","country":"es","lat":37.225743,"lon":-7.314824},{"id":866322,"name":"el corchuelo","country":"es","lat":37.208333,"lon":-6.708611},{"id":861619,"name":"caserio corral de la bodega","country":"es","lat":37.357975,"lon":-6.659817},{"id":871758,"name":"la soledad","country":"es","lat":37.286601,"lon":-6.934238},{"id":858891,"name":"bonares","country":"es","lat":37.324231,"lon":-6.680733},{"id":862282,"name":"caserio las antillas","country":"es","lat":37.206806,"lon":-7.211269},{"id":858028,"name":"barrio puente carrera","country":"es","lat":37.207468,"lon":-7.323283},{"id":862466,"name":"caserio los canos","country":"es","lat":37.480557,"lon":-6.669109},{"id":2301695,"name":"hortas","country":"pt","lat":37.1931,"lon":-7.43791},{"id":872741,"name":"los bodegones","country":"es","lat":37.178507,"lon":-6.672009},{"id":864688,"name":"corrales","country":"es","lat":37.273031,"lon":-6.988582},{"id":875581,"name":"niebla","country":"es","lat":37.36213,"lon":-6.678938},{"id":2310078,"name":"vila real de san antonio","country":"pt","lat":37.194999,"lon":-7.417658},{"id":861145,"name":"casas madre del agua","country":"es","lat":37.431447,"lon":-7.172},{"id":869555,"name":"huelva","country":"es","lat":37.271447,"lon":-6.949464},{"id":862005,"name":"caserio fuente de la corcha","country":"es","lat":37.485836,"lon":-6.859781},{"id":882448,"name":"tariquejo","country":"es","lat":37.315816,"lon":-7.170099},{"id":2303965,"name":"narangera","country":"pt","lat":37.405769,"lon":-7.458191},{"id":862666,"name":"caserio marzagon","country":"es","lat":37.114167,"lon":-6.764444},{"id":879668,"name":"salucar de guadiana","country":"es","lat":37.472678,"lon":-7.46546},{"id":864985,"name":"cortijada peguerillas","country":"es","lat":37.33625,"lon":-6.94845},{"id":862135,"name":"caserio la barca","country":"es","lat":37.28842,"lon":-7.180514},{"id":866498,"name":"el judio","country":"es","lat":37.366768,"lon":-6.897706},{"id":883711,"name":"valbueno","country":"es","lat":37.255919,"lon":-6.936717},{"id":876508,"name":"palos de la frontera","country":"es","lat":37.234573,"lon":-6.894713},{"id":881352,"name":"san vicente","country":"es","lat":37.078347,"lon":-6.554222},{"id":862808,"name":"caserio playa del hoyo","country":"es","lat":37.202583,"lon":-7.285803},{"id":861855,"name":"caserio el guijillo","country":"es","lat":37.416667,"lon":-6.716667},{"id":864118,"name":"chozas de la poleosa","country":"es","lat":37.054444,"lon":-6.615278},{"id":2307380,"name":"sao bartolomeu","country":"pt","lat":37.197322,"lon":-7.48861},{"id":862843,"name":"caserio puerto carbon","country":"es","lat":37.420385,"lon":-7.443604},{"id":2302739,"name":"marmeleiro","country":"pt","lat":37.455317,"lon":-7.479921},{"id":861677,"name":"caserio de candon","country":"es","lat":37.390578,"lon":-6.738924},{"id":879808,"name":"san bartolome de la torre","country":"es","lat":37.445153,"lon":-7.105966},{"id":861431,"name":"caserio caballon","country":"es","lat":37.483555,"lon":-6.713562},{"id":856081,"name":"almonte","country":"es","lat":37.261589,"lon":-6.51691},{"id":862260,"name":"caserio la penuela","country":"es","lat":37.416667,"lon":-6.7},{"id":866019,"name":"el abalario","country":"es","lat":37.115313,"lon":-6.67206},{"id":861592,"name":"caserio centenil","country":"es","lat":37.321501,"lon":-7.29518},{"id":2303596,"name":"monte gorde","country":"pt","lat":37.181923,"lon":-7.452252},{"id":2303723,"name":"montinho das laranjeiras","country":"pt","lat":37.408008,"lon":-7.463136},{"id":2297224,"name":"botelhas","country":"pt","lat":37.255112,"lon":-7.490543},{"id":855496,"name":"albergues pasada de los bayos","country":"es","lat":37.316667,"lon":-7.116667},{"id":867941,"name":"fotea","country":"es","lat":37.224171,"lon":-7.359208},{"id":868680,"name":"gibraleon","country":"es","lat":37.37628,"lon":-6.968952},{"id":2301835,"name":"junqueira","country":"pt","lat":37.256982,"lon":-7.470744},{"id":2295476,"name":"alcoutim","country":"pt","lat":37.474317,"lon":-7.472282},{"id":858875,"name":"bollullos par del condado","country":"es","lat":37.341268,"lon":-6.539701},{"id":2308027,"name":"sentinela","country":"pt","lat":37.298445,"lon":-7.499601},{"id":861955,"name":"caserio el villarejo","country":"es","lat":37.175714,"lon":-6.645594},{"id":866826,"name":"el romerano","country":"es","lat":37.413231,"lon":-7.456405},{"id":857235,"name":"ayamonte","country":"es","lat":37.209938,"lon":-7.402661},{"id":885772,"name":"villarrasa","country":"es","lat":37.389564,"lon":-6.60584},{"id":880148,"name":"san juan del puerto","country":"es","lat":37.316667,"lon":-6.841389},{"id":880658,"name":"san silvestre de guzman","country":"es","lat":37.387703,"lon":-7.349078},{"id":876700,"name":"pasada del palo","country":"es","lat":37.366667,"lon":-7.133333},{"id":871320,"name":"la redondela","country":"es","lat":37.222484,"lon":-7.269404},{"id":862175,"name":"caserio la cumbre","country":"es","lat":37.471202,"lon":-6.750204},{"id":878214,"name":"punta umbria","country":"es","lat":37.182131,"lon":-6.96605},{"id":2308619,"name":"tenencia","country":"pt","lat":37.37069,"lon":-7.493102},{"id":2295716,"name":"almada de ouro","country":"pt","lat":37.313334,"lon":-7.449527},{"id":2298749,"name":"castelhanos","country":"pt","lat":37.260593,"lon":-7.47225},{"id":871129,"name":"la palma del condado","country":"es","lat":37.386047,"lon":-6.55231},{"id":872190,"name":"lepe","country":"es","lat":37.254819,"lon":-7.204334},{"id":2304116,"name":"odeleite","country":"pt","lat":37.333719,"lon":-7.487282},{"id":2301632,"name":"guerreiras do rio","country":"pt","lat":37.399297,"lon":-7.447498},{"id":855494,"name":"albergues el rincon","country":"es","lat":37.248911,"lon":-7.054175},{"id":859989,"name":"canada del ruido","country":"es","lat":37.347133,"lon":-7.147793},{"id":884850,"name":"villablanca","country":"es","lat":37.302394,"lon":-7.34413},{"id":2299443,"name":"corte de donas","country":"pt","lat":37.39058,"lon":-7.467215},{"id":2299440,"name":"corte da seda","country":"pt","lat":37.448344,"lon":-7.496812},{"id":2300991,"name":"foz de odeleite","country":"pt","lat":37.357701,"lon":-7.442439},{"id":861039,"name":"casas el campillo","country":"es","lat":37.434931,"lon":-7.0559},{"id":871865,"name":"las tres ventanas","country":"es","lat":37.265716,"lon":-6.933068},{"id":885418,"name":"villanueva de los castillejos","country":"es","lat":37.4994,"lon":-7.29118},{"id":2298654,"name":"casas velhas","country":"pt","lat":37.405687,"lon":-7.462528},{"id":866828,"name":"el rompido","country":"es","lat":37.217732,"lon":-7.122058},{"id":872892,"name":"los huertos del batan","country":"es","lat":37.411254,"lon":-7.221955},{"id":867568,"name":"faro el picacho de la barra","country":"es","lat":37.136667,"lon":-6.823889},{"id":862770,"name":"caserio parpajoso","country":"es","lat":37.433333,"lon":-6.666667},{"id":2303590,"name":"monte francisco","country":"pt","lat":37.237857,"lon":-7.452395},{"id":2295584,"name":"aldeia nova","country":"pt","lat":37.18637,"lon":-7.466534},{"id":863275,"name":"casrio isla del moral","country":"es","lat":37.189719,"lon":-7.342029},{"id":870187,"name":"la alqueria y valcasao","country":"es","lat":37.316667,"lon":-6.9},{"id":867098,"name":"ermita del carmen","country":"es","lat":37.124167,"lon":-6.793056},{"id":2298799,"name":"castro marim","country":"pt","lat":37.220683,"lon":-7.4435},{"id":861911,"name":"caserio el puente","country":"es","lat":37.383333,"lon":-6.966667},{"id":2295383,"name":"alamo","country":"pt","lat":37.389901,"lon":-7.445016},{"id":872749,"name":"los cabezudos","country":"es","lat":37.177364,"lon":-6.623352},{"id":858170,"name":"beas","country":"es","lat":37.425703,"lon":-6.793183},{"id":884076,"name":"valle del alamo","country":"es","lat":37.283333,"lon":-7.183333},{"id":870953,"name":"la mediana","country":"es","lat":37.136733,"lon":-6.616366},{"id":2305106,"name":"picarral","country":"pt","lat":37.298983,"lon":-7.477581},{"id":866033,"name":"el alamillo","country":"es","lat":37.087759,"lon":-6.564213}]});