callback({"markets":[{"id":2073955,"name":"la toma","country":"pe","lat":-4.3,"lon":-80.15},{"id":830012,"name":"turinuma la pampa","country":"ec","lat":-4.0166667,"lon":-80.1333333},{"id":827087,"name":"los amarillos","country":"ec","lat":-3.8166667,"lon":-80.0833333},{"id":826810,"name":"las cochas","country":"ec","lat":-4.0333333,"lon":-79.55},{"id":823711,"name":"doce de diciembre","country":"ec","lat":-4.0666667,"lon":-80.0833333},{"id":827818,"name":"palosolo","country":"ec","lat":-3.7166667,"lon":-79.8333333},{"id":826928,"name":"la vega","country":"ec","lat":-4.0833333,"lon":-79.5166667},{"id":826671,"name":"la manga","country":"ec","lat":-3.6,"lon":-80.2},{"id":2067863,"name":"el aromo","country":"pe","lat":-4.4666667,"lon":-80.1666667},{"id":2061999,"name":"balzas","country":"pe","lat":-3.5833333,"lon":-80.4666667},{"id":829718,"name":"tambillo","country":"ec","lat":-3.5666667,"lon":-79.85},{"id":2067909,"name":"el caucho","country":"pe","lat":-3.8094444,"lon":-80.2691667},{"id":826909,"name":"la tuna","country":"ec","lat":-4.0833333,"lon":-80.1833333},{"id":2081938,"name":"san jacinto","country":"pe","lat":-3.55,"lon":-80.4833333},{"id":828246,"name":"progreso","country":"ec","lat":-4.0333333,"lon":-80.45},{"id":2073898,"name":"las penas","country":"pe","lat":-3.7016667,"lon":-80.3277778},{"id":2073110,"name":"la coja","country":"pe","lat":-3.5966667,"lon":-80.2088889},{"id":2068798,"name":"garbanzal","country":"pe","lat":-3.6116667,"lon":-80.4333333},{"id":824071,"name":"el sauce","country":"ec","lat":-4.0666667,"lon":-79.8666667},{"id":830332,"name":"zamba","country":"ec","lat":-3.9333333,"lon":-79.5166667},{"id":827443,"name":"monos","country":"ec","lat":-3.6166667,"lon":-79.7833333},{"id":826015,"name":"hacienda yambaca","country":"ec","lat":-4.35,"lon":-79.5666667},{"id":830366,"name":"zarzanama","country":"ec","lat":-3.7,"lon":-79.8333333},{"id":822160,"name":"ajilanga","country":"ec","lat":-4.25,"lon":-79.6166667},{"id":2068150,"name":"el piojo","country":"pe","lat":-3.5833333,"lon":-80.4825},{"id":2065538,"name":"chivatos","country":"pe","lat":-4.4666667,"lon":-80.15},{"id":822982,"name":"ceibo mocho","country":"ec","lat":-4.2,"lon":-80.1666667},{"id":826065,"name":"horganos","country":"ec","lat":-4.1166667,"lon":-80.1666667},{"id":828217,"name":"potrero grande","country":"ec","lat":-3.6666667,"lon":-79.7833333},{"id":2082581,"name":"santa maria","country":"pe","lat":-3.6813889,"lon":-80.4361111},{"id":823764,"name":"el apretadero","country":"ec","lat":-4.05,"lon":-79.8666667},{"id":2073300,"name":"laguna larga","country":"pe","lat":-4.4833333,"lon":-80.3166667},{"id":2086807,"name":"zapallal","country":"pe","lat":-3.9666667,"lon":-80.4166667},{"id":829484,"name":"shalapa","country":"ec","lat":-4.2833333,"lon":-79.5166667},{"id":2081118,"name":"rincon del cisne","country":"pe","lat":-3.7147222,"lon":-80.4447222},{"id":822761,"name":"calvario","country":"ec","lat":-3.5,"lon":-79.9166667},{"id":823265,"name":"chonta","country":"ec","lat":-3.5833333,"lon":-79.8833333},{"id":2074012,"name":"la vacas","country":"pe","lat":-3.5166667,"lon":-80.45},{"id":2079390,"name":"prado alto","country":"pe","lat":-3.7427778,"lon":-80.4383333},{"id":2073635,"name":"la pena","country":"pe","lat":-3.6711111,"lon":-80.4497222},{"id":830327,"name":"yuyurco","country":"ec","lat":-3.5333333,"lon":-79.5166667},{"id":2079111,"name":"plateros","country":"pe","lat":-3.6333333,"lon":-80.4666667},{"id":2073043,"name":"la capitana","country":"pe","lat":-3.7827778,"lon":-80.4813889},{"id":2079946,"name":"puesto lechugal","country":"pe","lat":-3.6138889,"lon":-80.1963889},{"id":823861,"name":"el coposo","country":"ec","lat":-4.05,"lon":-79.9166667},{"id":2067938,"name":"el coco","country":"pe","lat":-4.4333333,"lon":-80.2666667},{"id":825907,"name":"hacienda tamarindo","country":"ec","lat":-4.3833333,"lon":-79.9666667},{"id":828504,"name":"quebrada del ciruelo","country":"ec","lat":-4.2666667,"lon":-79.5833333},{"id":2083728,"name":"surpampa","country":"pe","lat":-4.4166667,"lon":-79.9166667},{"id":828214,"name":"potrerillos","country":"ec","lat":-4.2666667,"lon":-80.1666667},{"id":2076585,"name":"negrital","country":"pe","lat":-3.6833333,"lon":-80.4333333},{"id":827156,"name":"macara","country":"ec","lat":-4.3833333,"lon":-79.95},{"id":2068657,"name":"francos","country":"pe","lat":-3.6875,"lon":-80.4544444},{"id":827536,"name":"naipongo","country":"ec","lat":-4.35,"lon":-79.5333333},{"id":829898,"name":"tomagato","country":"ec","lat":-3.5666667,"lon":-79.5666667},{"id":2065440,"name":"chiqueros","country":"pe","lat":-4.3166667,"lon":-80.15},{"id":827134,"name":"lucargni","country":"ec","lat":-4.1166667,"lon":-79.8333333},{"id":2062217,"name":"bocana murcielago","country":"pe","lat":-3.9252778,"lon":-80.1825},{"id":827000,"name":"limones","country":"ec","lat":-4.4166667,"lon":-80.3833333},{"id":2079928,"name":"puesto cabo gutierres","country":"pe","lat":-3.8166667,"lon":-80.1666667},{"id":826115,"name":"huasimo","country":"ec","lat":-3.9166667,"lon":-80.1333333},{"id":822934,"name":"cashatoma","country":"ec","lat":-3.9833333,"lon":-79.5166667},{"id":822641,"name":"buenaventura","country":"ec","lat":-3.6166667,"lon":-79.8},{"id":2068175,"name":"el prado bajo","country":"pe","lat":-3.7633333,"lon":-80.4511111},{"id":2061623,"name":"asentamiento humano las malvinas","country":"pe","lat":-3.5591667,"lon":-80.4436111},{"id":823440,"name":"condolanga","country":"ec","lat":-4.4833333,"lon":-79.7666667},{"id":2062400,"name":"cabeza de vaca","country":"pe","lat":-3.5952778,"lon":-80.4941667},{"id":2079110,"name":"plateros hacienda","country":"pe","lat":-3.6563889,"lon":-80.4483333},{"id":2073570,"name":"la noria","country":"pe","lat":-3.5927778,"lon":-80.4638889},{"id":823915,"name":"el humedo","country":"ec","lat":-4.0333333,"lon":-79.5166667},{"id":822270,"name":"angashco","country":"ec","lat":-4.4666667,"lon":-79.8666667},{"id":822307,"name":"arenillas","country":"ec","lat":-3.55,"lon":-80.0666667},{"id":829761,"name":"tangula","country":"ec","lat":-4.2,"lon":-79.85},{"id":2073047,"name":"la carita","country":"pe","lat":-3.7075,"lon":-80.2336111},{"id":823905,"name":"el guineo","country":"ec","lat":-4.1833333,"lon":-80.0166667},{"id":2062406,"name":"cabo cordova","country":"pe","lat":-4.1833333,"lon":-80.4666667},{"id":829019,"name":"san joaquin","country":"ec","lat":-4.3333333,"lon":-79.5166667},{"id":2069558,"name":"hacienda nueva","country":"pe","lat":-4.35,"lon":-80.45},{"id":826138,"name":"husaime","country":"ec","lat":-4.4166667,"lon":-79.5},{"id":2081503,"name":"salitral chico","country":"pe","lat":-3.5166667,"lon":-80.25},{"id":824081,"name":"el tablon","country":"ec","lat":-3.7166667,"lon":-79.5833333},{"id":824503,"name":"guasimo","country":"ec","lat":-4.3666667,"lon":-79.7833333},{"id":829521,"name":"shucos","country":"ec","lat":-3.6666667,"lon":-79.8},{"id":824520,"name":"guayacan","country":"ec","lat":-4.25,"lon":-80.25},{"id":825444,"name":"hacienda naranjos","country":"ec","lat":-4.05,"lon":-79.75},{"id":827867,"name":"papayai","country":"ec","lat":-4.3333333,"lon":-79.8166667},{"id":822952,"name":"catanas","country":"ec","lat":-4.0666667,"lon":-80.4},{"id":2073961,"name":"la totora","country":"pe","lat":-3.6886111,"lon":-80.2191667},{"id":823016,"name":"cerro milagros","country":"ec","lat":-4.0833333,"lon":-80.15},{"id":822894,"name":"carmelo","country":"ec","lat":-3.9833333,"lon":-79.7166667},{"id":829607,"name":"sotillo","country":"ec","lat":-4.1666667,"lon":-80.2166667},{"id":2074795,"name":"lostamarindos","country":"pe","lat":-3.6319444,"lon":-80.4402778},{"id":823961,"name":"el naranjo","country":"ec","lat":-4.0166667,"lon":-79.6},{"id":827861,"name":"papaca","country":"ec","lat":-4.3166667,"lon":-79.7166667},{"id":828727,"name":"roses","country":"ec","lat":-4.0,"lon":-79.8333333},{"id":823621,"name":"curichanga","country":"ec","lat":-4.3333333,"lon":-79.85},{"id":2086589,"name":"yerbales","country":"pe","lat":-3.8333333,"lon":-80.3166667},{"id":823208,"name":"chinchanga","country":"ec","lat":-4.1833333,"lon":-79.7333333},{"id":2079413,"name":"progreso","country":"pe","lat":-4.0333333,"lon":-80.4833333},{"id":822210,"name":"alubushco","country":"ec","lat":-4.3166667,"lon":-79.8666667},{"id":822629,"name":"briones","country":"ec","lat":-4.4666667,"lon":-80.3666667},{"id":826254,"name":"jaguay grande","country":"ec","lat":-4.2666667,"lon":-80.15},{"id":2079049,"name":"pitayo","country":"pe","lat":-4.3,"lon":-80.4},{"id":822114,"name":"achiral","country":"ec","lat":-4.4,"lon":-79.8},{"id":829335,"name":"santa rosa","country":"ec","lat":-4.2,"lon":-79.8666667},{"id":827837,"name":"panduana","country":"ec","lat":-4.4,"lon":-79.7},{"id":823990,"name":"el pindo","country":"ec","lat":-3.8,"lon":-80.1},{"id":829989,"name":"tumbinuma","country":"ec","lat":-4.35,"lon":-79.8333333},{"id":826614,"name":"la hamaca","country":"ec","lat":-4.05,"lon":-79.85},{"id":2063485,"name":"carretas","country":"pe","lat":-3.7527778,"lon":-80.4577778},{"id":828691,"name":"romeros","country":"ec","lat":-4.3,"lon":-80.3833333},{"id":827061,"name":"loma del tambo","country":"ec","lat":-3.6333333,"lon":-79.7166667},{"id":2081058,"name":"requena","country":"pe","lat":-4.4666667,"lon":-80.4166667},{"id":829346,"name":"santa rufina","country":"ec","lat":-3.8333333,"lon":-79.7333333},{"id":825335,"name":"hacienda limon vega","country":"ec","lat":-4.2,"lon":-79.65},{"id":826121,"name":"huayquichuma","country":"ec","lat":-3.8666667,"lon":-79.6},{"id":827011,"name":"limon playa","country":"ec","lat":-3.5833333,"lon":-79.9333333},{"id":822226,"name":"amancayes","country":"ec","lat":-3.8666667,"lon":-79.8},{"id":827217,"name":"manche","country":"ec","lat":-4.3666667,"lon":-79.75},{"id":828841,"name":"san agustin","country":"ec","lat":-3.5166667,"lon":-80.05},{"id":828497,"name":"puyango","country":"ec","lat":-3.8666667,"lon":-80.0833333},{"id":2067317,"name":"cuchi corral","country":"pe","lat":-4.4666667,"lon":-79.95},{"id":822823,"name":"canguraca","country":"ec","lat":-4.2166667,"lon":-79.8666667},{"id":822380,"name":"ayabamba","country":"ec","lat":-3.6,"lon":-79.6666667},{"id":824666,"name":"hacienda bella maria","country":"ec","lat":-4.1666667,"lon":-79.6666667},{"id":2063536,"name":"casa blanqueada","country":"pe","lat":-3.7375,"lon":-80.455},{"id":822945,"name":"catacocha","country":"ec","lat":-4.0666667,"lon":-79.6333333},{"id":2067182,"name":"cristina","country":"pe","lat":-3.5333333,"lon":-80.4666667},{"id":2068007,"name":"el gran ceibo","country":"pe","lat":-3.6061111,"lon":-80.1916667},{"id":829982,"name":"tulipan","country":"ec","lat":-4.2666667,"lon":-80.3833333},{"id":2086816,"name":"zapayal","country":"pe","lat":-3.9833333,"lon":-80.3833333},{"id":824067,"name":"el salto","country":"ec","lat":-4.25,"lon":-80.3666667},{"id":2067367,"name":"cucuyas","country":"pe","lat":-4.4666667,"lon":-79.8333333},{"id":826125,"name":"huertas","country":"ec","lat":-3.6166667,"lon":-79.65},{"id":2072018,"name":"infiernillo","country":"pe","lat":-4.3833333,"lon":-80.2333333},{"id":824600,"name":"hacienda almendral","country":"ec","lat":-4.0833333,"lon":-79.8},{"id":828072,"name":"pindal","country":"ec","lat":-4.1166667,"lon":-80.1},{"id":822166,"name":"alamor","country":"ec","lat":-4.0333333,"lon":-80.0333333},{"id":824569,"name":"gushaguina","country":"ec","lat":-3.7,"lon":-79.5833333},{"id":827206,"name":"malvas","country":"ec","lat":-4.3166667,"lon":-80.3},{"id":2085781,"name":"valdivia","country":"pe","lat":-4.4833333,"lon":-80.1166667},{"id":822645,"name":"buenavista","country":"ec","lat":-3.8833333,"lon":-79.7},{"id":829423,"name":"sasaco","country":"ec","lat":-4.35,"lon":-79.7666667},{"id":828109,"name":"pishinameca","country":"ec","lat":-4.2833333,"lon":-79.6},{"id":2072972,"name":"la bomba","country":"pe","lat":-3.7833333,"lon":-80.2666667},{"id":2080332,"name":"quebrada seca","country":"pe","lat":-3.6711111,"lon":-80.1961111},{"id":823138,"name":"checo","country":"ec","lat":-4.4833333,"lon":-79.5},{"id":2079121,"name":"playas norte","country":"pe","lat":-4.3333333,"lon":-80.1833333},{"id":822186,"name":"algodonal","country":"ec","lat":-4.1833333,"lon":-80.3166667},{"id":827778,"name":"palmales","country":"ec","lat":-4.0833333,"lon":-80.05},{"id":830166,"name":"vicentino","country":"ec","lat":-3.9666667,"lon":-79.95},{"id":828036,"name":"pilares","country":"ec","lat":-4.3666667,"lon":-80.4333333},{"id":829493,"name":"shatayunta","country":"ec","lat":-3.5,"lon":-79.5833333},{"id":2068026,"name":"el huasimo","country":"pe","lat":-4.3166667,"lon":-80.2},{"id":826456,"name":"la bocana","country":"ec","lat":-3.6833333,"lon":-79.9},{"id":828301,"name":"pueblo viejo","country":"ec","lat":-3.55,"lon":-79.7},{"id":824528,"name":"guayquichuma","country":"ec","lat":-3.8166667,"lon":-79.55},{"id":827316,"name":"mates","country":"ec","lat":-3.6166667,"lon":-80.05},{"id":2079942,"name":"puesto figueroa","country":"pe","lat":-3.8716667,"lon":-80.1577778},{"id":825914,"name":"hacienda taparuca","country":"ec","lat":-4.3666667,"lon":-79.5666667},{"id":827981,"name":"pesantes","country":"ec","lat":-3.5,"lon":-79.9833333},{"id":826785,"name":"la rocana","country":"ec","lat":-3.6833333,"lon":-80.1666667},{"id":829175,"name":"san pedro de cariamanga","country":"ec","lat":-4.3,"lon":-79.6},{"id":826358,"name":"jorupe","country":"ec","lat":-4.3,"lon":-79.6166667},{"id":2064210,"name":"cevero","country":"pe","lat":-3.6458333,"lon":-80.4111111},{"id":825235,"name":"hacienda la huaqui","country":"ec","lat":-4.05,"lon":-79.5},{"id":827649,"name":"numbiaranga","country":"ec","lat":-4.25,"lon":-79.85},{"id":824284,"name":"garzaguachana","country":"ec","lat":-4.3333333,"lon":-80.35},{"id":828619,"name":"remolinos","country":"ec","lat":-4.4333333,"lon":-80.35},{"id":830090,"name":"vado grande","country":"ec","lat":-4.45,"lon":-79.6},{"id":827469,"name":"morales","country":"ec","lat":-3.7166667,"lon":-79.5333333},{"id":2067970,"name":"el cura","country":"pe","lat":-3.6,"lon":-80.4333333},{"id":822951,"name":"catambas","country":"ec","lat":-4.4,"lon":-80.4666667},{"id":825036,"name":"hacienda florida","country":"ec","lat":-4.05,"lon":-79.7},{"id":827015,"name":"linderos","country":"ec","lat":-4.45,"lon":-79.7},{"id":826775,"name":"larama","country":"ec","lat":-4.2666667,"lon":-79.9},{"id":827604,"name":"ningomine","country":"ec","lat":-4.0833333,"lon":-79.6333333},{"id":829736,"name":"tambo negro","country":"ec","lat":-4.4166667,"lon":-79.8833333},{"id":823936,"name":"el loro","country":"ec","lat":-4.3333333,"lon":-80.4333333},{"id":826280,"name":"jatun pamba","country":"ec","lat":-4.2666667,"lon":-79.7},{"id":822568,"name":"biron","country":"ec","lat":-3.5166667,"lon":-79.8166667},{"id":2074222,"name":"limon","country":"pe","lat":-3.7277778,"lon":-80.4405556},{"id":822881,"name":"cariamanga","country":"ec","lat":-4.3333333,"lon":-79.55},{"id":829935,"name":"trapiche quemado","country":"ec","lat":-4.4333333,"lon":-79.6},{"id":826787,"name":"la rota","country":"ec","lat":-4.1333333,"lon":-80.1166667},{"id":2085634,"name":"urcos","country":"pe","lat":-3.6166667,"lon":-80.4833333},{"id":822670,"name":"bustamante","country":"ec","lat":-4.1666667,"lon":-80.0166667},{"id":2078630,"name":"perales","country":"pe","lat":-3.8,"lon":-80.4666667},{"id":2072196,"name":"jabonillos","country":"pe","lat":-4.2666667,"lon":-80.45},{"id":2070041,"name":"higueron","country":"pe","lat":-3.7680556,"lon":-80.4658333},{"id":2079773,"name":"puerto el cura","country":"pe","lat":-3.5955556,"lon":-80.4544444},{"id":823382,"name":"cofradia","country":"ec","lat":-4.05,"lon":-79.6666667},{"id":826706,"name":"lando","country":"ec","lat":-3.95,"lon":-79.6666667},{"id":828064,"name":"pinas grande","country":"ec","lat":-3.6333333,"lon":-79.7333333},{"id":825872,"name":"hacienda sigiro","country":"ec","lat":-4.0333333,"lon":-79.6},{"id":2065438,"name":"chiqueritos","country":"pe","lat":-4.3166667,"lon":-80.4333333},{"id":826608,"name":"laguar","country":"ec","lat":-4.3,"lon":-80.0166667},{"id":2086845,"name":"zorritos","country":"pe","lat":-4.45,"lon":-80.2333333},{"id":827378,"name":"mirador","country":"ec","lat":-3.5333333,"lon":-79.7},{"id":823255,"name":"chocacorta","country":"ec","lat":-3.5333333,"lon":-79.5},{"id":827135,"name":"lucarque","country":"ec","lat":-4.1666667,"lon":-79.85},{"id":827092,"name":"los angosturas","country":"ec","lat":-4.3,"lon":-79.95},{"id":822219,"name":"a. maldonado","country":"ec","lat":-3.7166667,"lon":-79.65},{"id":2082059,"name":"san juan de los virgenes","country":"pe","lat":-3.6275,"lon":-80.4336111},{"id":2061984,"name":"balsadero","country":"pe","lat":-3.9188889,"lon":-80.1630556},{"id":2079957,"name":"puesto valdarrago","country":"pe","lat":-3.5833333,"lon":-80.2166667},{"id":2063550,"name":"casa corral","country":"pe","lat":-4.4666667,"lon":-80.4333333},{"id":824922,"name":"hacienda el cafe","country":"ec","lat":-4.0166667,"lon":-79.6166667},{"id":828050,"name":"pilluguro","country":"ec","lat":-3.5,"lon":-79.6333333},{"id":2063621,"name":"cascajal","country":"pe","lat":-4.4833333,"lon":-80.3333333},{"id":823078,"name":"chanquinima","country":"ec","lat":-4.2,"lon":-79.5},{"id":2075879,"name":"miraflores","country":"pe","lat":-3.6811111,"lon":-80.3263889},{"id":826940,"name":"la victoria","country":"ec","lat":-4.2166667,"lon":-80.2833333},{"id":828522,"name":"quillosara","country":"ec","lat":-4.1666667,"lon":-80.1166667},{"id":2067855,"name":"el anima","country":"pe","lat":-3.5269444,"lon":-80.4966667},{"id":830383,"name":"zhocopa","country":"ec","lat":-4.35,"lon":-79.6333333},{"id":2074805,"name":"loyola","country":"pe","lat":-3.8016667,"lon":-80.4672222},{"id":829410,"name":"saracay","country":"ec","lat":-3.6333333,"lon":-79.9166667},{"id":830308,"name":"yunga","country":"ec","lat":-4.2666667,"lon":-79.55},{"id":826091,"name":"hualo","country":"ec","lat":-4.2,"lon":-79.7166667},{"id":830396,"name":"zozoranga","country":"ec","lat":-4.3333333,"lon":-79.7833333},{"id":827922,"name":"patuco","country":"ec","lat":-4.1666667,"lon":-80.05},{"id":822376,"name":"avanzada","country":"ec","lat":-3.55,"lon":-79.9833333},{"id":829492,"name":"shatapali","country":"ec","lat":-3.5,"lon":-79.55},{"id":825213,"name":"hacienda la cruz","country":"ec","lat":-4.3666667,"lon":-80.0},{"id":2074745,"name":"los limos","country":"pe","lat":-3.5983333,"lon":-80.1958333},{"id":823507,"name":"corregidor","country":"ec","lat":-4.3666667,"lon":-80.3},{"id":824330,"name":"gramadales","country":"ec","lat":-4.2166667,"lon":-80.2333333},{"id":2073943,"name":"la teran","country":"pe","lat":-3.5677778,"lon":-80.4691667},{"id":824729,"name":"hacienda casanga","country":"ec","lat":-4.0166667,"lon":-79.75},{"id":822841,"name":"capas","country":"ec","lat":-4.15,"lon":-80.3166667},{"id":2067875,"name":"el burro","country":"pe","lat":-3.5,"lon":-80.45},{"id":2067032,"name":"corrales","country":"pe","lat":-3.6055556,"lon":-80.4769444},{"id":824110,"name":"el turo","country":"ec","lat":-3.7833333,"lon":-80.0833333},{"id":828146,"name":"playas","country":"ec","lat":-3.6333333,"lon":-79.9833333},{"id":829673,"name":"tablazon","country":"ec","lat":-4.1166667,"lon":-80.2333333},{"id":823043,"name":"chahuarbamba","country":"ec","lat":-3.85,"lon":-79.65},{"id":2062193,"name":"blas","country":"pe","lat":-4.2666667,"lon":-80.3666667},{"id":827767,"name":"palestina","country":"ec","lat":-3.6833333,"lon":-79.6666667},{"id":2079950,"name":"puesto murcielago","country":"pe","lat":-3.9333333,"lon":-80.1666667},{"id":822525,"name":"bella maria","country":"ec","lat":-3.5166667,"lon":-79.9166667},{"id":2073055,"name":"lacas","country":"pe","lat":-4.4666667,"lon":-80.2333333},{"id":2062976,"name":"campo verde","country":"pe","lat":-3.85,"lon":-80.1666667},{"id":827488,"name":"moromoro","country":"ec","lat":-3.7166667,"lon":-79.7333333},{"id":2085529,"name":"una de gato","country":"pe","lat":-3.5333333,"lon":-80.2333333},{"id":824542,"name":"guineo grande","country":"ec","lat":-4.1666667,"lon":-80.15},{"id":2068179,"name":"el prado","country":"pe","lat":-3.75,"lon":-80.45},{"id":2063381,"name":"cardonsol","country":"pe","lat":-3.55,"lon":-80.4333333},{"id":827777,"name":"palmales","country":"ec","lat":-3.6833333,"lon":-80.1166667},{"id":2082359,"name":"san sebastian hacienda","country":"pe","lat":-4.4833333,"lon":-80.1833333},{"id":2085793,"name":"vanguardia","country":"pe","lat":-3.5166667,"lon":-80.4333333},{"id":828444,"name":"punchanda","country":"ec","lat":-4.3,"lon":-79.8666667},{"id":826483,"name":"la ceiba","country":"ec","lat":-4.2833333,"lon":-80.2166667},{"id":830168,"name":"vicin","country":"ec","lat":-4.25,"lon":-80.0833333},{"id":2064367,"name":"chacritas","country":"pe","lat":-3.6958333,"lon":-80.3466667},{"id":830407,"name":"zuro","country":"ec","lat":-4.3666667,"lon":-79.6666667},{"id":2064928,"name":"checo","country":"pe","lat":-3.6333333,"lon":-80.2},{"id":828769,"name":"sabanillas","country":"ec","lat":-4.2,"lon":-80.1333333},{"id":822820,"name":"cangonama","country":"ec","lat":-3.9666667,"lon":-79.7},{"id":2075178,"name":"malval","country":"pe","lat":-3.6230556,"lon":-80.4655556},{"id":822675,"name":"cabo de hornos","country":"ec","lat":-3.5833333,"lon":-80.0666667},{"id":2081083,"name":"rica playa","country":"pe","lat":-3.8030556,"lon":-80.4986111},{"id":823389,"name":"cola","country":"ec","lat":-3.95,"lon":-79.5666667},{"id":827831,"name":"panayal","country":"ec","lat":-4.0833333,"lon":-79.85},{"id":2078605,"name":"pena blanca","country":"pe","lat":-3.6747222,"lon":-80.3852778},{"id":829778,"name":"targuarcocha","country":"ec","lat":-3.7833333,"lon":-79.8166667},{"id":827453,"name":"montehuaico","country":"ec","lat":-3.9666667,"lon":-80.05},{"id":827932,"name":"pavas","country":"ec","lat":-4.25,"lon":-80.2833333},{"id":2069608,"name":"hacienda pampa larga","country":"pe","lat":-4.4333333,"lon":-80.25},{"id":827858,"name":"panupali","country":"ec","lat":-3.6333333,"lon":-79.8833333},{"id":822448,"name":"balsa real","country":"ec","lat":-4.2333333,"lon":-80.2333333},{"id":823018,"name":"cerro verde","country":"ec","lat":-4.15,"lon":-80.25},{"id":827141,"name":"lugulme","country":"ec","lat":-4.3666667,"lon":-79.7666667},{"id":2073638,"name":"la penita","country":"pe","lat":-3.6308333,"lon":-80.1925},{"id":2062149,"name":"bellavista","country":"pe","lat":-3.5666667,"lon":-80.4666667},{"id":2085037,"name":"trancas","country":"pe","lat":-4.2333333,"lon":-80.3833333},{"id":826767,"name":"la quiara","country":"ec","lat":-4.1333333,"lon":-79.9666667},{"id":2082667,"name":"santa rosa","country":"pe","lat":-3.6652778,"lon":-80.4480556},{"id":822153,"name":"ahuaca del carmen","country":"ec","lat":-4.3,"lon":-79.55},{"id":827322,"name":"matocha","country":"ec","lat":-4.0333333,"lon":-79.5666667},{"id":2062905,"name":"camarones","country":"pe","lat":-4.4833333,"lon":-80.3833333},{"id":826053,"name":"higuerones","country":"ec","lat":-4.0666667,"lon":-80.05},{"id":823540,"name":"cruz blanca","country":"ec","lat":-4.05,"lon":-80.4666667},{"id":822848,"name":"capiro","country":"ec","lat":-3.7666667,"lon":-79.7166667},{"id":826189,"name":"infiernillo","country":"ec","lat":-4.2166667,"lon":-80.3333333},{"id":828122,"name":"pitayo","country":"ec","lat":-4.0166667,"lon":-80.2},{"id":827133,"name":"lubushcu","country":"ec","lat":-4.25,"lon":-79.8166667},{"id":823571,"name":"cuchilla alta","country":"ec","lat":-3.6666667,"lon":-79.7666667},{"id":824483,"name":"guararas","country":"ec","lat":-4.0166667,"lon":-80.1},{"id":2068243,"name":"el tablazo","country":"pe","lat":-3.6080556,"lon":-80.4633333},{"id":2068959,"name":"guarguar","country":"pe","lat":-4.4166667,"lon":-80.2},{"id":2068043,"name":"el limon","country":"pe","lat":-3.7725,"lon":-80.2491667},{"id":2084417,"name":"teniente astete","country":"pe","lat":-4.0333333,"lon":-80.4666667},{"id":826014,"name":"hacienda yamana","country":"ec","lat":-4.0166667,"lon":-79.6666667},{"id":825124,"name":"hacienda huarapo","country":"ec","lat":-4.4833333,"lon":-79.8166667},{"id":830083,"name":"utuana","country":"ec","lat":-4.3833333,"lon":-79.7},{"id":823391,"name":"colaizaca","country":"ec","lat":-4.3,"lon":-79.6666667},{"id":822933,"name":"casharum","country":"ec","lat":-4.1,"lon":-79.9333333},{"id":827253,"name":"marcabeli","country":"ec","lat":-3.7833333,"lon":-79.9},{"id":830102,"name":"valdivia","country":"ec","lat":-3.9833333,"lon":-79.6333333},{"id":2066357,"name":"cochas","country":"pe","lat":-3.85,"lon":-80.3},{"id":826528,"name":"la cuchilla","country":"ec","lat":-4.2833333,"lon":-80.0166667},{"id":2062470,"name":"cachaco","country":"pe","lat":-4.4166667,"lon":-80.0},{"id":823620,"name":"curiachi","country":"ec","lat":-4.05,"lon":-80.1166667},{"id":824057,"name":"el rosario","country":"ec","lat":-3.7833333,"lon":-79.6},{"id":822585,"name":"bocana","country":"ec","lat":-4.15,"lon":-80.4166667},{"id":827476,"name":"moras","country":"ec","lat":-4.3,"lon":-79.65},{"id":824088,"name":"el tambo","country":"ec","lat":-3.7666667,"lon":-80.0333333},{"id":2067207,"name":"cruz blanca","country":"pe","lat":-3.6661111,"lon":-80.4241667},{"id":824099,"name":"el toldo","country":"ec","lat":-4.3666667,"lon":-79.5166667},{"id":2081504,"name":"salitral grande","country":"pe","lat":-3.5166667,"lon":-80.2333333},{"id":2086831,"name":"zarumilla","country":"pe","lat":-3.5030556,"lon":-80.2730556},{"id":822980,"name":"ceibal","country":"ec","lat":-4.45,"lon":-79.7166667},{"id":2079949,"name":"puesto mayor novoa","country":"pe","lat":-4.15,"lon":-80.45},{"id":2077836,"name":"pampa grande","country":"pe","lat":-3.5822222,"lon":-80.4458333},{"id":2085618,"name":"urbanizacion andres araujo","country":"pe","lat":-3.5572222,"lon":-80.4211111},{"id":826119,"name":"huatunuma","country":"ec","lat":-4.0,"lon":-79.9},{"id":823512,"name":"cosalami","country":"ec","lat":-4.4666667,"lon":-79.7333333},{"id":823040,"name":"chaguarhuayco","country":"ec","lat":-4.0166667,"lon":-80.3166667},{"id":2082868,"name":"sauciilo","country":"pe","lat":-4.4333333,"lon":-80.1666667},{"id":826887,"name":"las vegas","country":"ec","lat":-3.9833333,"lon":-80.3666667},{"id":828805,"name":"salati","country":"ec","lat":-3.7666667,"lon":-79.5166667},{"id":829923,"name":"totoras","country":"ec","lat":-4.1,"lon":-80.4833333},{"id":2079934,"name":"puesto condor flores","country":"pe","lat":-3.8911111,"lon":-80.1330556},{"id":2071340,"name":"huayabo","country":"pe","lat":-4.4833333,"lon":-80.0833333},{"id":2067949,"name":"el corneta","country":"pe","lat":-3.6666667,"lon":-80.1833333},{"id":828910,"name":"sandias","country":"ec","lat":-3.5333333,"lon":-80.05},{"id":829710,"name":"tamarindo","country":"ec","lat":-4.1833333,"lon":-80.4166667},{"id":827824,"name":"pampa blanca","country":"ec","lat":-4.4,"lon":-80.3},{"id":827388,"name":"miraflores","country":"ec","lat":-4.3333333,"lon":-79.8666667},{"id":825049,"name":"hacienda gigales","country":"ec","lat":-4.3833333,"lon":-79.8666667},{"id":2062428,"name":"cabuyal","country":"pe","lat":-3.7338889,"lon":-80.4355556},{"id":828926,"name":"san felipe","country":"ec","lat":-4.1833333,"lon":-80.3666667},{"id":2081006,"name":"real engel","country":"pe","lat":-3.6108333,"lon":-80.4927778},{"id":824028,"name":"el puente","country":"ec","lat":-3.9333333,"lon":-80.0833333},{"id":2078827,"name":"pilares","country":"pe","lat":-4.35,"lon":-80.4333333},{"id":2079144,"name":"pocitos","country":"pe","lat":-3.5077778,"lon":-80.2402778},{"id":2064178,"name":"cerro blanco","country":"pe","lat":-3.6522222,"lon":-80.4266667},{"id":823629,"name":"curtincapa","country":"ec","lat":-3.7333333,"lon":-79.55},{"id":826126,"name":"huertas","country":"ec","lat":-4.1333333,"lon":-80.1},{"id":823991,"name":"el pindo","country":"ec","lat":-4.1333333,"lon":-80.2},{"id":2078921,"name":"pinonal","country":"pe","lat":-4.4333333,"lon":-79.8666667},{"id":827310,"name":"matalanga","country":"ec","lat":-4.0333333,"lon":-80.0},{"id":822445,"name":"balsalito","country":"ec","lat":-3.5833333,"lon":-80.2},{"id":2073973,"name":"la tuna","country":"pe","lat":-3.5480556,"lon":-80.4397222},{"id":829684,"name":"tacamoros","country":"ec","lat":-4.4166667,"lon":-79.7333333},{"id":2083867,"name":"tacural","country":"pe","lat":-3.6347222,"lon":-80.4261111},{"id":829751,"name":"tambo zapallal","country":"ec","lat":-3.9833333,"lon":-80.4166667},{"id":822513,"name":"bejucal","country":"ec","lat":-4.2333333,"lon":-80.3},{"id":829956,"name":"troncoquemado","country":"ec","lat":-4.4333333,"lon":-80.4},{"id":825074,"name":"hacienda guanabana","country":"ec","lat":-4.1833333,"lon":-79.8666667},{"id":827104,"name":"los encuentros","country":"ec","lat":-4.4333333,"lon":-80.3},{"id":829720,"name":"tambillo","country":"ec","lat":-4.15,"lon":-80.2666667},{"id":828587,"name":"rancho chico","country":"ec","lat":-3.6833333,"lon":-80.2},{"id":2073906,"name":"las playas","country":"pe","lat":-4.3333333,"lon":-80.2},{"id":827869,"name":"papurume","country":"ec","lat":-4.35,"lon":-79.7166667},{"id":824196,"name":"faical","country":"ec","lat":-3.7,"lon":-80.2},{"id":823094,"name":"chaquino","country":"ec","lat":-4.1833333,"lon":-80.4},{"id":2060704,"name":"alamor","country":"pe","lat":-4.4833333,"lon":-80.4166667},{"id":824076,"name":"el shugsho","country":"ec","lat":-4.1666667,"lon":-79.9666667},{"id":823794,"name":"el cajon","country":"ec","lat":-4.1833333,"lon":-80.0},{"id":823345,"name":"ciruelas","country":"ec","lat":-4.2833333,"lon":-80.1333333},{"id":823956,"name":"el muerto","country":"ec","lat":-4.1833333,"lon":-80.1},{"id":2074739,"name":"los hornos","country":"pe","lat":-4.4833333,"lon":-80.4},{"id":822534,"name":"bellavista","country":"ec","lat":-3.5,"lon":-79.9666667},{"id":826557,"name":"la esperanza","country":"ec","lat":-3.9833333,"lon":-80.2},{"id":824963,"name":"hacienda el limon","country":"ec","lat":-4.1,"lon":-79.8166667},{"id":2076237,"name":"morocho","country":"pe","lat":-4.4833333,"lon":-80.0},{"id":829927,"name":"totumos","country":"ec","lat":-4.2833333,"lon":-80.3},{"id":2085218,"name":"tumbez","country":"pe","lat":-3.5666667,"lon":-80.4413889},{"id":826052,"name":"higueroncito","country":"ec","lat":-4.15,"lon":-80.1833333},{"id":822759,"name":"caluguro","country":"ec","lat":-3.5166667,"lon":-79.8833333},{"id":822512,"name":"bejucal","country":"ec","lat":-3.6,"lon":-80.15},{"id":2061624,"name":"asentamiento humano salamanca","country":"pe","lat":-3.5547222,"lon":-80.4436111},{"id":2079940,"name":"puesto el remolino","country":"pe","lat":-4.4833333,"lon":-79.5833333},{"id":824955,"name":"hacienda el huasimo","country":"ec","lat":-4.4166667,"lon":-79.8166667},{"id":823785,"name":"el bosque","country":"ec","lat":-3.65,"lon":-79.6333333},{"id":830304,"name":"yucas","country":"ec","lat":-3.65,"lon":-79.95},{"id":2079633,"name":"pueblo nuevo","country":"pe","lat":-3.5833333,"lon":-80.45},{"id":826707,"name":"langunche","country":"ec","lat":-4.15,"lon":-79.85},{"id":823887,"name":"el empalme","country":"ec","lat":-4.1333333,"lon":-79.8333333},{"id":823396,"name":"colay","country":"ec","lat":-4.0833333,"lon":-80.0},{"id":825546,"name":"hacienda platanillo","country":"ec","lat":-3.6333333,"lon":-79.8333333},{"id":824551,"name":"guizhaguina","country":"ec","lat":-3.6833333,"lon":-79.5333333},{"id":2067194,"name":"cruce pizarro","country":"pe","lat":-3.5363889,"lon":-80.3744444},{"id":826416,"name":"juripilaca","country":"ec","lat":-4.1166667,"lon":-80.0666667},{"id":823939,"name":"el mango","country":"ec","lat":-4.3833333,"lon":-80.3666667},{"id":828869,"name":"san antonio","country":"ec","lat":-3.5166667,"lon":-80.0166667},{"id":823328,"name":"ciano","country":"ec","lat":-3.9,"lon":-79.9666667},{"id":826684,"name":"lamballe","country":"ec","lat":-4.3666667,"lon":-79.8166667},{"id":2076388,"name":"muralla","country":"pe","lat":-3.8858333,"lon":-80.2088889},{"id":830364,"name":"zaruma","country":"ec","lat":-3.6833333,"lon":-79.6166667},{"id":2061621,"name":"asentamiento humano alan garcia","country":"pe","lat":-3.52,"lon":-80.3319444},{"id":828185,"name":"porotilla","country":"ec","lat":-4.2,"lon":-79.9833333},{"id":822988,"name":"celica","country":"ec","lat":-4.1166667,"lon":-79.95},{"id":2084508,"name":"tigres","country":"pe","lat":-3.7,"lon":-80.4833333},{"id":828589,"name":"rancho comisario","country":"ec","lat":-3.55,"lon":-79.7166667},{"id":2062117,"name":"belen","country":"pe","lat":-3.7033333,"lon":-80.4169444},{"id":830346,"name":"zapallal","country":"ec","lat":-4.3833333,"lon":-80.3333333},{"id":2077919,"name":"pampa redonda","country":"pe","lat":-4.4,"lon":-79.9833333},{"id":824570,"name":"guucacocha","country":"ec","lat":-4.2333333,"lon":-80.2166667},{"id":829058,"name":"san jose","country":"ec","lat":-3.5,"lon":-80.0333333},{"id":2079048,"name":"pitayitos","country":"pe","lat":-4.25,"lon":-80.4},{"id":824349,"name":"guabillo","country":"ec","lat":-3.6,"lon":-80.1833333},{"id":2061247,"name":"angostura","country":"pe","lat":-3.7530556,"lon":-80.4019444},{"id":822911,"name":"carrizal","country":"ec","lat":-4.05,"lon":-80.0333333},{"id":827825,"name":"pampa de las menas","country":"ec","lat":-4.05,"lon":-80.4833333},{"id":2078712,"name":"pichichal","country":"pe","lat":-3.6316667,"lon":-80.4630556},{"id":2081040,"name":"remolinos","country":"pe","lat":-4.4166667,"lon":-80.2666667},{"id":828188,"name":"porotillo","country":"ec","lat":-4.4,"lon":-79.75},{"id":829750,"name":"tambo zambo","country":"ec","lat":-3.5833333,"lon":-79.8166667},{"id":823700,"name":"desvio","country":"ec","lat":-4.2833333,"lon":-79.9166667},{"id":826153,"name":"iguinda","country":"ec","lat":-4.1,"lon":-79.75},{"id":829432,"name":"saucillo","country":"ec","lat":-4.25,"lon":-80.2},{"id":827538,"name":"nalacapac","country":"ec","lat":-3.7,"lon":-79.8166667},{"id":828025,"name":"piedra tabla","country":"ec","lat":-4.0166667,"lon":-80.0333333},{"id":822871,"name":"carbillo","country":"ec","lat":-3.5333333,"lon":-80.2},{"id":2079936,"name":"puesto cotrina","country":"pe","lat":-3.8333333,"lon":-80.1666667},{"id":2076934,"name":"oidor","country":"pe","lat":-3.7219444,"lon":-80.4572222},{"id":823170,"name":"chiguango","country":"ec","lat":-3.8833333,"lon":-79.5666667},{"id":2067303,"name":"cuchareta baja","country":"pe","lat":-3.5230556,"lon":-80.2383333},{"id":2068834,"name":"gavilan","country":"pe","lat":-3.5166667,"lon":-80.4666667},{"id":827691,"name":"orianga","country":"ec","lat":-3.8833333,"lon":-79.8666667},{"id":2062299,"name":"brunos","country":"pe","lat":-3.8033333,"lon":-80.4777778},{"id":2067752,"name":"despunte","country":"pe","lat":-4.4833333,"lon":-79.7833333},{"id":2068172,"name":"el potrero","country":"pe","lat":-3.5025,"lon":-80.3886111},{"id":2068296,"name":"embarcadero","country":"pe","lat":-3.5063889,"lon":-80.3925},{"id":828420,"name":"puesto puyango","country":"ec","lat":-3.8833333,"lon":-80.0833333},{"id":826353,"name":"jobo","country":"ec","lat":-3.55,"lon":-80.05},{"id":2077813,"name":"pampa el cardito","country":"pe","lat":-3.5327778,"lon":-80.3433333},{"id":825898,"name":"hacienda tabloncillo","country":"ec","lat":-4.4,"lon":-79.5166667},{"id":823473,"name":"copradia","country":"ec","lat":-4.25,"lon":-79.7333333},{"id":2073253,"name":"la garita","country":"pe","lat":-3.5933333,"lon":-80.4325},{"id":2062553,"name":"cafeterias","country":"pe","lat":-3.6588889,"lon":-80.3680556},{"id":2062407,"name":"cabo inga","country":"pe","lat":-3.9747222,"lon":-80.4025},{"id":827615,"name":"nogal","country":"ec","lat":-4.25,"lon":-80.0166667},{"id":826619,"name":"la huatara","country":"ec","lat":-4.3166667,"lon":-79.9666667},{"id":2066245,"name":"ciudadela de noe","country":"pe","lat":-3.5716667,"lon":-80.4213889},{"id":827592,"name":"naypongo","country":"ec","lat":-4.3666667,"lon":-79.5333333},{"id":827293,"name":"masaconsa","country":"ec","lat":-4.05,"lon":-79.9666667},{"id":825949,"name":"hacienda trapichillo","country":"ec","lat":-4.15,"lon":-79.6833333},{"id":825902,"name":"hacienda tahuin","country":"ec","lat":-3.85,"lon":-80.0833333},{"id":826521,"name":"la cruz de yasapa","country":"ec","lat":-4.1666667,"lon":-79.5166667},{"id":823996,"name":"el placer","country":"ec","lat":-3.6166667,"lon":-79.8166667},{"id":823971,"name":"el organo","country":"ec","lat":-4.1333333,"lon":-80.1666667},{"id":829738,"name":"tambo sasanama","country":"ec","lat":-4.1,"lon":-79.95},{"id":826653,"name":"la libertad","country":"ec","lat":-4.2166667,"lon":-79.5166667},{"id":827616,"name":"nongora","country":"ec","lat":-4.4,"lon":-79.5666667},{"id":2073948,"name":"la tina hacienda","country":"pe","lat":-4.4,"lon":-79.95},{"id":2066071,"name":"chupingo","country":"pe","lat":-4.4833333,"lon":-80.3666667},{"id":827363,"name":"milagros","country":"ec","lat":-4.1166667,"lon":-80.1166667},{"id":824075,"name":"el sesteadero","country":"ec","lat":-4.0666667,"lon":-79.8833333},{"id":2065177,"name":"chililique","country":"pe","lat":-4.4666667,"lon":-80.3166667},{"id":824285,"name":"garza huachana","country":"ec","lat":-4.3,"lon":-80.2333333},{"id":2074126,"name":"leones","country":"pe","lat":-3.8166667,"lon":-80.4666667},{"id":823930,"name":"el limo","country":"ec","lat":-3.9833333,"lon":-80.15},{"id":828792,"name":"salado","country":"ec","lat":-4.1666667,"lon":-79.9333333},{"id":2073018,"name":"la canela","country":"pe","lat":-3.565,"lon":-80.4908333},{"id":829971,"name":"tudo","country":"ec","lat":-4.3166667,"lon":-79.8166667},{"id":826716,"name":"la palma","country":"ec","lat":-3.6333333,"lon":-79.8666667},{"id":2063672,"name":"casitas","country":"pe","lat":-4.4333333,"lon":-80.4666667},{"id":2076532,"name":"naranjo","country":"pe","lat":-3.7863889,"lon":-80.4638889},{"id":824915,"name":"hacienda duran","country":"ec","lat":-3.5166667,"lon":-80.0666667},{"id":823047,"name":"chalanga","country":"ec","lat":-3.95,"lon":-79.7},{"id":826496,"name":"la chuca","country":"ec","lat":-3.6,"lon":-79.95},{"id":822413,"name":"badeal","country":"ec","lat":-4.3833333,"lon":-79.9833333},{"id":2073863,"name":"las mercedes","country":"pe","lat":-3.5780556,"lon":-80.4408333},{"id":827512,"name":"mula muerta","country":"ec","lat":-3.8666667,"lon":-80.1},{"id":830359,"name":"zapotillo","country":"ec","lat":-4.3833333,"lon":-80.25},{"id":822819,"name":"cango","country":"ec","lat":-4.3333333,"lon":-79.5666667},{"id":2073895,"name":"las parrales","country":"pe","lat":-3.5352778,"lon":-80.4905556},{"id":2085799,"name":"vaqueria","country":"pe","lat":-3.7063889,"lon":-80.4530556},{"id":826431,"name":"la aldea","country":"ec","lat":-3.8,"lon":-79.9833333},{"id":2076139,"name":"monte carmelo","country":"pe","lat":-3.5666667,"lon":-80.4833333},{"id":822427,"name":"bajana","country":"ec","lat":-3.65,"lon":-80.0166667},{"id":823899,"name":"el guabo","country":"ec","lat":-4.1833333,"lon":-80.3833333},{"id":826898,"name":"la tingue","country":"ec","lat":-3.9,"lon":-79.5666667},{"id":2076586,"name":"negrito","country":"pe","lat":-3.5466667,"lon":-80.4011111},{"id":2067305,"name":"cucharetas","country":"pe","lat":-3.5166667,"lon":-80.2166667},{"id":824515,"name":"guayabal","country":"ec","lat":-4.4666667,"lon":-79.6},{"id":2074091,"name":"leandro campos","country":"pe","lat":-3.6919444,"lon":-80.2244444},{"id":825855,"name":"hacienda senegal","country":"ec","lat":-4.3666667,"lon":-79.8833333},{"id":2061537,"name":"arenal","country":"pe","lat":-3.75,"lon":-80.4333333},{"id":827223,"name":"mangaurco","country":"ec","lat":-4.1666667,"lon":-80.4333333},{"id":829783,"name":"tarume","country":"ec","lat":-4.25,"lon":-79.7},{"id":827631,"name":"nueva fatima","country":"ec","lat":-4.25,"lon":-79.8},{"id":825693,"name":"hacienda san fernando","country":"ec","lat":-4.0666667,"lon":-79.7},{"id":823096,"name":"chaquiro","country":"ec","lat":-4.35,"lon":-80.3166667},{"id":828189,"name":"portete chirihuala","country":"ec","lat":-4.2333333,"lon":-79.5},{"id":829993,"name":"tunaspamba","country":"ec","lat":-3.9666667,"lon":-79.7166667},{"id":828771,"name":"sabiango","country":"ec","lat":-4.3666667,"lon":-79.8},{"id":828213,"name":"potrerillo","country":"ec","lat":-4.2333333,"lon":-79.9},{"id":2079632,"name":"pueblo nuevo","country":"pe","lat":-4.45,"lon":-80.2666667},{"id":823910,"name":"el hondon","country":"ec","lat":-4.0,"lon":-80.05},{"id":823871,"name":"el cucho","country":"ec","lat":-3.5833333,"lon":-79.85},{"id":827341,"name":"mercadillo","country":"ec","lat":-4.0166667,"lon":-79.9833333},{"id":824331,"name":"gramadal","country":"ec","lat":-4.0,"lon":-80.35},{"id":2073809,"name":"las delicias","country":"pe","lat":-3.5,"lon":-80.4666667},{"id":823058,"name":"chambarango","country":"ec","lat":-4.35,"lon":-80.2666667},{"id":2061991,"name":"balsas","country":"pe","lat":-4.4166667,"lon":-80.2833333},{"id":828477,"name":"pusanuma","country":"ec","lat":-4.1833333,"lon":-79.5333333},{"id":830092,"name":"vado tumbesino","country":"ec","lat":-3.8666667,"lon":-80.1166667},{"id":829728,"name":"tambo grande","country":"ec","lat":-3.5833333,"lon":-79.8333333},{"id":826635,"name":"lajas","country":"ec","lat":-3.7833333,"lon":-80.0666667},{"id":2086802,"name":"zapacilla","country":"pe","lat":-4.35,"lon":-80.2166667},{"id":826838,"name":"las lajas","country":"ec","lat":-4.1833333,"lon":-80.15},{"id":824673,"name":"hacienda bolaspamba","country":"ec","lat":-4.1833333,"lon":-80.4333333},{"id":823497,"name":"corral del senor","country":"ec","lat":-4.15,"lon":-79.9833333},{"id":829391,"name":"san vicente","country":"ec","lat":-4.0666667,"lon":-79.5666667},{"id":2078589,"name":"peligro","country":"pe","lat":-3.6419444,"lon":-80.4475},{"id":823691,"name":"derrumbo","country":"ec","lat":-3.9833333,"lon":-80.0666667},{"id":824999,"name":"hacienda el sauce","country":"ec","lat":-4.2666667,"lon":-80.3333333},{"id":823848,"name":"el coco","country":"ec","lat":-4.4,"lon":-79.8833333},{"id":823902,"name":"el guando","country":"ec","lat":-4.1,"lon":-80.1833333},{"id":828018,"name":"piedras blancas","country":"ec","lat":-3.7166667,"lon":-79.7166667},{"id":827110,"name":"los llanos","country":"ec","lat":-4.15,"lon":-79.6333333},{"id":822970,"name":"cazaderos","country":"ec","lat":-4.0833333,"lon":-80.4833333},{"id":2073502,"name":"la monja","country":"pe","lat":-4.4833333,"lon":-80.0666667},{"id":825519,"name":"hacienda pichincha","country":"ec","lat":-4.45,"lon":-80.4166667},{"id":829934,"name":"trapazola","country":"ec","lat":-3.8833333,"lon":-80.1166667},{"id":2067181,"name":"cristales","country":"pe","lat":-3.6355556,"lon":-80.4566667},{"id":826932,"name":"la victoria de sabiango","country":"ec","lat":-4.4166667,"lon":-79.8},{"id":2085333,"name":"tutumo","country":"pe","lat":-4.4166667,"lon":-79.9},{"id":2077685,"name":"palomas","country":"pe","lat":-4.2166667,"lon":-80.45},{"id":828855,"name":"san andres","country":"ec","lat":-4.0666667,"lon":-79.6666667},{"id":828071,"name":"pindal de jugal","country":"ec","lat":-4.2333333,"lon":-80.0166667},{"id":2085334,"name":"tutumo","country":"pe","lat":-3.6961111,"lon":-80.2547222},{"id":822148,"name":"aguas verdes","country":"ec","lat":-3.5,"lon":-80.2833333},{"id":825838,"name":"hacienda santiago","country":"ec","lat":-4.0166667,"lon":-79.5333333},{"id":2065493,"name":"chirinos","country":"pe","lat":-4.45,"lon":-79.95},{"id":2065744,"name":"chorrera","country":"pe","lat":-4.2,"lon":-80.3666667},{"id":828024,"name":"piedras verdes","country":"ec","lat":-3.5833333,"lon":-79.65},{"id":2074787,"name":"los reyes","country":"pe","lat":-3.5102778,"lon":-80.335},{"id":2079862,"name":"puerto pizarro","country":"pe","lat":-3.5027778,"lon":-80.3938889},{"id":822918,"name":"casapiamba","country":"ec","lat":-4.0,"lon":-79.65},{"id":2081565,"name":"samanamaca hacienda","country":"pe","lat":-4.4333333,"lon":-79.6666667},{"id":826042,"name":"hacienda zapotepamba","country":"ec","lat":-4.0666667,"lon":-79.7666667},{"id":2085632,"name":"urcos pachicha","country":"pe","lat":-3.6166667,"lon":-80.4666667},{"id":823093,"name":"chaquinal","country":"ec","lat":-4.0333333,"lon":-80.05},{"id":827770,"name":"paletillas","country":"ec","lat":-4.1833333,"lon":-80.2833333},{"id":829712,"name":"tambara","country":"ec","lat":-3.95,"lon":-79.5333333},{"id":823891,"name":"el faigue","country":"ec","lat":-4.1666667,"lon":-80.0333333},{"id":2082020,"name":"san jose","country":"pe","lat":-3.5625,"lon":-80.4613889},{"id":825334,"name":"hacienda limon","country":"ec","lat":-4.4166667,"lon":-79.8666667},{"id":823787,"name":"el bunque","country":"ec","lat":-3.75,"lon":-80.0333333},{"id":2067950,"name":"el corral","country":"pe","lat":-3.6972222,"lon":-80.2308333},{"id":824237,"name":"fogones","country":"ec","lat":-3.8666667,"lon":-80.0166667},{"id":2068068,"name":"el milagro","country":"pe","lat":-3.5255556,"lon":-80.4497222},{"id":830276,"name":"yaraco","country":"ec","lat":-4.1166667,"lon":-79.9},{"id":2062639,"name":"cajon","country":"pe","lat":-4.3166667,"lon":-80.4166667},{"id":2074767,"name":"los pinos","country":"pe","lat":-3.5694444,"lon":-80.4988889},{"id":2062476,"name":"cachaquito","country":"pe","lat":-4.4333333,"lon":-79.9666667},{"id":829697,"name":"tahuin","country":"ec","lat":-3.6166667,"lon":-80.0166667},{"id":2074730,"name":"los encuentros de romero","country":"pe","lat":-4.45,"lon":-80.3},{"id":827205,"name":"malvas","country":"ec","lat":-3.6666667,"lon":-79.65},{"id":2068067,"name":"el milagro","country":"pe","lat":-4.45,"lon":-80.2166667},{"id":2067870,"name":"el bebedero","country":"pe","lat":-3.5525,"lon":-80.4602778},{"id":824513,"name":"guatara","country":"ec","lat":-4.35,"lon":-80.0},{"id":822305,"name":"ardanza","country":"ec","lat":-4.2833333,"lon":-79.5833333},{"id":828604,"name":"recogimiento","country":"ec","lat":-3.6,"lon":-79.7},{"id":2073752,"name":"la rinconada","country":"pe","lat":-4.3333333,"lon":-80.2166667},{"id":2082885,"name":"sausal","country":"pe","lat":-4.45,"lon":-79.65},{"id":830139,"name":"vela cruz","country":"ec","lat":-4.0,"lon":-79.55},{"id":2079400,"name":"primavera","country":"pe","lat":-3.5375,"lon":-80.3897222},{"id":826925,"name":"lauro guerrero","country":"ec","lat":-3.9666667,"lon":-79.7666667},{"id":822674,"name":"cabeza de toro","country":"ec","lat":-4.2833333,"lon":-80.3333333},{"id":2079312,"name":"porvenir","country":"pe","lat":-3.5536111,"lon":-80.225},{"id":824362,"name":"guachanama","country":"ec","lat":-4.0333333,"lon":-79.8833333},{"id":2062105,"name":"becerra","country":"pe","lat":-3.7341667,"lon":-80.4102778},{"id":2078579,"name":"pedro el veijo","country":"pe","lat":-3.5908333,"lon":-80.4544444},{"id":827109,"name":"los llanitos","country":"ec","lat":-4.3833333,"lon":-79.7333333},{"id":823035,"name":"chacras","country":"ec","lat":-3.55,"lon":-80.2},{"id":823797,"name":"el calvario","country":"ec","lat":-3.6833333,"lon":-79.6333333},{"id":823545,"name":"cruz del huerto","country":"ec","lat":-4.4166667,"lon":-79.85},{"id":828198,"name":"portoviejo","country":"ec","lat":-3.7166667,"lon":-79.6166667},{"id":828193,"name":"portete","country":"ec","lat":-3.5666667,"lon":-79.6833333},{"id":827905,"name":"patagrande","country":"ec","lat":-3.6666667,"lon":-79.75},{"id":823994,"name":"el pitayo","country":"ec","lat":-4.3166667,"lon":-80.25},{"id":2067150,"name":"cotrina","country":"pe","lat":-3.8166667,"lon":-80.1833333},{"id":2062181,"name":"bigotes","country":"pe","lat":-3.6733333,"lon":-80.3588889},{"id":823963,"name":"el negro","country":"ec","lat":-3.6833333,"lon":-79.9333333},{"id":2062090,"name":"batan de pilares","country":"pe","lat":-4.45,"lon":-80.45},{"id":822801,"name":"canas","country":"ec","lat":-3.8333333,"lon":-80.0833333},{"id":2074230,"name":"limos","country":"pe","lat":-3.6166667,"lon":-80.2166667},{"id":830005,"name":"tuntun","country":"ec","lat":-4.3166667,"lon":-79.5666667},{"id":2074220,"name":"limon","country":"pe","lat":-4.4,"lon":-79.9166667},{"id":2067302,"name":"cuchareta alta","country":"pe","lat":-3.5297222,"lon":-80.2366667},{"id":827884,"name":"parasa","country":"ec","lat":-4.2666667,"lon":-79.7333333},{"id":2068389,"name":"esperanza","country":"pe","lat":-3.55,"lon":-80.4666667},{"id":825631,"name":"hacienda romero","country":"ec","lat":-4.45,"lon":-80.35},{"id":828506,"name":"quebrada seca","country":"ec","lat":-3.5,"lon":-79.7666667},{"id":823859,"name":"el congo","country":"ec","lat":-4.0166667,"lon":-79.9333333},{"id":829180,"name":"san pedro martir","country":"ec","lat":-4.05,"lon":-79.6333333},{"id":823976,"name":"el pache","country":"ec","lat":-3.7166667,"lon":-79.6666667},{"id":823777,"name":"el barrial","country":"ec","lat":-3.9833333,"lon":-79.6},{"id":823913,"name":"el huato","country":"ec","lat":-3.9833333,"lon":-79.5},{"id":827155,"name":"macandamine","country":"ec","lat":-3.9833333,"lon":-79.7},{"id":822821,"name":"cangonama chico","country":"ec","lat":-4.3,"lon":-79.9333333},{"id":2073887,"name":"las palmas","country":"pe","lat":-3.5636111,"lon":-80.2136111},{"id":2062333,"name":"buena vista","country":"pe","lat":-3.5722222,"lon":-80.4488889},{"id":827724,"name":"paccha","country":"ec","lat":-3.5833333,"lon":-79.6833333},{"id":830155,"name":"veracruz","country":"ec","lat":-3.9666667,"lon":-79.5666667},{"id":824518,"name":"guayabo","country":"ec","lat":-3.5833333,"lon":-79.9},{"id":830013,"name":"turinuma","country":"ec","lat":-4.0666667,"lon":-80.1833333},{"id":2074782,"name":"los pozos","country":"pe","lat":-3.775,"lon":-80.4902778},{"id":824074,"name":"el sauco","country":"ec","lat":-4.2833333,"lon":-80.05},{"id":2062398,"name":"cabeza de lagarto","country":"pe","lat":-3.6766667,"lon":-80.4280556},{"id":829074,"name":"san juan de pozul","country":"ec","lat":-4.1,"lon":-80.05},{"id":826054,"name":"higueron","country":"ec","lat":-4.2166667,"lon":-80.2},{"id":823917,"name":"el ingenio","country":"ec","lat":-3.7,"lon":-79.9333333},{"id":828630,"name":"revolcadero","country":"ec","lat":-4.2166667,"lon":-80.3}]});