callback({"markets":[{"id":3020705,"name":"white river","country":"us","lat":43.5680556,"lon":-100.745},{"id":3020647,"name":"van metre","country":"us","lat":44.1594444,"lon":-100.7933333},{"id":3019938,"name":"capa","country":"us","lat":44.1088889,"lon":-100.9777778},{"id":3020334,"name":"midland","country":"us","lat":44.0716667,"lon":-101.155},{"id":3020354,"name":"moenville","country":"us","lat":44.4763889,"lon":-101.255},{"id":3020584,"name":"stamford","country":"us","lat":43.895,"lon":-101.0886111},{"id":3020366,"name":"murdo","country":"us","lat":43.8883333,"lon":-100.7125},{"id":3019874,"name":"belvidere","country":"us","lat":43.8319444,"lon":-101.2711111},{"id":3020252,"name":"lacy","country":"us","lat":44.4955556,"lon":-100.7008333},{"id":3020400,"name":"oahe","country":"us","lat":44.4577778,"lon":-100.5305556},{"id":3020423,"name":"ottumwa","country":"us","lat":44.2336111,"lon":-101.3466667},{"id":3019948,"name":"cedar butte","country":"us","lat":43.5769444,"lon":-101.0180556},{"id":3020152,"name":"hayes","country":"us","lat":44.3702778,"lon":-101.0211111},{"id":3020687,"name":"wendte","country":"us","lat":44.2444444,"lon":-100.6647222},{"id":3020405,"name":"okaton","country":"us","lat":43.8861111,"lon":-100.8913889},{"id":3020034,"name":"draper","country":"us","lat":43.9261111,"lon":-100.54},{"id":3020610,"name":"teton","country":"us","lat":44.2869444,"lon":-100.5075},{"id":3019982,"name":"corn creek","country":"us","lat":43.565,"lon":-101.2005556},{"id":3020397,"name":"nowlin","country":"us","lat":44.0497222,"lon":-101.3022222},{"id":3020694,"name":"westover","country":"us","lat":43.7477778,"lon":-100.6658333}]});