callback({"markets":[{"id":2311357,"name":"comparada","country":"py","lat":-24.183333,"lon":-57.183333},{"id":2311493,"name":"estancia anuncia","country":"py","lat":-24.283333,"lon":-57.15},{"id":2311044,"name":"centinela","country":"py","lat":-24.133333,"lon":-57.183333},{"id":2312754,"name":"puesto alegre","country":"py","lat":-23.766667,"lon":-57.433333},{"id":2311661,"name":"estancia general diaz","country":"py","lat":-24.166667,"lon":-57.183333},{"id":2311690,"name":"estancia itacurubi","country":"py","lat":-23.946944,"lon":-57.157778},{"id":2312304,"name":"la nina","country":"py","lat":-24.1,"lon":-56.716667},{"id":2311807,"name":"estancia montelindo","country":"py","lat":-23.95,"lon":-57.2},{"id":2312615,"name":"puerto carlos pfannl","country":"py","lat":-24.383333,"lon":-57.166667},{"id":2312992,"name":"san francisco","country":"py","lat":-24.1,"lon":-57.15},{"id":2312627,"name":"puerto desaguadero","country":"py","lat":-23.8625,"lon":-57.2475},{"id":2313041,"name":"san pedro de ycuamandiyu","country":"py","lat":-24.1,"lon":-57.083333},{"id":2312212,"name":"iba-pobo","country":"py","lat":-23.6475,"lon":-57.391111},{"id":2313158,"name":"tayi-care","country":"py","lat":-24.283333,"lon":-57.116667},{"id":2313019,"name":"san juan","country":"py","lat":-23.983333,"lon":-57.283333},{"id":2312946,"name":"rosario","country":"py","lat":-24.45,"lon":-57.05},{"id":2311067,"name":"chore","country":"py","lat":-24.2,"lon":-56.566667},{"id":2311332,"name":"colonia volendam","country":"py","lat":-24.25,"lon":-57.033333},{"id":2312075,"name":"estancia verde","country":"py","lat":-23.872222,"lon":-57.424167},{"id":2312452,"name":"nueva germania","country":"py","lat":-23.9,"lon":-56.566667},{"id":2312059,"name":"estancia tres marias","country":"py","lat":-23.549444,"lon":-57.111667},{"id":2311512,"name":"estancia belen-cue","country":"py","lat":-23.766667,"lon":-57.05},{"id":2312034,"name":"estancia tacuru","country":"py","lat":-24.183333,"lon":-56.95},{"id":2311325,"name":"colonia trinacria","country":"py","lat":-24.366667,"lon":-56.6},{"id":2312386,"name":"mbopicua","country":"py","lat":-24.316667,"lon":-57.116667},{"id":2311265,"name":"colonia rio verde","country":"py","lat":-23.716667,"lon":-56.5},{"id":2312825,"name":"puesto michi","country":"py","lat":-24.083333,"lon":-57.283333},{"id":2312721,"name":"puerto santa rosa","country":"py","lat":-23.5825,"lon":-57.440556},{"id":2312264,"name":"jhugua rey","country":"py","lat":-24.366667,"lon":-56.716667},{"id":2312189,"name":"guardia-cue","country":"py","lat":-23.733333,"lon":-57.15},{"id":2313090,"name":"santa rosa","country":"py","lat":-23.866667,"lon":-56.566667},{"id":2312972,"name":"san antonio","country":"py","lat":-23.55,"lon":-56.933333},{"id":2312730,"name":"puerto tacuru pyta","country":"py","lat":-23.758333,"lon":-57.244444},{"id":2312013,"name":"estancia serratti","country":"py","lat":-23.895833,"lon":-57.194444},{"id":2311338,"name":"colonia yby pe","country":"py","lat":-24.016667,"lon":-56.5},{"id":2311353,"name":"compania san jose","country":"py","lat":-23.937222,"lon":-57.063333},{"id":2312607,"name":"puerto buena vista","country":"py","lat":-23.985556,"lon":-57.2525},{"id":2312913,"name":"reduccion de san jose","country":"py","lat":-24.25,"lon":-56.933333},{"id":2312621,"name":"puerto colorado","country":"py","lat":-23.568611,"lon":-57.446389},{"id":2312707,"name":"puerto san antonio","country":"py","lat":-23.856111,"lon":-57.275},{"id":2312631,"name":"puerto doria","country":"py","lat":-24.0,"lon":-57.183333},{"id":2312462,"name":"ocampo-cue","country":"py","lat":-23.933333,"lon":-56.966667},{"id":2311845,"name":"estancia pedernal","country":"py","lat":-23.783333,"lon":-57.166667},{"id":2311195,"name":"colonia liberacion","country":"py","lat":-24.166667,"lon":-56.65},{"id":2311761,"name":"estancia loma verde","country":"py","lat":-23.783333,"lon":-56.95},{"id":2312656,"name":"puerto laurel","country":"py","lat":-23.892778,"lon":-57.280278},{"id":2311284,"name":"colonia san juan","country":"py","lat":-23.556111,"lon":-57.2},{"id":2312785,"name":"puesto-cue","country":"py","lat":-24.2,"lon":-56.95},{"id":2311202,"name":"colonia maria auxiliadora","country":"py","lat":-24.45,"lon":-56.5},{"id":2310882,"name":"barranquerita","country":"py","lat":-24.25,"lon":-57.133333},{"id":2312672,"name":"puerto milagro","country":"py","lat":-23.515833,"lon":-57.454444},{"id":2311200,"name":"colonia manitoba","country":"py","lat":-23.566667,"lon":-56.55},{"id":2310918,"name":"buena vista","country":"py","lat":-24.033333,"lon":-57.133333},{"id":2311159,"name":"colonia general acuino","country":"py","lat":-24.433333,"lon":-56.7},{"id":2311048,"name":"cerrito","country":"py","lat":-23.833333,"lon":-57.0},{"id":2312236,"name":"itacurbi","country":"py","lat":-23.6,"lon":-57.116667},{"id":2313139,"name":"tacuara","country":"py","lat":-23.6,"lon":-57.15},{"id":2310855,"name":"antequera","country":"py","lat":-24.133333,"lon":-57.083333},{"id":2310915,"name":"boqueron","country":"py","lat":-23.966667,"lon":-57.283333},{"id":2312703,"name":"puerto rosario","country":"py","lat":-24.45,"lon":-57.083333},{"id":2313034,"name":"san pablo de ycuamandyyu","country":"py","lat":-24.15,"lon":-57.066667},{"id":2311993,"name":"estancia santa maria","country":"py","lat":-23.535,"lon":-57.381111},{"id":2311611,"name":"estancia cuatro de mayo","country":"py","lat":-23.586944,"lon":-57.137222},{"id":2312015,"name":"estancia siete puntas","country":"py","lat":-23.633333,"lon":-57.433333}]});