callback({"markets":[{"id":2432879,"name":"krasnoleninskaya","country":"ru","lat":61.666667,"lon":67.6},{"id":2529814,"name":"sukhorovskiye","country":"ru","lat":61.583333,"lon":67.833333},{"id":2530656,"name":"sushki","country":"ru","lat":61.6,"lon":67.75},{"id":2544688,"name":"urmannyy","country":"ru","lat":61.6,"lon":67.9},{"id":2417036,"name":"keushinskiy rybnyy uchastok","country":"ru","lat":61.783333,"lon":67.533333},{"id":2522746,"name":"sosnovo","country":"ru","lat":61.85,"lon":67.533333},{"id":2417037,"name":"keushki","country":"ru","lat":61.8,"lon":67.533333},{"id":2443942,"name":"lesnoy","country":"ru","lat":61.616667,"lon":68.116667},{"id":2529821,"name":"sukhorukovo","country":"ru","lat":61.5,"lon":68.05},{"id":2441038,"name":"kynya","country":"ru","lat":61.5,"lon":68.15},{"id":2553332,"name":"vershinskiye","country":"ru","lat":61.816667,"lon":68.4},{"id":2416546,"name":"kedrovyy","country":"ru","lat":61.5,"lon":68.25},{"id":2531976,"name":"synvar","country":"ru","lat":62.283333,"lon":67.916667}]});