callback({"markets":[{"id":1543752,"name":"takeshi","country":"jp","lat":36.283333,"lon":138.233333},{"id":1537318,"name":"minami-majino","country":"jp","lat":36.0,"lon":138.1},{"id":1538264,"name":"nagasaka","country":"jp","lat":35.816667,"lon":138.366667},{"id":1543148,"name":"suhara","country":"jp","lat":35.7,"lon":137.7},{"id":1545473,"name":"usuda","country":"jp","lat":36.2,"lon":138.483333},{"id":1531316,"name":"hanaoka","country":"jp","lat":36.05,"lon":138.05},{"id":1529614,"name":"azumino","country":"jp","lat":36.288155,"lon":137.887055},{"id":1534787,"name":"katagiri","country":"jp","lat":35.616667,"lon":137.883333},{"id":1535452,"name":"kita-ono","country":"jp","lat":36.05,"lon":137.966667},{"id":1536106,"name":"koyanagicho","country":"jp","lat":36.233333,"lon":137.966667},{"id":1532788,"name":"ikenoshiri","country":"jp","lat":35.716667,"lon":137.716667},{"id":1531523,"name":"hata","country":"jp","lat":36.133333,"lon":138.466667},{"id":1542200,"name":"shimo-kawara","country":"jp","lat":36.316667,"lon":138.416667},{"id":1541382,"name":"saku","country":"jp","lat":36.216667,"lon":138.483333},{"id":1535831,"name":"komagane","country":"jp","lat":35.716573,"lon":137.937451},{"id":1534248,"name":"kami-seinaiji","country":"jp","lat":35.5,"lon":137.683333},{"id":1545833,"name":"yahata","country":"jp","lat":36.266667,"lon":138.4},{"id":1533840,"name":"kakehashi","country":"jp","lat":35.8,"lon":137.683333},{"id":1533278,"name":"itabashi","country":"jp","lat":35.966667,"lon":138.483333},{"id":1534039,"name":"kami-ikusaka","country":"jp","lat":36.416667,"lon":137.933333},{"id":1535752,"name":"koizumi","country":"jp","lat":36.383333,"lon":138.2},{"id":1540400,"name":"omi","country":"jp","lat":36.45,"lon":138.05},{"id":1542690,"name":"shirasu","country":"jp","lat":35.8,"lon":138.333333},{"id":1542065,"name":"shimmachi","country":"jp","lat":36.383333,"lon":138.3},{"id":1538704,"name":"nakazawa","country":"jp","lat":35.983333,"lon":138.216667},{"id":1534086,"name":"kamikochi-onsen","country":"jp","lat":36.25,"lon":137.633333},{"id":1529084,"name":"akeshina","country":"jp","lat":36.35,"lon":137.933333},{"id":1535904,"name":"komoro","country":"jp","lat":36.316667,"lon":138.433333},{"id":1535814,"name":"kokukai","country":"jp","lat":35.933333,"lon":138.45},{"id":1533412,"name":"iwa-kubo","country":"jp","lat":35.866667,"lon":138.3},{"id":1540568,"name":"onuma","country":"jp","lat":35.583333,"lon":137.9},{"id":1529249,"name":"aoki-kemi","country":"jp","lat":36.35,"lon":137.883333},{"id":1535454,"name":"kita-ozuma","country":"jp","lat":36.233333,"lon":137.883333},{"id":1538430,"name":"naka-hata","country":"jp","lat":36.183333,"lon":137.85},{"id":1534035,"name":"kami-iino","country":"jp","lat":35.633333,"lon":138.45},{"id":1529889,"name":"chino","country":"jp","lat":35.983333,"lon":138.15},{"id":1545589,"name":"wadamachi","country":"jp","lat":36.2,"lon":137.916667},{"id":1535893,"name":"komiya","country":"jp","lat":36.233333,"lon":137.916667},{"id":1528898,"name":"aida","country":"jp","lat":36.35,"lon":138.0},{"id":1538180,"name":"nada","country":"jp","lat":36.2,"lon":138.216667},{"id":1538954,"name":"nezame","country":"jp","lat":35.766667,"lon":137.7},{"id":1541315,"name":"sakasita","country":"jp","lat":35.566667,"lon":137.533333},{"id":1540182,"name":"okawara","country":"jp","lat":35.55,"lon":138.05},{"id":1532158,"name":"hitoegane","country":"jp","lat":36.233333,"lon":137.533333},{"id":1537335,"name":"minami-ozuma","country":"jp","lat":36.216667,"lon":137.883333},{"id":1542343,"name":"shimo-suwa","country":"jp","lat":36.066667,"lon":138.083333},{"id":1529616,"name":"azusaboshi","country":"jp","lat":36.25,"lon":137.916667},{"id":1543680,"name":"takato","country":"jp","lat":35.833333,"lon":138.066667},{"id":1543909,"name":"tanaka","country":"jp","lat":36.35,"lon":138.333333},{"id":1529710,"name":"bessho","country":"jp","lat":36.35,"lon":138.15},{"id":1542272,"name":"shimo-nii","country":"jp","lat":36.216667,"lon":137.916667},{"id":1545641,"name":"wakamiko","country":"jp","lat":35.783333,"lon":138.416667},{"id":1539033,"name":"niimura","country":"jp","lat":36.216667,"lon":137.9},{"id":1529467,"name":"ashita","country":"jp","lat":36.266667,"lon":138.316667},{"id":1541421,"name":"sanada","country":"jp","lat":36.45,"lon":138.333333},{"id":1542300,"name":"shimo-oike","country":"jp","lat":36.166667,"lon":137.866667},{"id":1532974,"name":"inayawata","country":"jp","lat":35.5,"lon":137.85},{"id":1536864,"name":"managashi","country":"jp","lat":36.083333,"lon":138.483333},{"id":1546340,"name":"yoriaido","country":"jp","lat":36.05,"lon":137.683333},{"id":1534279,"name":"kamisuwa","country":"jp","lat":36.033333,"lon":138.133333},{"id":1532718,"name":"iino","country":"jp","lat":35.633333,"lon":138.466667},{"id":1532950,"name":"ina","country":"jp","lat":35.833333,"lon":137.95},{"id":1536882,"name":"mariko","country":"jp","lat":36.316667,"lon":138.266667},{"id":1539544,"name":"nosawa","country":"jp","lat":36.216667,"lon":138.466667},{"id":1538543,"name":"nakanojo","country":"jp","lat":36.45,"lon":138.2},{"id":1542482,"name":"shin-kazawa","country":"jp","lat":36.466667,"lon":138.45},{"id":1528987,"name":"akaho","country":"jp","lat":35.733333,"lon":137.933333},{"id":1532630,"name":"ichinose","country":"jp","lat":35.733333,"lon":138.083333},{"id":1541272,"name":"sakai","country":"jp","lat":36.466667,"lon":138.183333},{"id":1544101,"name":"tatsuno","country":"jp","lat":35.983333,"lon":138.0},{"id":1542438,"name":"shinden","country":"jp","lat":36.483333,"lon":138.25},{"id":1539480,"name":"nojiri","country":"jp","lat":35.666667,"lon":137.633333},{"id":1537686,"name":"miyata","country":"jp","lat":35.766667,"lon":137.95},{"id":1541138,"name":"ryushima","country":"jp","lat":36.183333,"lon":137.783333},{"id":1538224,"name":"nagakuboshin","country":"jp","lat":36.25,"lon":138.266667},{"id":1543584,"name":"takanomachi","country":"jp","lat":36.15,"lon":138.483333},{"id":1532449,"name":"hotaka","country":"jp","lat":36.333333,"lon":137.883333},{"id":1529981,"name":"daigahara","country":"jp","lat":35.8,"lon":138.35},{"id":1540945,"name":"oya","country":"jp","lat":36.366667,"lon":138.3},{"id":1537162,"name":"midokaito","country":"jp","lat":35.916667,"lon":138.1},{"id":1541613,"name":"sawando","country":"jp","lat":36.166667,"lon":137.65},{"id":1538409,"name":"nakagomi","country":"jp","lat":36.233333,"lon":138.483333},{"id":1538317,"name":"nagawado","country":"jp","lat":36.133333,"lon":137.716667},{"id":1534265,"name":"kami-shiojiri","country":"jp","lat":36.416667,"lon":138.216667},{"id":1535112,"name":"kazawa","country":"jp","lat":36.35,"lon":138.35},{"id":1530919,"name":"gobara","country":"jp","lat":36.133333,"lon":137.933333},{"id":1537783,"name":"mochitsuki","country":"jp","lat":36.266667,"lon":138.366667},{"id":1529849,"name":"chikaraishi","country":"jp","lat":36.45,"lon":138.166667},{"id":1544030,"name":"tashiro","country":"jp","lat":36.483333,"lon":138.466667},{"id":1532072,"name":"hirayu","country":"jp","lat":36.183333,"lon":137.55},{"id":1543439,"name":"taira","country":"jp","lat":36.433333,"lon":138.0},{"id":1542102,"name":"shimodaira","country":"jp","lat":35.733333,"lon":137.966667},{"id":1541520,"name":"sasabe","country":"jp","lat":36.216667,"lon":137.95},{"id":1535274,"name":"kinoshita","country":"jp","lat":35.9,"lon":137.983333},{"id":1535330,"name":"kiso-fukushima","country":"jp","lat":35.85,"lon":137.7},{"id":1537650,"name":"miyanokoshi","country":"jp","lat":35.883333,"lon":137.766667},{"id":1544385,"name":"tokiere","country":"jp","lat":36.4,"lon":138.266667},{"id":1528872,"name":"agematsu","country":"jp","lat":35.783333,"lon":137.7},{"id":1545807,"name":"yagohara","country":"jp","lat":35.933333,"lon":137.783333},{"id":1544331,"name":"toguramachi","country":"jp","lat":36.483333,"lon":138.15},{"id":1536469,"name":"kurosawa","country":"jp","lat":35.85,"lon":137.633333},{"id":1538279,"name":"nagasawa","country":"jp","lat":35.566667,"lon":138.466667},{"id":1546068,"name":"yanaike","country":"jp","lat":36.05,"lon":138.466667},{"id":1533849,"name":"kakeyu","country":"jp","lat":36.3,"lon":138.133333},{"id":1540744,"name":"otaki","country":"jp","lat":35.8,"lon":137.55},{"id":1542525,"name":"shin-seba","country":"jp","lat":36.083333,"lon":137.916667},{"id":1539116,"name":"nirazakimachi","country":"jp","lat":35.7,"lon":138.45},{"id":1533434,"name":"iwamurata","country":"jp","lat":36.266667,"lon":138.466667},{"id":1532703,"name":"iida","country":"jp","lat":35.516667,"lon":137.833333},{"id":1544883,"name":"tsukama","country":"jp","lat":36.216667,"lon":137.983333},{"id":1532763,"name":"ikeda","country":"jp","lat":36.416667,"lon":137.883333},{"id":1532160,"name":"hitoichiba","country":"jp","lat":36.25,"lon":137.9},{"id":1539758,"name":"ochiai","country":"jp","lat":35.516667,"lon":137.533333},{"id":1534440,"name":"kanai","country":"jp","lat":36.35,"lon":138.016667},{"id":1529313,"name":"araragi","country":"jp","lat":35.55,"lon":137.633333},{"id":1540914,"name":"owatari","country":"jp","lat":35.833333,"lon":138.483333},{"id":1535419,"name":"kita-mashino","country":"jp","lat":36.016667,"lon":138.083333},{"id":1530002,"name":"daimon","country":"jp","lat":36.1,"lon":137.966667},{"id":1542279,"name":"shimonogo","country":"jp","lat":36.366667,"lon":138.216667},{"id":1533821,"name":"kajikazawa","country":"jp","lat":35.55,"lon":138.45},{"id":1540027,"name":"ohinata","country":"jp","lat":36.333333,"lon":138.35},{"id":1539202,"name":"nishijo","country":"jp","lat":36.4,"lon":138.016667},{"id":1542599,"name":"shionada","country":"jp","lat":36.266667,"lon":138.416667},{"id":1544551,"name":"tomomachi","country":"jp","lat":36.233333,"lon":138.433333},{"id":1540543,"name":"ono","country":"jp","lat":36.033333,"lon":137.966667},{"id":1532549,"name":"ichiba","country":"jp","lat":35.55,"lon":137.9},{"id":1532040,"name":"hirasawa","country":"jp","lat":35.983333,"lon":137.833333},{"id":1544752,"name":"toyoshina","country":"jp","lat":36.3,"lon":137.9},{"id":1546486,"name":"yukawa","country":"jp","lat":36.033333,"lon":138.233333},{"id":1534021,"name":"kami-honiri","country":"jp","lat":36.266667,"lon":138.15},{"id":1537163,"name":"midono","country":"jp","lat":35.6,"lon":137.616667},{"id":1538223,"name":"nagakubofuru","country":"jp","lat":36.266667,"lon":138.266667},{"id":1537478,"name":"misayamagodo","country":"jp","lat":35.933333,"lon":138.216667},{"id":1533972,"name":"kami-arai","country":"jp","lat":35.6,"lon":137.916667},{"id":1538832,"name":"narada","country":"jp","lat":35.566667,"lon":138.3},{"id":1544342,"name":"toihashi","country":"jp","lat":36.116667,"lon":138.1},{"id":1529011,"name":"akamatsu","country":"jp","lat":36.183333,"lon":137.8},{"id":1538284,"name":"nagase","country":"jp","lat":36.35,"lon":138.283333},{"id":1537619,"name":"miyaki","country":"jp","lat":35.983333,"lon":137.983333},{"id":1529415,"name":"asama","country":"jp","lat":36.266667,"lon":137.983333},{"id":1538055,"name":"murai","country":"jp","lat":36.166667,"lon":137.966667},{"id":1529244,"name":"aoki","country":"jp","lat":36.366667,"lon":138.133333},{"id":1534765,"name":"kasuga","country":"jp","lat":36.216667,"lon":138.35},{"id":1529455,"name":"ashima","country":"jp","lat":35.516667,"lon":137.883333},{"id":1539948,"name":"oguchi","country":"jp","lat":36.066667,"lon":138.05},{"id":1537909,"name":"motai","country":"jp","lat":36.266667,"lon":138.333333},{"id":1544407,"name":"tokiwa","country":"jp","lat":35.816667,"lon":137.65},{"id":1544535,"name":"tomi","country":"jp","lat":36.355816,"lon":138.360932}]});