callback({"markets":[{"id":2533119,"name":"tamyryma","country":"ru","lat":65.65,"lon":122.2},{"id":2526511,"name":"staroye linde","country":"ru","lat":65.7575,"lon":121.558611},{"id":2531964,"name":"syngot","country":"ru","lat":65.638056,"lon":121.613333},{"id":2480775,"name":"orgystyr","country":"ru","lat":65.689444,"lon":121.713056},{"id":2363242,"name":"aragastakh","country":"ru","lat":65.633333,"lon":122.2},{"id":2379332,"name":"borolgustakh","country":"ru","lat":65.59,"lon":121.968333},{"id":2362190,"name":"andylyr","country":"ru","lat":65.95,"lon":121.6},{"id":2534729,"name":"tege","country":"ru","lat":66.2,"lon":121.633333},{"id":2522875,"name":"sosuchan","country":"ru","lat":66.133333,"lon":121.65}]});