callback({"markets":[{"id":2234235,"name":"sholi bazar","country":"pk","lat":25.569917,"lon":62.143617},{"id":2236381,"name":"sur ab","country":"pk","lat":26.1886,"lon":61.866563},{"id":2154113,"name":"bagdar pisi","country":"pk","lat":25.730494,"lon":62.109986},{"id":1395079,"name":"bigadak","country":"ir","lat":25.8651,"lon":61.7808},{"id":2151652,"name":"allah dad bazar","country":"pk","lat":25.703611,"lon":62.434722},{"id":2193609,"name":"hot chat","country":"pk","lat":25.896578,"lon":62.423481},{"id":1432755,"name":"kahir-e borz","country":"ir","lat":25.9064,"lon":61.512},{"id":1451222,"name":"malek","country":"ir","lat":26.383333,"lon":62.1},{"id":2235890,"name":"sui","country":"pk","lat":25.648076,"lon":62.049546},{"id":2222423,"name":"panodi","country":"pk","lat":25.7925,"lon":62.465278},{"id":2152851,"name":"asdi bazar","country":"pk","lat":25.669086,"lon":62.253242},{"id":1432763,"name":"kahirin potan","country":"ir","lat":26.4599,"lon":61.5391},{"id":2198906,"name":"kal chat","country":"pk","lat":25.875556,"lon":62.284722},{"id":2193742,"name":"hur bazar","country":"pk","lat":25.57738,"lon":62.187344},{"id":2153915,"name":"badgar","country":"pk","lat":25.736111,"lon":62.123611},{"id":2192329,"name":"hambarg","country":"pk","lat":26.354409,"lon":62.4066},{"id":1474016,"name":"rahag","country":"ir","lat":26.4481,"lon":61.6164},{"id":2173987,"name":"deward","country":"pk","lat":25.675496,"lon":62.333416},{"id":1466163,"name":"poli gow","country":"ir","lat":25.9,"lon":61.766667},{"id":2218192,"name":"musaseji","country":"pk","lat":25.806389,"lon":62.333333},{"id":1477745,"name":"salah kuh","country":"ir","lat":26.450833,"lon":61.883611},{"id":2198445,"name":"kahirin","country":"pk","lat":25.833328,"lon":62.239157},{"id":2177018,"name":"drachko","country":"pk","lat":25.871272,"lon":62.400193},{"id":2220846,"name":"nokin lene","country":"pk","lat":25.687641,"lon":62.297686},{"id":1392442,"name":"barg dan","country":"ir","lat":26.3989,"lon":61.6424},{"id":2220287,"name":"nazrabad","country":"pk","lat":26.095997,"lon":62.447505},{"id":1425559,"name":"hang","country":"ir","lat":26.4985,"lon":62.2514},{"id":1392894,"name":"basar haseh","country":"ir","lat":26.116944,"lon":61.844722},{"id":2235301,"name":"solan bazar","country":"pk","lat":25.811224,"lon":62.23041},{"id":1475764,"name":"rohgam-e bala","country":"ir","lat":25.583333,"lon":61.516667},{"id":2207726,"name":"kurumb","country":"pk","lat":26.108115,"lon":61.882407},{"id":1475067,"name":"rehad","country":"ir","lat":26.462222,"lon":61.610556},{"id":1477569,"name":"saiyid chah","country":"ir","lat":26.097778,"lon":61.958333},{"id":2162366,"name":"bishali bazar","country":"pk","lat":25.710833,"lon":62.395833},{"id":1431607,"name":"jongaki","country":"ir","lat":26.423611,"lon":62.063889},{"id":2237457,"name":"tangi bazar","country":"pk","lat":25.675118,"lon":62.284339},{"id":2223481,"name":"phulabad","country":"pk","lat":26.126533,"lon":62.393802},{"id":1398471,"name":"chah-e doshanbeh","country":"ir","lat":26.175973,"lon":61.814296},{"id":2217483,"name":"mulai hot","country":"pk","lat":25.893505,"lon":62.450301},{"id":1430660,"name":"janogkalay","country":"ir","lat":26.45,"lon":62.266667},{"id":2165203,"name":"chakar bazar","country":"pk","lat":25.712607,"lon":62.469588},{"id":2232418,"name":"shah seji","country":"pk","lat":25.816944,"lon":62.373889},{"id":2237173,"name":"taloi","country":"pk","lat":25.851601,"lon":62.295587},{"id":1431516,"name":"joghrbit","country":"ir","lat":25.844,"lon":61.5221},{"id":1501786,"name":"zebri","country":"ir","lat":26.359167,"lon":61.730556},{"id":2240337,"name":"tuluy","country":"pk","lat":25.85,"lon":62.3},{"id":1475767,"name":"rohkam","country":"ir","lat":25.623,"lon":61.5016},{"id":2149697,"name":"abdui","country":"pk","lat":26.324167,"lon":62.295},{"id":2242213,"name":"wari","country":"pk","lat":25.516667,"lon":61.7},{"id":2198996,"name":"kalig","country":"pk","lat":26.130577,"lon":62.025243},{"id":2192809,"name":"hasadi","country":"pk","lat":25.673122,"lon":62.245288},{"id":1388155,"name":"`azizabad","country":"ir","lat":25.8729,"lon":61.7727},{"id":2190665,"name":"gurg sechi","country":"pk","lat":25.791043,"lon":62.287647},{"id":1395081,"name":"bigdag","country":"ir","lat":26.220556,"lon":61.735278},{"id":2233040,"name":"shamli","country":"pk","lat":25.807778,"lon":62.196667},{"id":2217666,"name":"mulla wali dad","country":"pk","lat":25.6,"lon":61.908333},{"id":1465970,"name":"pishin","country":"ir","lat":26.079369,"lon":61.754027},{"id":2172316,"name":"dandar","country":"pk","lat":25.682778,"lon":62.112778},{"id":2243622,"name":"ziarati bazar","country":"pk","lat":25.627518,"lon":62.156209},{"id":2194489,"name":"ispikan","country":"pk","lat":26.228868,"lon":62.211107},{"id":1461987,"name":"nurabad","country":"ir","lat":26.089555,"lon":61.603963},{"id":1487710,"name":"shizdan","country":"ir","lat":26.083275,"lon":61.731377},{"id":1441892,"name":"kheyr rud","country":"ir","lat":25.9746,"lon":61.6204},{"id":2178943,"name":"ganar khan","country":"pk","lat":25.667231,"lon":62.261896},{"id":2200728,"name":"karpasi","country":"pk","lat":26.340319,"lon":62.358006},{"id":2207080,"name":"kuchh","country":"pk","lat":25.703496,"lon":62.302257},{"id":1418354,"name":"gat","country":"ir","lat":25.7934,"lon":61.505},{"id":1425556,"name":"hang-e sofla","country":"ir","lat":26.4175,"lon":62.1314},{"id":2169649,"name":"charpan","country":"pk","lat":26.378917,"lon":62.452757},{"id":2154108,"name":"bag","country":"pk","lat":25.826944,"lon":62.141944},{"id":2227673,"name":"rind","country":"pk","lat":25.833333,"lon":61.783333},{"id":1439440,"name":"keshari","country":"ir","lat":25.966667,"lon":61.566667},{"id":2227419,"name":"redik","country":"pk","lat":26.097431,"lon":61.85212},{"id":2240348,"name":"tump","country":"pk","lat":26.101867,"lon":62.365166},{"id":2230302,"name":"santsar","country":"pk","lat":25.515,"lon":61.996667},{"id":2154712,"name":"bahut chat","country":"pk","lat":25.894207,"lon":62.472509},{"id":1455389,"name":"mir dug","country":"ir","lat":26.4229,"lon":61.5845},{"id":2205115,"name":"kohad","country":"pk","lat":26.125304,"lon":62.433543},{"id":1407877,"name":"dazank","country":"ir","lat":26.4046,"lon":61.7131},{"id":1430096,"name":"jaki","country":"ir","lat":26.488,"lon":62.1536},{"id":2215696,"name":"miteng","country":"pk","lat":25.557234,"lon":62.060055},{"id":2178717,"name":"gajjo","country":"pk","lat":26.121111,"lon":61.90168},{"id":1418028,"name":"garm beyt","country":"ir","lat":25.886051,"lon":61.518387},{"id":1439011,"name":"keksuch","country":"ir","lat":25.766667,"lon":61.616667},{"id":1471277,"name":"qasemabad","country":"ir","lat":26.4239,"lon":62.1031},{"id":1389039,"name":"baga-i-dak","country":"ir","lat":25.866667,"lon":61.783333},{"id":2173340,"name":"dazin","country":"pk","lat":26.106315,"lon":62.342963},{"id":1436620,"name":"kane dan","country":"ir","lat":25.883333,"lon":61.775},{"id":1452128,"name":"mardabad","country":"ir","lat":25.9184,"lon":61.7575},{"id":1452462,"name":"martan","country":"ir","lat":26.431989,"lon":61.77117},{"id":1394085,"name":"bennah","country":"ir","lat":26.4186,"lon":61.6309},{"id":1476227,"name":"rudim","country":"ir","lat":26.4475,"lon":61.6548},{"id":2198939,"name":"kalesar bazar","country":"pk","lat":25.897222,"lon":62.164722},{"id":2217484,"name":"mulai nagore","country":"pk","lat":25.617353,"lon":62.241144},{"id":1426100,"name":"hasanabad","country":"ir","lat":26.4227,"lon":61.6646},{"id":2228118,"name":"sa-ado kalat","country":"pk","lat":25.613889,"lon":62.129167},{"id":2207315,"name":"kulmir sunt","country":"pk","lat":25.680556,"lon":61.930556},{"id":2200126,"name":"kapkapar","country":"pk","lat":25.826342,"lon":62.212344},{"id":1417891,"name":"garin parak","country":"ir","lat":25.9578,"lon":61.7442},{"id":2176153,"name":"dil-i-hakim","country":"pk","lat":25.644734,"lon":62.101676},{"id":1428813,"name":"hutabad","country":"ir","lat":26.089378,"lon":61.698771},{"id":1412288,"name":"dorug","country":"ir","lat":25.933333,"lon":61.75},{"id":1426762,"name":"hekegur","country":"ir","lat":26.128974,"lon":61.516919},{"id":2234454,"name":"sibdan","country":"pk","lat":25.894722,"lon":62.485556},{"id":1432849,"name":"kahnan kash","country":"ir","lat":25.9109,"lon":61.5314},{"id":1475412,"name":"rigsar","country":"ir","lat":26.4353,"lon":61.5751},{"id":1501186,"name":"zardbun","country":"ir","lat":25.8849,"lon":61.7825},{"id":1405522,"name":"dargaz","country":"ir","lat":25.8464,"lon":61.5049},{"id":1428288,"name":"hoseynabad","country":"ir","lat":25.9157,"lon":61.756},{"id":1423661,"name":"gurshun","country":"ir","lat":26.141697,"lon":61.761136},{"id":2235462,"name":"sorgo","country":"pk","lat":25.866111,"lon":62.211667},{"id":2230562,"name":"sardab","country":"pk","lat":25.666111,"lon":62.050278},{"id":2227956,"name":"rudsar","country":"pk","lat":25.682547,"lon":62.336713},{"id":2190821,"name":"gwar manzil","country":"pk","lat":25.755556,"lon":61.859722},{"id":2205274,"name":"konbal","country":"pk","lat":25.723138,"lon":62.223106},{"id":1425555,"name":"hang-e `olya","country":"ir","lat":26.4067,"lon":62.1311},{"id":2207399,"name":"kunar bazar","country":"pk","lat":25.709722,"lon":62.412778},{"id":2207583,"name":"kuput kum","country":"pk","lat":25.85,"lon":62.074167},{"id":1424525,"name":"hajjiabad-e keshari","country":"ir","lat":25.9831,"lon":61.6575},{"id":1431720,"name":"jowgarbit","country":"ir","lat":25.8291,"lon":61.5245},{"id":2207743,"name":"kush kalat","country":"pk","lat":26.106243,"lon":62.415389},{"id":1382384,"name":"alad","country":"ir","lat":26.086355,"lon":61.769435},{"id":2237270,"name":"tamp kuh","country":"pk","lat":25.5,"lon":61.65},{"id":2211456,"name":"makke bazar","country":"pk","lat":25.706654,"lon":62.285705},{"id":2170391,"name":"chhawar","country":"pk","lat":25.533333,"lon":61.891667},{"id":2155394,"name":"balnigore","country":"pk","lat":25.831667,"lon":62.258333},{"id":2215695,"name":"mitasing","country":"pk","lat":25.902137,"lon":62.049935},{"id":1449855,"name":"machi shef","country":"ir","lat":25.797222,"lon":61.7675},{"id":2199020,"name":"kaliro","country":"pk","lat":25.518108,"lon":62.002041},{"id":1465456,"name":"pipal","country":"ir","lat":25.916667,"lon":61.808333},{"id":2218035,"name":"murid chah","country":"pk","lat":26.18813,"lon":61.895931},{"id":2197806,"name":"jubak","country":"pk","lat":25.9,"lon":62.230278},{"id":1451696,"name":"mandmitab","country":"ir","lat":26.080095,"lon":61.761804},{"id":2223932,"name":"pipai","country":"pk","lat":25.933333,"lon":61.841667},{"id":1380548,"name":"abshar","country":"ir","lat":25.933333,"lon":61.566667},{"id":1418029,"name":"garm bit-e bala","country":"ir","lat":25.8906,"lon":61.5169},{"id":2190492,"name":"gumazgi","country":"pk","lat":26.125358,"lon":62.303762},{"id":1439441,"name":"keshari-ye azadi","country":"ir","lat":25.9674,"lon":61.5805},{"id":1394060,"name":"bengal","country":"ir","lat":26.4481,"lon":62.0896},{"id":2231904,"name":"shahbeg kalat","country":"pk","lat":26.131452,"lon":62.098749},{"id":2190816,"name":"gwargi sunt","country":"pk","lat":25.940833,"lon":62.173056},{"id":2163234,"name":"bundi bazar","country":"pk","lat":25.815244,"lon":62.231463},{"id":2240319,"name":"tulgarh","country":"pk","lat":25.777061,"lon":62.1428},{"id":1446032,"name":"kuchuk","country":"ir","lat":25.8709,"lon":61.7794},{"id":1476969,"name":"sa`d kastag","country":"ir","lat":25.9516,"lon":61.7529},{"id":2195732,"name":"jangal","country":"pk","lat":25.84453,"lon":62.333113},{"id":2234236,"name":"sholi","country":"pk","lat":25.557142,"lon":62.141877},{"id":2170411,"name":"chhib","country":"pk","lat":25.525,"lon":61.733333},{"id":1434995,"name":"kalat-e rowghan","country":"ir","lat":26.416667,"lon":61.666667},{"id":2212451,"name":"mand","country":"pk","lat":26.119763,"lon":62.029925},{"id":1423099,"name":"gukani","country":"ir","lat":26.063655,"lon":61.697666},{"id":2181247,"name":"gil kand","country":"pk","lat":25.708859,"lon":62.01777},{"id":1418030,"name":"garm bit-e pain","country":"ir","lat":25.8643,"lon":61.5187},{"id":1438686,"name":"kavari","country":"ir","lat":26.442778,"lon":62.0925},{"id":2214533,"name":"mezan-i-bund","country":"pk","lat":25.876594,"lon":62.478636},{"id":2237092,"name":"talgan matig","country":"pk","lat":25.69578,"lon":62.385064},{"id":2200558,"name":"karkak","country":"pk","lat":25.772031,"lon":62.424999},{"id":2155154,"name":"bakri","country":"pk","lat":25.516667,"lon":61.916667},{"id":2152937,"name":"asia abad","country":"pk","lat":26.087256,"lon":62.478493},{"id":1428821,"name":"hutgat-e bala","country":"ir","lat":25.8048,"lon":61.5144},{"id":2169722,"name":"chati nagore","country":"pk","lat":25.626556,"lon":62.229331},{"id":1404890,"name":"dan sar","country":"ir","lat":25.9353,"lon":61.7525},{"id":1388083,"name":"azati","country":"ir","lat":25.9706,"lon":61.5704},{"id":1426739,"name":"hegshi keruchan","country":"ir","lat":26.4122,"lon":61.5031},{"id":2243371,"name":"zaren bug","country":"pk","lat":25.642032,"lon":62.181346},{"id":2217626,"name":"mullan","country":"pk","lat":26.126834,"lon":61.885007},{"id":2200557,"name":"karkak","country":"pk","lat":25.769096,"lon":62.381124},{"id":2236407,"name":"surak","country":"pk","lat":25.855,"lon":62.274722},{"id":2225044,"name":"puthan bazar","country":"pk","lat":25.577747,"lon":62.053187},{"id":1457640,"name":"mowlaabad-e keshari","country":"ir","lat":25.9804,"lon":61.6285},{"id":2172821,"name":"darjku","country":"pk","lat":25.883333,"lon":62.4},{"id":2181520,"name":"gohrag-i-daf","country":"pk","lat":25.666182,"lon":62.207519},{"id":2217575,"name":"mullah bazar","country":"pk","lat":25.538323,"lon":62.018892},{"id":1406842,"name":"darumak","country":"ir","lat":25.934,"lon":61.7568},{"id":2227386,"name":"razariban","country":"pk","lat":26.083333,"lon":62.466667},{"id":2168997,"name":"chalo","country":"pk","lat":25.55,"lon":61.883333},{"id":1418933,"name":"gazdan","country":"ir","lat":26.084444,"lon":61.747166},{"id":2237522,"name":"tank bazar","country":"pk","lat":25.748975,"lon":62.263199},{"id":1490956,"name":"surag","country":"ir","lat":26.08911,"lon":61.751475},{"id":2218508,"name":"nagar bazar","country":"pk","lat":25.611904,"lon":62.243434},{"id":2227652,"name":"rikri","country":"pk","lat":25.6875,"lon":62.27},{"id":2193667,"name":"hujjat bazar","country":"pk","lat":25.528182,"lon":62.032215},{"id":1489707,"name":"soheyl","country":"ir","lat":25.7149,"lon":61.5091},{"id":1422447,"name":"gorudal","country":"ir","lat":25.9503,"lon":61.5532},{"id":1448300,"name":"laksar","country":"ir","lat":26.077822,"lon":61.744929},{"id":2181522,"name":"gohrag shahani","country":"pk","lat":25.774722,"lon":62.198611},{"id":2195272,"name":"jalsar","country":"pk","lat":26.133333,"lon":62.083333},{"id":2216574,"name":"mozas-i-bund","country":"pk","lat":25.888336,"lon":62.49092},{"id":2224893,"name":"punun","country":"pk","lat":25.698023,"lon":62.330646},{"id":1489416,"name":"sirin kur","country":"ir","lat":26.162641,"lon":61.563578},{"id":2172161,"name":"dalsar bazar","country":"pk","lat":25.6025,"lon":62.051667},{"id":2177452,"name":"durakju","country":"pk","lat":26.104867,"lon":62.397408},{"id":2243120,"name":"zahran bak","country":"pk","lat":25.616667,"lon":62.183333},{"id":2215120,"name":"miran","country":"pk","lat":25.516667,"lon":61.958333},{"id":2224366,"name":"pirotak","country":"pk","lat":25.808416,"lon":62.334426},{"id":2225018,"name":"puru","country":"pk","lat":25.820278,"lon":62.148889},{"id":2179778,"name":"gawak","country":"pk","lat":26.107042,"lon":62.073063},{"id":2193610,"name":"hot chat","country":"pk","lat":25.883614,"lon":62.445515},{"id":2229727,"name":"saman","country":"pk","lat":25.544444,"lon":61.675833},{"id":2210212,"name":"machat","country":"pk","lat":25.860823,"lon":62.343418},{"id":2241748,"name":"wakai","country":"pk","lat":26.32301,"lon":62.499404},{"id":2243122,"name":"zahran","country":"pk","lat":25.608333,"lon":61.791667},{"id":2177360,"name":"dumb bazar","country":"pk","lat":25.808831,"lon":62.227953},{"id":1488455,"name":"shur zhogol","country":"ir","lat":26.4337,"lon":62.0618},{"id":1448552,"name":"langaru","country":"ir","lat":25.8845,"lon":61.7721},{"id":2207070,"name":"kucha","country":"pk","lat":25.768451,"lon":62.150787},{"id":1433047,"name":"kahri","country":"ir","lat":26.3546,"lon":61.7372},{"id":1415000,"name":"`eydi kand-e vor","country":"ir","lat":25.9466,"lon":61.7366},{"id":2238015,"name":"tath","country":"pk","lat":25.853352,"lon":62.371053},{"id":1433461,"name":"kalag","country":"ir","lat":26.4587,"lon":61.5631},{"id":2181519,"name":"gohrag","country":"pk","lat":25.804722,"lon":62.173611},{"id":2157119,"name":"basham chil","country":"pk","lat":25.757758,"lon":62.238929},{"id":2234830,"name":"sirag","country":"pk","lat":26.175296,"lon":61.904329},{"id":2170028,"name":"chero bazar","country":"pk","lat":25.818244,"lon":62.234909}]});