callback({"markets":[{"id":1334616,"name":"gomewali","country":"in","lat":29.041667,"lon":73.435556},{"id":1324498,"name":"balochia","country":"in","lat":29.245556,"lon":73.454722},{"id":2203275,"name":"khichchiwala","country":"pk","lat":29.330278,"lon":72.965556},{"id":1352026,"name":"poharwala","country":"in","lat":29.173333,"lon":73.061111},{"id":2199377,"name":"kamar","country":"pk","lat":28.95,"lon":72.716667},{"id":2178310,"name":"fort abbas","country":"pk","lat":29.1925,"lon":72.853611},{"id":1355409,"name":"sarangsar","country":"in","lat":28.516667,"lon":72.6},{"id":1353516,"name":"ranawala","country":"in","lat":28.583333,"lon":72.916667},{"id":1357743,"name":"sukhchainpura","country":"in","lat":29.338333,"lon":73.366667},{"id":1338466,"name":"kakrala","country":"in","lat":28.616667,"lon":72.966667},{"id":1323027,"name":"anupgarh","country":"in","lat":29.191111,"lon":73.208611},{"id":1331482,"name":"dhaba","country":"in","lat":29.015556,"lon":73.303333},{"id":1352289,"name":"pugal","country":"in","lat":28.5,"lon":72.8},{"id":1340404,"name":"khai","country":"in","lat":29.087222,"lon":73.363056},{"id":1325512,"name":"baror","country":"in","lat":29.161944,"lon":73.339444},{"id":1351620,"name":"phulan","country":"in","lat":28.983333,"lon":73.183333},{"id":1346914,"name":"motasur","country":"in","lat":28.633333,"lon":73.433333},{"id":1354762,"name":"sakhi","country":"in","lat":28.95,"lon":72.866667},{"id":1326404,"name":"bhagsar","country":"in","lat":29.116667,"lon":73.449722},{"id":1354204,"name":"rojri","country":"in","lat":28.816667,"lon":73.083333},{"id":2213018,"name":"manu toba","country":"pk","lat":28.866667,"lon":72.516667},{"id":1354506,"name":"sadolai","country":"in","lat":28.616667,"lon":73.283333},{"id":1329212,"name":"chattargarh","country":"in","lat":28.683333,"lon":73.116667},{"id":1340759,"name":"kharbara","country":"in","lat":28.933333,"lon":73.416667},{"id":1322814,"name":"anandgarh","country":"in","lat":28.783333,"lon":72.966667},{"id":2230595,"name":"sardariwala","country":"pk","lat":29.273889,"lon":72.838056},{"id":1326191,"name":"beriwala","country":"in","lat":28.7,"lon":72.65},{"id":2160701,"name":"bhadiaranwala khuh","country":"pk","lat":29.133333,"lon":72.533333},{"id":1359052,"name":"tharusar","country":"in","lat":28.516667,"lon":72.983333},{"id":1331472,"name":"dewasar","country":"in","lat":28.883333,"lon":73.466667},{"id":1351652,"name":"phulsar","country":"in","lat":28.85,"lon":72.966667},{"id":1348806,"name":"naushehra","country":"in","lat":28.616667,"lon":72.65},{"id":1355714,"name":"satianda","country":"in","lat":29.401389,"lon":73.481389},{"id":1345560,"name":"manna","country":"in","lat":28.566667,"lon":73.383333},{"id":2207384,"name":"kumrani","country":"pk","lat":29.385473,"lon":73.123811},{"id":2223561,"name":"phulra","country":"pk","lat":29.179722,"lon":72.860833},{"id":2177820,"name":"faqirwali","country":"pk","lat":29.466307,"lon":73.034034},{"id":1336195,"name":"hisamki","country":"in","lat":29.083333,"lon":73.05},{"id":1344250,"name":"madiali","country":"in","lat":28.683333,"lon":73.316667},{"id":2241900,"name":"wallar","country":"pk","lat":29.256285,"lon":73.027517},{"id":1343538,"name":"lapur bara","country":"in","lat":29.412222,"lon":73.279167},{"id":1356536,"name":"shivpura","country":"in","lat":29.316667,"lon":73.283333},{"id":1353542,"name":"raner","country":"in","lat":28.883333,"lon":73.283333},{"id":1330703,"name":"dandu","country":"in","lat":28.883333,"lon":73.116667},{"id":1321932,"name":"adamwala kera","country":"in","lat":29.05,"lon":72.983333}]});