callback({"markets":[{"id":2904933,"name":"kyabagoye","country":"ug","lat":1.0333333,"lon":32.1166667},{"id":2905630,"name":"masode","country":"ug","lat":0.9666667,"lon":31.75},{"id":2905711,"name":"miduma","country":"ug","lat":1.4,"lon":31.8333333},{"id":2906153,"name":"nakatoma","country":"ug","lat":1.4833333,"lon":32.2333333},{"id":2904932,"name":"kyabaganga","country":"ug","lat":1.4333333,"lon":32.4333333},{"id":2906448,"name":"ndeje","country":"ug","lat":0.6075,"lon":32.4772222},{"id":2906002,"name":"mwera","country":"ug","lat":0.6666667,"lon":32.45},{"id":2905323,"name":"lukumbi","country":"ug","lat":0.85,"lon":32.2333333},{"id":2902538,"name":"bukuku","country":"ug","lat":0.5666667,"lon":32.2666667},{"id":2906565,"name":"nkuzongire","country":"ug","lat":0.6333333,"lon":32.3333333},{"id":2904358,"name":"kigondo","country":"ug","lat":0.8333333,"lon":31.55},{"id":2904782,"name":"kiwaguzi","country":"ug","lat":1.0,"lon":32.05},{"id":2904645,"name":"kisimula","country":"ug","lat":0.6666667,"lon":32.1833333},{"id":2903756,"name":"kampindi","country":"ug","lat":0.7166667,"lon":32.1666667},{"id":2904433,"name":"kikoba","country":"ug","lat":0.6833333,"lon":32.1},{"id":2904904,"name":"kufu","country":"ug","lat":0.6333333,"lon":32.25},{"id":2904469,"name":"kikulula","country":"ug","lat":0.7833333,"lon":31.5666667},{"id":2906788,"name":"nyegeza","country":"ug","lat":0.6833333,"lon":31.5166667},{"id":2906297,"name":"nambeya","country":"ug","lat":0.65,"lon":32.35},{"id":2906614,"name":"nsonyira","country":"ug","lat":1.25,"lon":32.1},{"id":2903670,"name":"kalege","country":"ug","lat":0.6,"lon":32.2666667},{"id":2904252,"name":"kibangya","country":"ug","lat":1.45,"lon":32.3166667},{"id":2904123,"name":"katungulu","country":"ug","lat":0.5666667,"lon":32.0833333},{"id":2904236,"name":"kibale","country":"ug","lat":1.2,"lon":31.8166667},{"id":2907666,"name":"wankaka","country":"ug","lat":1.4,"lon":32.1666667},{"id":2903922,"name":"kasambya","country":"ug","lat":1.0166667,"lon":32.45},{"id":2904493,"name":"kilyokya","country":"ug","lat":0.5833333,"lon":32.0333333},{"id":2902236,"name":"biwanga","country":"ug","lat":1.0666667,"lon":32.15},{"id":2904063,"name":"katera","country":"ug","lat":0.6897222,"lon":32.0122222},{"id":2903600,"name":"kakira","country":"ug","lat":1.15,"lon":32.45},{"id":2905062,"name":"kyanuna","country":"ug","lat":0.55,"lon":32.2333333},{"id":2906090,"name":"nagela","country":"ug","lat":0.9666667,"lon":32.1333333},{"id":2904722,"name":"kitenga","country":"ug","lat":0.5166667,"lon":31.5},{"id":2902956,"name":"buyondo","country":"ug","lat":0.9666667,"lon":31.6},{"id":2902887,"name":"buwana","country":"ug","lat":1.1666667,"lon":32.2},{"id":2905136,"name":"kyetume","country":"ug","lat":0.9,"lon":31.8166667},{"id":2902871,"name":"butuntumula","country":"ug","lat":0.8666667,"lon":32.4833333},{"id":2904640,"name":"kisigala","country":"ug","lat":0.5166667,"lon":31.95},{"id":2902831,"name":"buteka","country":"ug","lat":0.5833333,"lon":31.7333333},{"id":2905715,"name":"miginye","country":"ug","lat":0.6666667,"lon":32.35},{"id":2902895,"name":"buwanku","country":"ug","lat":1.2333333,"lon":31.9},{"id":2903823,"name":"kanyale","country":"ug","lat":0.9166667,"lon":32.1833333},{"id":2903886,"name":"karienda","country":"ug","lat":1.1333333,"lon":32.2},{"id":2906133,"name":"nakasejere","country":"ug","lat":1.0,"lon":32.1833333},{"id":2907459,"name":"sikye","country":"ug","lat":1.3166667,"lon":32.4},{"id":2906454,"name":"ndirawelu","country":"ug","lat":0.7,"lon":31.9833333},{"id":2906654,"name":"nvunano","country":"ug","lat":0.6,"lon":32.2333333},{"id":2906213,"name":"nalakonge","country":"ug","lat":1.3666667,"lon":32.25},{"id":2903609,"name":"kakoge","country":"ug","lat":1.0566667,"lon":32.4561111},{"id":2905407,"name":"lwamangu","country":"ug","lat":0.9919444,"lon":32.3144444},{"id":2902760,"name":"busika","country":"ug","lat":1.0833333,"lon":31.6},{"id":2906043,"name":"nabitayo","country":"ug","lat":1.0666667,"lon":32.25},{"id":2904462,"name":"kikubanimba","country":"ug","lat":0.85,"lon":32.4166667},{"id":2904934,"name":"kyabajonjo","country":"ug","lat":1.1666667,"lon":31.55},{"id":2902399,"name":"bugulama","country":"ug","lat":1.0833333,"lon":31.5},{"id":2907603,"name":"wabisise","country":"ug","lat":1.2,"lon":32.3833333},{"id":2907638,"name":"walabungo","country":"ug","lat":1.45,"lon":32.2666667},{"id":2906124,"name":"nakalama","country":"ug","lat":1.3333333,"lon":31.9},{"id":2903366,"name":"kabanga","country":"ug","lat":0.9833333,"lon":31.6833333},{"id":2902337,"name":"buganyi","country":"ug","lat":0.8,"lon":31.5666667},{"id":2903328,"name":"jemba","country":"ug","lat":0.5333333,"lon":31.7833333},{"id":2904308,"name":"kidada","country":"ug","lat":0.95,"lon":31.7166667},{"id":2906648,"name":"ntwetwe","country":"ug","lat":0.9547222,"lon":31.5741667},{"id":2905573,"name":"makonzi","country":"ug","lat":0.5833333,"lon":31.8333333},{"id":2903846,"name":"kanyogoga","country":"ug","lat":0.9333333,"lon":32.4},{"id":2904551,"name":"kiramata","country":"ug","lat":1.4,"lon":32.35},{"id":2905668,"name":"mbaja","country":"ug","lat":1.2666667,"lon":32.1},{"id":2904488,"name":"kilinda","country":"ug","lat":0.95,"lon":32.1833333},{"id":2904672,"name":"kisubi","country":"ug","lat":0.9333333,"lon":32.3},{"id":2902665,"name":"bumomi","country":"ug","lat":1.2333333,"lon":31.7833333},{"id":2905812,"name":"mpiita","country":"ug","lat":0.9,"lon":32.0166667},{"id":2906040,"name":"nabitakuli","country":"ug","lat":1.0666667,"lon":31.6333333},{"id":2906142,"name":"nakasongola","country":"ug","lat":1.3088889,"lon":32.4563889},{"id":2907648,"name":"wamukende","country":"ug","lat":1.35,"lon":32.25},{"id":2906493,"name":"ngoma","country":"ug","lat":1.1608333,"lon":32.0227778},{"id":2904414,"name":"kijumbi","country":"ug","lat":1.0333333,"lon":32.0333333},{"id":2903094,"name":"debeza","country":"ug","lat":0.6494444,"lon":31.5188889},{"id":2904617,"name":"kisalizi","country":"ug","lat":1.0833333,"lon":32.0833333},{"id":2905108,"name":"kyekumbya","country":"ug","lat":0.8333333,"lon":31.85},{"id":2905332,"name":"lulenge","country":"ug","lat":1.4166667,"lon":31.9333333},{"id":2904417,"name":"kijwa","country":"ug","lat":0.6833333,"lon":31.8666667},{"id":2905081,"name":"kyato","country":"ug","lat":0.7,"lon":31.6666667},{"id":2903158,"name":"gala","country":"ug","lat":1.3,"lon":31.8166667},{"id":2905095,"name":"kyeganywa","country":"ug","lat":1.4666667,"lon":32.1833333},{"id":2906039,"name":"nabiswera","country":"ug","lat":1.46,"lon":32.2647222},{"id":2904750,"name":"kitontogolo","country":"ug","lat":1.3833333,"lon":32.1666667},{"id":2903726,"name":"kalyango","country":"ug","lat":0.8333333,"lon":31.8},{"id":2906226,"name":"nalulongo","country":"ug","lat":1.4833333,"lon":32.3666667},{"id":2904403,"name":"kijogojo","country":"ug","lat":1.3166667,"lon":31.6},{"id":2905493,"name":"mabindo","country":"ug","lat":0.6333333,"lon":31.8166667},{"id":2904618,"name":"kisamba","country":"ug","lat":0.5833333,"lon":32.1333333},{"id":2905006,"name":"kyamiyingo","country":"ug","lat":1.4,"lon":32.45},{"id":2905376,"name":"luwero","country":"ug","lat":0.8491667,"lon":32.4730556},{"id":2906223,"name":"nalukange","country":"ug","lat":1.3666667,"lon":32.4166667},{"id":2904397,"name":"kijaguzo","country":"ug","lat":1.0666667,"lon":32.45},{"id":2905413,"name":"lwamaungu","country":"ug","lat":0.9986111,"lon":32.3102778},{"id":2904697,"name":"kitantalo","country":"ug","lat":1.2166667,"lon":32.3333333},{"id":2905324,"name":"lukumbi","country":"ug","lat":0.5833333,"lon":32.25},{"id":2905022,"name":"kyamukama","country":"ug","lat":1.4313889,"lon":32.2102778},{"id":2907599,"name":"wabigalo","country":"ug","lat":1.2666667,"lon":32.45},{"id":2905295,"name":"luguzi","country":"ug","lat":0.5,"lon":32.1333333},{"id":2903168,"name":"gangu","country":"ug","lat":0.7,"lon":32.3166667},{"id":2903898,"name":"kasaala","country":"ug","lat":0.8816667,"lon":32.4922222},{"id":2904591,"name":"kirumi","country":"ug","lat":1.3,"lon":32.2833333},{"id":2906370,"name":"nandere","country":"ug","lat":0.6288889,"lon":32.4944444},{"id":2902250,"name":"bowa","country":"ug","lat":0.6644444,"lon":32.4638889},{"id":2903734,"name":"kamalenge","country":"ug","lat":0.8030556,"lon":31.7763889},{"id":2904977,"name":"kyakala","country":"ug","lat":1.4166667,"lon":32.2666667},{"id":2904969,"name":"kyakabira","country":"ug","lat":1.4,"lon":32.0833333},{"id":2907424,"name":"sebanda","country":"ug","lat":0.6166667,"lon":32.2},{"id":2906592,"name":"nsanvu","country":"ug","lat":0.8166667,"lon":31.5333333},{"id":2904489,"name":"kilinya","country":"ug","lat":0.6833333,"lon":32.3666667},{"id":2903339,"name":"junda","country":"ug","lat":1.1166667,"lon":32.0166667},{"id":2904426,"name":"kikandwa","country":"ug","lat":0.6347222,"lon":32.1111111},{"id":2904826,"name":"kiziba","country":"ug","lat":0.5138889,"lon":32.3505556},{"id":2902509,"name":"bukoki","country":"ug","lat":1.0333333,"lon":32.1666667},{"id":2905487,"name":"mabale","country":"ug","lat":0.8833333,"lon":32.35},{"id":2904477,"name":"kikuta","country":"ug","lat":0.6,"lon":32.05},{"id":2902141,"name":"bale","country":"ug","lat":1.4333333,"lon":32.0333333},{"id":2905126,"name":"kyensongaza","country":"ug","lat":1.0833333,"lon":32.3166667},{"id":2903175,"name":"gayaza","country":"ug","lat":0.95,"lon":31.5166667},{"id":2902634,"name":"bulungi","country":"ug","lat":1.1166667,"lon":31.9666667},{"id":2902666,"name":"bumomi","country":"ug","lat":1.35,"lon":32.05},{"id":2906146,"name":"nakatete","country":"ug","lat":0.5333333,"lon":31.7166667},{"id":2903446,"name":"kabuye","country":"ug","lat":1.3833333,"lon":32.4166667},{"id":2904945,"name":"kyabaune","country":"ug","lat":1.0666667,"lon":31.8666667},{"id":2905426,"name":"lwanama","country":"ug","lat":1.4333333,"lon":32.35},{"id":2905018,"name":"kyamugambanenda","country":"ug","lat":1.25,"lon":32.3666667},{"id":2903857,"name":"kanzize","country":"ug","lat":0.5666667,"lon":32.3666667},{"id":2906037,"name":"nabisoga","country":"ug","lat":0.85,"lon":31.8},{"id":2907631,"name":"wakayiba","country":"ug","lat":0.6333333,"lon":31.6166667},{"id":2902195,"name":"bika","country":"ug","lat":0.5166667,"lon":32.3833333},{"id":2906608,"name":"nsolo","country":"ug","lat":1.2333333,"lon":32.35},{"id":2905373,"name":"luwami","country":"ug","lat":0.55,"lon":32.3333333},{"id":2906313,"name":"nampiki","country":"ug","lat":1.1666667,"lon":31.6333333},{"id":2906314,"name":"nampiki","country":"ug","lat":1.2666667,"lon":32.3333333},{"id":2904983,"name":"kyakidu","country":"ug","lat":0.6833333,"lon":31.7},{"id":2903832,"name":"kanyanda","country":"ug","lat":0.6,"lon":32.3666667},{"id":2906008,"name":"mweya","country":"ug","lat":0.6833333,"lon":31.9},{"id":2902318,"name":"bugaba","country":"ug","lat":1.1666667,"lon":31.5833333},{"id":2904813,"name":"kiyotosi","country":"ug","lat":1.3333333,"lon":32.1333333},{"id":2905061,"name":"kyantama","country":"ug","lat":1.1,"lon":32.2666667},{"id":2906578,"name":"nsala","country":"ug","lat":0.8,"lon":31.9},{"id":2902562,"name":"bukwiri","country":"ug","lat":1.1308333,"lon":31.5905556},{"id":2903501,"name":"kagalama","country":"ug","lat":1.3166667,"lon":31.5333333},{"id":2907415,"name":"sambwe","country":"ug","lat":0.5666667,"lon":32.4833333},{"id":2906237,"name":"namadzi","country":"ug","lat":0.7333333,"lon":32.2},{"id":2906208,"name":"nakwaya","country":"ug","lat":0.6666667,"lon":32.0833333},{"id":2905681,"name":"mbiridzi","country":"ug","lat":0.95,"lon":32.1},{"id":2904634,"name":"kisendwe","country":"ug","lat":0.9666667,"lon":32.0333333},{"id":2903724,"name":"kalyampande","country":"ug","lat":1.45,"lon":32.1},{"id":2907455,"name":"sigogwesere","country":"ug","lat":1.0166667,"lon":32.2166667},{"id":2906165,"name":"nakawungu","country":"ug","lat":0.6666667,"lon":32.3833333},{"id":2907429,"name":"seganga","country":"ug","lat":0.5333333,"lon":32.3166667},{"id":2904828,"name":"kizigo","country":"ug","lat":0.6166667,"lon":32.15},{"id":2906061,"name":"nabulagala","country":"ug","lat":1.0333333,"lon":32.4},{"id":2904439,"name":"kikoloto","country":"ug","lat":0.8166667,"lon":31.6666667},{"id":2904240,"name":"kibale","country":"ug","lat":0.7666667,"lon":32.4166667},{"id":2906466,"name":"nfuka","country":"ug","lat":0.7333333,"lon":31.7333333},{"id":2904322,"name":"kidukulu","country":"ug","lat":1.1,"lon":32.4},{"id":2902599,"name":"bulera","country":"ug","lat":0.5041667,"lon":32.0202778},{"id":2903929,"name":"kasanda","country":"ug","lat":0.5566667,"lon":31.8022222},{"id":2904395,"name":"kijaguzo","country":"ug","lat":1.3166667,"lon":31.7833333},{"id":2906272,"name":"namasuba","country":"ug","lat":0.6894444,"lon":32.4213889},{"id":2905030,"name":"kyamusisi","country":"ug","lat":0.6166667,"lon":31.9},{"id":2903022,"name":"bweyongede","country":"ug","lat":0.6166667,"lon":31.6},{"id":2904380,"name":"kigwanya","country":"ug","lat":0.8333333,"lon":32.0166667},{"id":2905926,"name":"mumasole","country":"ug","lat":1.2166667,"lon":31.55},{"id":2902835,"name":"butemba","country":"ug","lat":1.1594444,"lon":31.6108333},{"id":2906580,"name":"nsambya","country":"ug","lat":1.2638889,"lon":31.5086111},{"id":2906110,"name":"nakabala","country":"ug","lat":1.1333333,"lon":31.6333333},{"id":2904499,"name":"kimbeja","country":"ug","lat":0.7333333,"lon":31.7833333},{"id":2903814,"name":"kansami","country":"ug","lat":1.4666667,"lon":32.4166667},{"id":2904383,"name":"kigweri","country":"ug","lat":1.0933333,"lon":32.0433333},{"id":2907626,"name":"wakasimba","country":"ug","lat":1.15,"lon":32.4833333},{"id":2904447,"name":"kikondo","country":"ug","lat":1.0166667,"lon":32.25},{"id":2904364,"name":"kigugu","country":"ug","lat":0.75,"lon":32.4833333},{"id":2903162,"name":"gamba","country":"ug","lat":0.6333333,"lon":32.0666667},{"id":2904118,"name":"katuku","country":"ug","lat":0.95,"lon":31.7666667},{"id":2902312,"name":"budzi","country":"ug","lat":1.25,"lon":31.95},{"id":2902446,"name":"bujugwa","country":"ug","lat":1.15,"lon":32.0333333},{"id":2904182,"name":"kayina","country":"ug","lat":0.95,"lon":32.1333333},{"id":2903177,"name":"gayaza","country":"ug","lat":0.5333333,"lon":31.9166667},{"id":2903516,"name":"kagobe","country":"ug","lat":0.9,"lon":31.8},{"id":2902353,"name":"bugeye","country":"ug","lat":1.1166667,"lon":32.2666667},{"id":2904957,"name":"kyabutaika","country":"ug","lat":1.0833333,"lon":32.4666667},{"id":2903211,"name":"gomero","country":"ug","lat":1.2166667,"lon":32.0333333},{"id":2906117,"name":"nakabiso","country":"ug","lat":1.0333333,"lon":32.15},{"id":2904579,"name":"kirolo","country":"ug","lat":0.5666667,"lon":32.4333333},{"id":2906046,"name":"nabitete","country":"ug","lat":0.6333333,"lon":32.15},{"id":2902170,"name":"bawalakata","country":"ug","lat":0.8666667,"lon":32.3333333},{"id":2904425,"name":"kikamulo","country":"ug","lat":0.8333333,"lon":32.3666667},{"id":2904665,"name":"kisozi","country":"ug","lat":1.3833333,"lon":31.9},{"id":2902149,"name":"bamasuta","country":"ug","lat":0.6333333,"lon":32.4833333},{"id":2905713,"name":"migera","country":"ug","lat":1.4166667,"lon":32.25},{"id":2902522,"name":"bukomero","country":"ug","lat":0.6975,"lon":32.0286111},{"id":2905995,"name":"mwanga","country":"ug","lat":0.7166667,"lon":31.9666667},{"id":2903485,"name":"kadunda","country":"ug","lat":0.6333333,"lon":32.2333333},{"id":2904146,"name":"kawanda","country":"ug","lat":0.8333333,"lon":31.9166667},{"id":2903513,"name":"kagembe","country":"ug","lat":0.6166667,"lon":32.35},{"id":2902800,"name":"buswa","country":"ug","lat":0.6,"lon":31.7166667},{"id":2905084,"name":"kyawole","country":"ug","lat":1.0833333,"lon":32.2166667},{"id":2902326,"name":"bugalama","country":"ug","lat":1.0166667,"lon":32.0166667},{"id":2907475,"name":"sogolelo","country":"ug","lat":0.6666667,"lon":32.0333333},{"id":2903668,"name":"kalata","country":"ug","lat":0.6666667,"lon":31.8},{"id":2905057,"name":"kyankumba","country":"ug","lat":0.6666667,"lon":31.6},{"id":2904468,"name":"kikukula","country":"ug","lat":0.6833333,"lon":31.6333333},{"id":2904994,"name":"kyamasansa","country":"ug","lat":0.5666667,"lon":31.7666667},{"id":2902197,"name":"biko","country":"ug","lat":0.7666667,"lon":31.9333333},{"id":2905038,"name":"kyanamuwanga","country":"ug","lat":1.1,"lon":32.1666667},{"id":2904460,"name":"kikubampanga","country":"ug","lat":0.5666667,"lon":32.3},{"id":2904036,"name":"katambogo","country":"ug","lat":1.0333333,"lon":32.2333333},{"id":2902799,"name":"busunju","country":"ug","lat":0.5677778,"lon":32.1927778},{"id":2903619,"name":"kakondi","country":"ug","lat":1.3,"lon":32.4166667},{"id":2905434,"name":"lwankonge","country":"ug","lat":0.8166667,"lon":32.1166667},{"id":2902555,"name":"bukutu","country":"ug","lat":1.3,"lon":31.6166667},{"id":2903930,"name":"kasanga","country":"ug","lat":1.1833333,"lon":32.45},{"id":2905520,"name":"magala","country":"ug","lat":0.5166667,"lon":32.1333333},{"id":2906309,"name":"namisango","country":"ug","lat":0.5833333,"lon":31.5333333},{"id":2903291,"name":"iringita","country":"ug","lat":1.0666667,"lon":32.2333333},{"id":2902606,"name":"bulinde","country":"ug","lat":0.8,"lon":32.4833333},{"id":2905312,"name":"lukoma","country":"ug","lat":0.5,"lon":32.2833333},{"id":2904794,"name":"kiwoga","country":"ug","lat":1.1166667,"lon":32.1166667},{"id":2905504,"name":"machumu","country":"ug","lat":1.3666667,"lon":32.4833333},{"id":2903025,"name":"bwire","country":"ug","lat":1.3833333,"lon":32.45},{"id":2905984,"name":"muyenje","country":"ug","lat":0.7833333,"lon":32.1166667},{"id":2902513,"name":"bukololo","country":"ug","lat":0.7333333,"lon":32.2333333},{"id":2902726,"name":"busabulongo","country":"ug","lat":0.85,"lon":31.8666667},{"id":2905580,"name":"makurubita","country":"ug","lat":0.5833333,"lon":32.4166667},{"id":2905041,"name":"kyandyaga","country":"ug","lat":1.2,"lon":32.45},{"id":2904129,"name":"katwe","country":"ug","lat":0.7833333,"lon":32.0333333},{"id":2904718,"name":"kitemu","country":"ug","lat":0.55,"lon":32.0666667},{"id":2903778,"name":"kamusenene","country":"ug","lat":1.1833333,"lon":32.1333333},{"id":2905541,"name":"magwa","country":"ug","lat":0.5666667,"lon":31.7333333},{"id":2902174,"name":"bekina","country":"ug","lat":1.05,"lon":31.65},{"id":2906163,"name":"nakawere","country":"ug","lat":0.6333333,"lon":31.9666667},{"id":2902597,"name":"bulembwe","country":"ug","lat":1.05,"lon":32.3},{"id":2903671,"name":"kaleire","country":"ug","lat":1.1666667,"lon":32.4666667},{"id":2905913,"name":"mulagi","country":"ug","lat":0.9166667,"lon":31.7},{"id":2903996,"name":"kasolokamponye","country":"ug","lat":0.75,"lon":31.5},{"id":2904991,"name":"kyaluweza","country":"ug","lat":1.2333333,"lon":32.45},{"id":2905015,"name":"kyampuga","country":"ug","lat":1.05,"lon":32.0},{"id":2906452,"name":"ndibata","country":"ug","lat":0.95,"lon":31.55},{"id":2905032,"name":"kyamutakasa","country":"ug","lat":0.7077778,"lon":32.3538889},{"id":2904612,"name":"kisalabude","country":"ug","lat":0.7333333,"lon":31.5166667},{"id":2905410,"name":"lwamata","country":"ug","lat":0.8333333,"lon":31.8833333},{"id":2904707,"name":"kitego","country":"ug","lat":1.2666667,"lon":32.4666667},{"id":2904396,"name":"kijaguzo","country":"ug","lat":0.6666667,"lon":31.5166667},{"id":2906074,"name":"nabwendo","country":"ug","lat":0.6666667,"lon":31.9666667},{"id":2902567,"name":"bulagwe","country":"ug","lat":1.0,"lon":31.5833333},{"id":2902176,"name":"bendegere","country":"ug","lat":0.7333333,"lon":32.3166667},{"id":2905341,"name":"lunya","country":"ug","lat":0.8,"lon":31.9333333},{"id":2905331,"name":"lule","country":"ug","lat":0.6666667,"lon":32.3166667},{"id":2902478,"name":"bukatira","country":"ug","lat":0.6,"lon":32.2833333},{"id":2905885,"name":"mujunwa","country":"ug","lat":0.5333333,"lon":31.7},{"id":2907675,"name":"watuba","country":"ug","lat":1.0155556,"lon":31.6902778},{"id":2904494,"name":"kimaga","country":"ug","lat":1.45,"lon":32.3333333},{"id":2903656,"name":"kalambi","country":"ug","lat":0.9833333,"lon":31.7833333},{"id":2904415,"name":"kijunjubwa","country":"ug","lat":1.4733333,"lon":31.7669444},{"id":2906355,"name":"namusansula","country":"ug","lat":0.5833333,"lon":32.4666667},{"id":2903863,"name":"kapeka","country":"ug","lat":0.6911111,"lon":32.2355556},{"id":2902646,"name":"bulyambide","country":"ug","lat":0.75,"lon":31.8166667},{"id":2905473,"name":"lwogelo","country":"ug","lat":0.5166667,"lon":32.0666667},{"id":2907588,"name":"vumba","country":"ug","lat":0.9333333,"lon":31.7333333},{"id":2903697,"name":"kalongo","country":"ug","lat":1.05,"lon":32.4333333},{"id":2906445,"name":"ndede","country":"ug","lat":1.3333333,"lon":31.85},{"id":2903816,"name":"kansera","country":"ug","lat":0.5833333,"lon":31.6666667},{"id":2904033,"name":"katale","country":"ug","lat":0.7722222,"lon":32.225},{"id":2907652,"name":"wandagi","country":"ug","lat":0.85,"lon":32.1},{"id":2903979,"name":"kasinina","country":"ug","lat":1.2,"lon":31.7},{"id":2905066,"name":"kyanyamwanga","country":"ug","lat":1.2,"lon":31.8},{"id":2902521,"name":"bukomba","country":"ug","lat":0.85,"lon":32.4333333},{"id":2904103,"name":"katoma","country":"ug","lat":1.0,"lon":32.1166667},{"id":2904944,"name":"kyabasita","country":"ug","lat":0.95,"lon":31.6333333},{"id":2907604,"name":"wabisi","country":"ug","lat":1.4333333,"lon":32.45},{"id":2903089,"name":"dalamba","country":"ug","lat":0.6,"lon":31.6666667},{"id":2902996,"name":"bwato","country":"ug","lat":1.0333333,"lon":31.6},{"id":2906331,"name":"namukongo","country":"ug","lat":1.4666667,"lon":32.1},{"id":2906607,"name":"nsololo","country":"ug","lat":0.5166667,"lon":31.8666667},{"id":2904155,"name":"kaweweta","country":"ug","lat":1.25,"lon":32.15},{"id":2903772,"name":"kamuli","country":"ug","lat":0.8,"lon":32.4},{"id":2907703,"name":"zanyiro","country":"ug","lat":0.7666667,"lon":31.8},{"id":2902988,"name":"bwanja","country":"ug","lat":0.7333333,"lon":31.9},{"id":2905964,"name":"mutetema","country":"ug","lat":0.5666667,"lon":31.9833333},{"id":2902516,"name":"bukolwa","country":"ug","lat":0.7333333,"lon":32.4833333},{"id":2905552,"name":"mailye","country":"ug","lat":1.2333333,"lon":32.4833333},{"id":2905122,"name":"kyengeza","country":"ug","lat":1.2833333,"lon":31.9666667},{"id":2903667,"name":"kalasa","country":"ug","lat":0.5838889,"lon":32.39},{"id":2905029,"name":"kyamungu","country":"ug","lat":1.1833333,"lon":32.1833333},{"id":2906284,"name":"namayumba","country":"ug","lat":0.5288889,"lon":32.2486111},{"id":2904769,"name":"kitungwa","country":"ug","lat":0.55,"lon":32.4666667},{"id":2904169,"name":"kawumu","country":"ug","lat":0.5833333,"lon":32.35},{"id":2902591,"name":"bulema","country":"ug","lat":0.8833333,"lon":32.0666667},{"id":2902293,"name":"budali","country":"ug","lat":0.5166667,"lon":32.25},{"id":2902398,"name":"bugujju","country":"ug","lat":0.65,"lon":31.9666667},{"id":2907460,"name":"silobera","country":"ug","lat":0.5833333,"lon":31.9666667},{"id":2904099,"name":"katola","country":"ug","lat":1.45,"lon":32.05},{"id":2907637,"name":"wakyato","country":"ug","lat":0.8744444,"lon":32.2047222},{"id":2903933,"name":"kasangombe","country":"ug","lat":0.75,"lon":32.4666667},{"id":2904329,"name":"kigalama","country":"ug","lat":0.7666667,"lon":32.1833333},{"id":2905927,"name":"mundade","country":"ug","lat":0.7166667,"lon":31.75},{"id":2904159,"name":"kawojwa","country":"ug","lat":1.4833333,"lon":32.05},{"id":2904989,"name":"kyalugunju","country":"ug","lat":0.6,"lon":31.5666667},{"id":2902243,"name":"bombo","country":"ug","lat":0.65,"lon":32.1},{"id":2904492,"name":"kilyanongo","country":"ug","lat":0.9833333,"lon":31.6},{"id":2905665,"name":"mazigo","country":"ug","lat":0.65,"lon":32.3},{"id":2905420,"name":"lwampalala","country":"ug","lat":0.9833333,"lon":31.7},{"id":2905064,"name":"kyanya","country":"ug","lat":0.8166667,"lon":32.2166667},{"id":2904037,"name":"katambwa","country":"ug","lat":1.35,"lon":32.3666667},{"id":2907433,"name":"sekanyonyi","country":"ug","lat":0.5088889,"lon":32.1238889},{"id":2905565,"name":"makoba","country":"ug","lat":0.5333333,"lon":32.1833333},{"id":2904243,"name":"kibamba","country":"ug","lat":0.8333333,"lon":31.7666667},{"id":2906439,"name":"ndalagi","country":"ug","lat":1.25,"lon":32.0666667},{"id":2905448,"name":"lwebikere","country":"ug","lat":1.35,"lon":31.9166667},{"id":2904326,"name":"kifunfugu","country":"ug","lat":0.6666667,"lon":32.4333333},{"id":2906594,"name":"nsavu","country":"ug","lat":0.5833333,"lon":32.45},{"id":2906377,"name":"nanjwenge","country":"ug","lat":1.45,"lon":32.2333333},{"id":2904349,"name":"kiggi","country":"ug","lat":0.7666667,"lon":32.0666667},{"id":2902869,"name":"butumbizi","country":"ug","lat":0.5,"lon":32.0666667},{"id":2904676,"name":"kisuna","country":"ug","lat":0.8333333,"lon":32.1333333},{"id":2902347,"name":"bugembe","country":"ug","lat":1.4833333,"lon":32.0},{"id":2903359,"name":"kabale","country":"ug","lat":1.0666667,"lon":32.4},{"id":2903733,"name":"kamala","country":"ug","lat":0.8744444,"lon":32.4691667},{"id":2906166,"name":"nakayonza","country":"ug","lat":1.4833333,"lon":32.4},{"id":2904795,"name":"kiwoko","country":"ug","lat":0.8463889,"lon":32.3530556},{"id":2906115,"name":"nakabimba","country":"ug","lat":1.0666667,"lon":32.0},{"id":2907601,"name":"wabinyonyi","country":"ug","lat":1.3,"lon":32.4666667},{"id":2905946,"name":"musaba","country":"ug","lat":0.5,"lon":31.9166667},{"id":2905888,"name":"mukerenge","country":"ug","lat":1.4833333,"lon":32.1},{"id":2904744,"name":"kitokolo","country":"ug","lat":0.6166667,"lon":31.8666667},{"id":2905751,"name":"mitiyomere","country":"ug","lat":0.9166667,"lon":32.2833333},{"id":2906353,"name":"namusale","country":"ug","lat":0.7,"lon":32.3},{"id":2903918,"name":"kasambya","country":"ug","lat":0.95,"lon":31.6833333},{"id":2904071,"name":"katete","country":"ug","lat":0.5,"lon":32.4333333},{"id":2903725,"name":"kalyanda","country":"ug","lat":0.9833333,"lon":32.1833333},{"id":2904996,"name":"kyamayigale","country":"ug","lat":1.05,"lon":32.0333333},{"id":2904237,"name":"kibale","country":"ug","lat":0.5380556,"lon":32.0275},{"id":2905008,"name":"kyampisi","country":"ug","lat":0.7,"lon":32.2666667},{"id":2905648,"name":"mauma","country":"ug","lat":1.3333333,"lon":32.4166667},{"id":2904010,"name":"kasozi","country":"ug","lat":0.6333333,"lon":32.4},{"id":2902557,"name":"bukuya","country":"ug","lat":0.6786111,"lon":31.8197222},{"id":2902142,"name":"bale","country":"ug","lat":0.65,"lon":32.4833333},{"id":2903518,"name":"kagogo","country":"ug","lat":0.7333333,"lon":32.0166667},{"id":2904342,"name":"kigege","country":"ug","lat":0.7666667,"lon":32.3833333},{"id":2905835,"name":"mubanda","country":"ug","lat":0.6166667,"lon":32.4833333},{"id":2905796,"name":"mpangala","country":"ug","lat":0.7333333,"lon":31.9666667},{"id":2904025,"name":"katabanda","country":"ug","lat":1.2166667,"lon":32.2166667},{"id":2905103,"name":"kyeingira","country":"ug","lat":1.45,"lon":32.4833333},{"id":2906122,"name":"nakakabala","country":"ug","lat":1.05,"lon":31.7666667},{"id":2904943,"name":"kyabasegu","country":"ug","lat":1.1833333,"lon":31.5333333},{"id":2907676,"name":"watuba","country":"ug","lat":0.6,"lon":32.1},{"id":2903514,"name":"kagi","country":"ug","lat":0.9,"lon":31.65},{"id":2903422,"name":"kabulamuliro","country":"ug","lat":0.6666667,"lon":32.15},{"id":2904281,"name":"kibubula","country":"ug","lat":0.55,"lon":32.2},{"id":2905466,"name":"lwentenga","country":"ug","lat":0.8630556,"lon":32.0241667},{"id":2906394,"name":"nanula","country":"ug","lat":0.5666667,"lon":31.7833333},{"id":2903356,"name":"kabale","country":"ug","lat":0.55,"lon":32.4},{"id":2902793,"name":"busula","country":"ug","lat":0.5333333,"lon":31.9333333},{"id":2903663,"name":"kalangalo","country":"ug","lat":0.5672222,"lon":31.9538889},{"id":2905016,"name":"kyamuchope","country":"ug","lat":1.15,"lon":32.25},{"id":2907627,"name":"wakasimba","country":"ug","lat":1.1,"lon":32.45},{"id":2902804,"name":"buta","country":"ug","lat":0.8,"lon":31.5333333},{"id":2904052,"name":"katele","country":"ug","lat":0.85,"lon":31.7666667},{"id":2906232,"name":"namabale","country":"ug","lat":0.5166667,"lon":31.75},{"id":2904963,"name":"kyajinja","country":"ug","lat":0.5833333,"lon":32.2666667},{"id":2904797,"name":"kiwongoire","country":"ug","lat":1.2833333,"lon":32.4333333},{"id":2904465,"name":"kikube","country":"ug","lat":0.8833333,"lon":32.4333333},{"id":2903571,"name":"kajulirwa","country":"ug","lat":0.7166667,"lon":31.7833333},{"id":2906436,"name":"ncucwe","country":"ug","lat":0.9833333,"lon":31.5666667},{"id":2904273,"name":"kiboga","country":"ug","lat":0.9161111,"lon":31.7741667},{"id":2905857,"name":"mugamba","country":"ug","lat":0.8333333,"lon":31.5666667},{"id":2907464,"name":"singya","country":"ug","lat":1.3166667,"lon":32.25},{"id":2905639,"name":"mate","country":"ug","lat":0.6166667,"lon":32.1333333},{"id":2905417,"name":"lwamboga","country":"ug","lat":1.45,"lon":32.15},{"id":2903774,"name":"kamunkwale","country":"ug","lat":1.3666667,"lon":32.1166667},{"id":2903650,"name":"kalagi","country":"ug","lat":0.5166667,"lon":31.65},{"id":2903818,"name":"kansiri","country":"ug","lat":0.7166667,"lon":32.2},{"id":2903738,"name":"kambugo","country":"ug","lat":0.8,"lon":31.7833333},{"id":2904971,"name":"kyakachumu","country":"ug","lat":1.3333333,"lon":32.05},{"id":2906134,"name":"nakaseke","country":"ug","lat":0.7516667,"lon":32.385}]});