callback({"markets":[{"id":3033311,"name":"deweys mills","country":"us","lat":43.6413889,"lon":-72.4055556},{"id":2982352,"name":"beebe river","country":"us","lat":43.8286111,"lon":-71.6513889},{"id":2983203,"name":"west bath","country":"us","lat":44.1741667,"lon":-71.9877778},{"id":3033433,"name":"goodrich four corners","country":"us","lat":43.755,"lon":-72.2797222},{"id":3033265,"name":"centertown","country":"us","lat":43.6608333,"lon":-72.3816667},{"id":3033889,"name":"tunbridge","country":"us","lat":43.8908333,"lon":-72.4916667},{"id":3033397,"name":"ewells mills","country":"us","lat":44.36,"lon":-72.1719444},{"id":2982404,"name":"campton station","country":"us","lat":43.8536111,"lon":-71.6513889},{"id":3033830,"name":"south vershire","country":"us","lat":43.9222222,"lon":-72.3172222},{"id":2983181,"name":"waterville valley","country":"us","lat":43.95,"lon":-71.5},{"id":2982958,"name":"pike","country":"us","lat":44.0308333,"lon":-72.0086111},{"id":2982781,"name":"lost river","country":"us","lat":44.0369444,"lon":-71.7847222},{"id":3033390,"name":"ely","country":"us","lat":43.8763889,"lon":-72.1769444},{"id":3033367,"name":"east peacham","country":"us","lat":44.3380556,"lon":-72.1577778},{"id":3033313,"name":"dothan","country":"us","lat":43.6972222,"lon":-72.3436111},{"id":3033709,"name":"post mills","country":"us","lat":43.8855556,"lon":-72.2611111},{"id":2982751,"name":"landaff center","country":"us","lat":44.175,"lon":-71.8875},{"id":2982775,"name":"lockehaven","country":"us","lat":43.6105556,"lon":-72.0883333},{"id":3034007,"name":"woodbury","country":"us","lat":44.4408333,"lon":-72.4169444},{"id":3033566,"name":"marshfield","country":"us","lat":44.3508333,"lon":-72.3544444},{"id":2982489,"name":"cushman","country":"us","lat":44.4058333,"lon":-71.7230556},{"id":3033388,"name":"edgewater","country":"us","lat":44.3236111,"lon":-72.3347222},{"id":2982312,"name":"alderbrook","country":"us","lat":44.3266667,"lon":-71.6969444},{"id":2982802,"name":"maplewood","country":"us","lat":44.2819444,"lon":-71.6577778},{"id":3033963,"name":"west norwich","country":"us","lat":43.7633333,"lon":-72.3733333},{"id":2983003,"name":"robinson corner","country":"us","lat":43.5341667,"lon":-71.9730556},{"id":3033474,"name":"hartland four corners","country":"us","lat":43.5463889,"lon":-72.425},{"id":2982750,"name":"lancaster","country":"us","lat":44.4888889,"lon":-71.5697222},{"id":3033928,"name":"west barnet","country":"us","lat":44.31,"lon":-72.1377778},{"id":3033799,"name":"south cabot","country":"us","lat":44.3675,"lon":-72.2761111},{"id":2982923,"name":"nuttings beach","country":"us","lat":43.6625,"lon":-71.7905556},{"id":3033550,"name":"lunenburg","country":"us","lat":44.4630556,"lon":-71.6825},{"id":2982871,"name":"newtons mobile park","country":"us","lat":44.3025,"lon":-71.7477778},{"id":2982756,"name":"lebruns mobile home park","country":"us","lat":43.6522222,"lon":-72.1722222},{"id":2982599,"name":"fords crossing","country":"us","lat":43.5477778,"lon":-71.8908333},{"id":2982646,"name":"grafton center","country":"us","lat":43.5738889,"lon":-71.9738889},{"id":2982788,"name":"lower shaker village","country":"us","lat":43.62,"lon":-72.1466667},{"id":2982837,"name":"mittersill","country":"us","lat":44.18,"lon":-71.7147222},{"id":2982849,"name":"murray hill","country":"us","lat":43.5422222,"lon":-71.7958333},{"id":3033341,"name":"east concord","country":"us","lat":44.4247222,"lon":-71.7541667},{"id":3033544,"name":"lower cabot","country":"us","lat":44.3902778,"lon":-72.3330556},{"id":2982827,"name":"merriwood camp","country":"us","lat":43.9033333,"lon":-71.9916667},{"id":3033917,"name":"washington heights","country":"us","lat":44.0897222,"lon":-72.4594444},{"id":2983016,"name":"rumney","country":"us","lat":43.8052778,"lon":-71.8130556},{"id":2982684,"name":"hell hollow","country":"us","lat":43.5230556,"lon":-72.3252778},{"id":3033402,"name":"fairlee","country":"us","lat":43.9075,"lon":-72.1438889},{"id":2983044,"name":"scott","country":"us","lat":44.4122222,"lon":-71.6375},{"id":2982577,"name":"enfield","country":"us","lat":43.6405556,"lon":-72.1444444},{"id":2982541,"name":"east holderness","country":"us","lat":43.7166667,"lon":-71.5313889},{"id":2982889,"name":"north haverhill","country":"us","lat":44.0902778,"lon":-72.0269444},{"id":2982841,"name":"montcalm","country":"us","lat":43.6,"lon":-72.1708333},{"id":2983107,"name":"squag city","country":"us","lat":43.5161111,"lon":-72.3719444},{"id":3033271,"name":"chelsea","country":"us","lat":43.9897222,"lon":-72.4480556},{"id":2982924,"name":"olympic mobile home park","country":"us","lat":43.6433333,"lon":-72.1797222},{"id":2982346,"name":"bath","country":"us","lat":44.1669444,"lon":-71.9666667},{"id":2982583,"name":"etna","country":"us","lat":43.6927778,"lon":-72.2222222},{"id":2982922,"name":"nutter","country":"us","lat":44.1447222,"lon":-71.9452778},{"id":3033723,"name":"ralston corner","country":"us","lat":44.4291667,"lon":-71.8341667},{"id":3033289,"name":"concord","country":"us","lat":44.4288889,"lon":-71.8905556},{"id":2983071,"name":"south alexandria","country":"us","lat":43.5575,"lon":-71.7952778},{"id":2982811,"name":"mascoma","country":"us","lat":43.6511111,"lon":-72.1827778},{"id":3033836,"name":"south woodbury","country":"us","lat":44.415,"lon":-72.4219444},{"id":2983270,"name":"woodstock","country":"us","lat":43.9775,"lon":-71.6855556},{"id":2982647,"name":"grange","country":"us","lat":44.4861111,"lon":-71.5252778},{"id":3033617,"name":"newbury center","country":"us","lat":44.1236111,"lon":-72.1488889},{"id":3033215,"name":"bradford center","country":"us","lat":44.0130556,"lon":-72.1711111},{"id":3033827,"name":"south strafford","country":"us","lat":43.8352778,"lon":-72.3666667},{"id":3033522,"name":"kennedy corners","country":"us","lat":44.0152778,"lon":-72.4305556},{"id":3033644,"name":"north pomfret","country":"us","lat":43.7227778,"lon":-72.4802778},{"id":3033989,"name":"white river junction","country":"us","lat":43.6488889,"lon":-72.3197222},{"id":3033547,"name":"lower waterford","country":"us","lat":44.3544444,"lon":-71.9075},{"id":3033562,"name":"maple corner","country":"us","lat":44.3758333,"lon":-72.4952778},{"id":3033944,"name":"west danville","country":"us","lat":44.4094444,"lon":-72.1955556},{"id":3033735,"name":"rices mills","country":"us","lat":43.8247222,"lon":-72.2863889},{"id":2982987,"name":"quinttown","country":"us","lat":43.8658333,"lon":-72.0558333},{"id":2982954,"name":"pettyboro","country":"us","lat":44.2041667,"lon":-71.9619444},{"id":2982682,"name":"hazens","country":"us","lat":44.3688889,"lon":-71.5619444},{"id":2982939,"name":"parker hill","country":"us","lat":44.2541667,"lon":-71.9505556},{"id":3033812,"name":"south newbury","country":"us","lat":44.0461111,"lon":-72.0852778},{"id":3033801,"name":"south corinth","country":"us","lat":44.0161111,"lon":-72.2330556},{"id":3033336,"name":"east cabot","country":"us","lat":44.3897222,"lon":-72.2516667},{"id":2982700,"name":"hilltop manor extension mobile home park","country":"us","lat":44.3086111,"lon":-71.7511111},{"id":3033772,"name":"sharon","country":"us","lat":43.7844444,"lon":-72.4547222},{"id":3033628,"name":"north danville","country":"us","lat":44.4588889,"lon":-72.0944444},{"id":3033752,"name":"russtown","country":"us","lat":43.6169444,"lon":-72.3555556},{"id":2982998,"name":"rivercrest","country":"us","lat":43.7263889,"lon":-72.2713889},{"id":3033622,"name":"north calais","country":"us","lat":44.39,"lon":-72.4469444},{"id":2982884,"name":"north grantham","country":"us","lat":43.5288889,"lon":-72.1313889},{"id":3033308,"name":"danville center","country":"us","lat":44.42,"lon":-72.1208333},{"id":2982639,"name":"goose hollow","country":"us","lat":43.8811111,"lon":-71.5983333},{"id":3033896,"name":"upper graniteville","country":"us","lat":44.1416667,"lon":-72.4769444},{"id":3033874,"name":"texas","country":"us","lat":44.4177778,"lon":-71.825},{"id":2982360,"name":"bethlehem","country":"us","lat":44.2802778,"lon":-71.6886111},{"id":2982414,"name":"carroll","country":"us","lat":44.2983333,"lon":-71.5411111},{"id":2982928,"name":"orfordville","country":"us","lat":43.8833333,"lon":-72.1027778},{"id":2982394,"name":"bucks corner","country":"us","lat":43.7377778,"lon":-71.9486111},{"id":3033293,"name":"corinth corner","country":"us","lat":44.0222222,"lon":-72.2730556},{"id":2983227,"name":"west rumney","country":"us","lat":43.8136111,"lon":-71.8711111},{"id":2982382,"name":"breezy point","country":"us","lat":43.9661111,"lon":-71.8352778},{"id":3033452,"name":"greenbank hollow","country":"us","lat":44.3772222,"lon":-72.1216667},{"id":2982356,"name":"benton","country":"us","lat":44.1030556,"lon":-71.9022222},{"id":2982670,"name":"hannahs mobile home park","country":"us","lat":43.6430556,"lon":-72.2680556},{"id":3033948,"name":"west fairlee","country":"us","lat":43.9091667,"lon":-72.2636111},{"id":2982369,"name":"boutin corner","country":"us","lat":44.0980556,"lon":-71.8763889},{"id":3033757,"name":"saint johnsbury","country":"us","lat":44.4191667,"lon":-72.0155556},{"id":3033531,"name":"lakeside","country":"us","lat":44.2516667,"lon":-72.2627778},{"id":3033977,"name":"west waterford","country":"us","lat":44.3575,"lon":-71.9561111},{"id":3033523,"name":"kents corners","country":"us","lat":44.3686111,"lon":-72.4855556},{"id":2982405,"name":"campton upper village","country":"us","lat":43.8658333,"lon":-71.6386111},{"id":3033472,"name":"hartford","country":"us","lat":43.6605556,"lon":-72.3388889},{"id":2982900,"name":"north sanbornton","country":"us","lat":43.5519444,"lon":-71.61},{"id":2982985,"name":"quincy","country":"us","lat":43.7875,"lon":-71.775},{"id":3033294,"name":"corinth corners","country":"us","lat":44.01,"lon":-72.3494444},{"id":3033869,"name":"taftsville","country":"us","lat":43.6305556,"lon":-72.4694444},{"id":2982691,"name":"hill center","country":"us","lat":43.5236111,"lon":-71.74},{"id":2982929,"name":"oscars mobile home park","country":"us","lat":43.6608333,"lon":-72.2613889},{"id":3033327,"name":"east barnet inwood station","country":"us","lat":44.3266667,"lon":-72.0380556},{"id":3033376,"name":"east saint johnsbury","country":"us","lat":44.4386111,"lon":-71.9461111},{"id":3033375,"name":"east ryegate","country":"us","lat":44.205,"lon":-72.0616667},{"id":3033909,"name":"walden heights","country":"us","lat":44.4522222,"lon":-72.2575},{"id":2982984,"name":"quebec junction","country":"us","lat":44.3491667,"lon":-71.5525},{"id":2982645,"name":"grafton","country":"us","lat":43.5586111,"lon":-71.9444444},{"id":3033808,"name":"south kirby","country":"us","lat":44.4702778,"lon":-71.9027778},{"id":3033811,"name":"south lunenburg","country":"us","lat":44.4291667,"lon":-71.6797222},{"id":3033291,"name":"cookville","country":"us","lat":44.0236111,"lon":-72.2902778},{"id":3033641,"name":"north montpelier","country":"us","lat":44.3036111,"lon":-72.4469444},{"id":3033450,"name":"green bay","country":"us","lat":44.3047222,"lon":-72.2027778},{"id":2982496,"name":"deephaven","country":"us","lat":43.7697222,"lon":-71.5391667},{"id":3033916,"name":"washington","country":"us","lat":44.1055556,"lon":-72.4330556},{"id":2982511,"name":"dorchester","country":"us","lat":43.7566667,"lon":-71.9491667},{"id":2982402,"name":"campton hollow","country":"us","lat":43.8233333,"lon":-71.6413889},{"id":2982624,"name":"gilmans corner","country":"us","lat":43.9025,"lon":-71.9902778},{"id":3033473,"name":"hartland","country":"us","lat":43.5405556,"lon":-72.3994444},{"id":3033438,"name":"goslants mill","country":"us","lat":44.4644444,"lon":-72.2197222},{"id":3033667,"name":"norwich","country":"us","lat":43.7152778,"lon":-72.3083333},{"id":3033908,"name":"walden","country":"us","lat":44.4497222,"lon":-72.2236111},{"id":3033852,"name":"strafford","country":"us","lat":43.8663889,"lon":-72.3783333},{"id":3033686,"name":"peacham","country":"us","lat":44.3288889,"lon":-72.1694444},{"id":3033905,"name":"waits river","country":"us","lat":44.0894444,"lon":-72.2825},{"id":3033962,"name":"west newbury","country":"us","lat":44.0644444,"lon":-72.1252778},{"id":3033207,"name":"boltonville","country":"us","lat":44.1708333,"lon":-72.1002778},{"id":2982970,"name":"plymouth","country":"us","lat":43.7569444,"lon":-71.6886111},{"id":3033636,"name":"north hartland","country":"us","lat":43.5927778,"lon":-72.3522222},{"id":2982403,"name":"campton lower village","country":"us","lat":43.8588889,"lon":-71.6333333},{"id":2982956,"name":"pierce bridge","country":"us","lat":44.2725,"lon":-71.6316667},{"id":2983149,"name":"thornton","country":"us","lat":43.8927778,"lon":-71.6763889},{"id":2982926,"name":"orange","country":"us","lat":43.6544444,"lon":-71.9719444},{"id":2982683,"name":"hebron","country":"us","lat":43.6938889,"lon":-71.8061111},{"id":3033513,"name":"jenneville","country":"us","lat":43.5344444,"lon":-72.4897222},{"id":2983233,"name":"west thornton","country":"us","lat":43.9358333,"lon":-71.6880556},{"id":3033823,"name":"south ryegate","country":"us","lat":44.1883333,"lon":-72.1413889},{"id":3033879,"name":"thetford center","country":"us","lat":43.8286111,"lon":-72.2466667},{"id":2983008,"name":"rockywold","country":"us","lat":43.7741667,"lon":-71.5438889},{"id":3033580,"name":"millbrook","country":"us","lat":43.7244444,"lon":-72.4566667},{"id":3033292,"name":"copper flat","country":"us","lat":43.835,"lon":-72.3344444},{"id":3033956,"name":"west hartford","country":"us","lat":43.7122222,"lon":-72.4180556},{"id":3033567,"name":"mcindoe falls","country":"us","lat":44.2613889,"lon":-72.0630556},{"id":2982792,"name":"lyme center","country":"us","lat":43.7991667,"lon":-72.1233333},{"id":3033225,"name":"brimstone corner","country":"us","lat":43.9377778,"lon":-72.2661111},{"id":2982772,"name":"littleton","country":"us","lat":44.3061111,"lon":-71.7705556},{"id":2982759,"name":"lebanon","country":"us","lat":43.6422222,"lon":-72.2522222},{"id":3033886,"name":"topsham four corners","country":"us","lat":44.0988889,"lon":-72.225},{"id":3033342,"name":"east corinth","country":"us","lat":44.0638889,"lon":-72.2227778},{"id":2983176,"name":"warren","country":"us","lat":43.9230556,"lon":-71.8925},{"id":2983225,"name":"west plymouth","country":"us","lat":43.7702778,"lon":-71.7627778},{"id":2983206,"name":"west canaan","country":"us","lat":43.6494444,"lon":-72.0966667},{"id":2982337,"name":"baileys","country":"us","lat":44.4072222,"lon":-71.5055556},{"id":2983271,"name":"woodsville","country":"us","lat":44.1522222,"lon":-72.0377778},{"id":3033990,"name":"whites corner","country":"us","lat":44.4122222,"lon":-71.885},{"id":2982562,"name":"eastman","country":"us","lat":43.5138889,"lon":-72.1166667},{"id":2982565,"name":"easton","country":"us","lat":44.1461111,"lon":-71.7905556},{"id":2983145,"name":"the village of loon mountain","country":"us","lat":44.0611111,"lon":-71.6275},{"id":2983205,"name":"west campton","country":"us","lat":43.8472222,"lon":-71.6663889},{"id":3033627,"name":"north concord","country":"us","lat":44.4683333,"lon":-71.8558333},{"id":3033410,"name":"fieldsville","country":"us","lat":43.5386111,"lon":-72.4438889},{"id":2982728,"name":"jockey hill","country":"us","lat":44.1863889,"lon":-71.9061111},{"id":2982540,"name":"east hebron","country":"us","lat":43.6933333,"lon":-71.77},{"id":2982407,"name":"canaan center","country":"us","lat":43.6802778,"lon":-72.0530556},{"id":2982768,"name":"lisbon","country":"us","lat":44.2133333,"lon":-71.9113889},{"id":3033182,"name":"beanville","country":"us","lat":43.9144444,"lon":-72.2813889},{"id":3033900,"name":"vershire","country":"us","lat":43.9697222,"lon":-72.3230556},{"id":2983168,"name":"upper shaker village","country":"us","lat":43.6116667,"lon":-72.1386111},{"id":3033214,"name":"bradford","country":"us","lat":43.9925,"lon":-72.1294444},{"id":3033754,"name":"ryegate corner","country":"us","lat":44.2083333,"lon":-72.1041667},{"id":3033872,"name":"taylor bridge","country":"us","lat":44.4841667,"lon":-72.2930556},{"id":2983017,"name":"rumney depot","country":"us","lat":43.7933333,"lon":-71.8052778},{"id":2982578,"name":"enfield center","country":"us","lat":43.59,"lon":-72.1113889},{"id":2982491,"name":"dalton","country":"us","lat":44.4158333,"lon":-71.6952778},{"id":2983002,"name":"riverton","country":"us","lat":44.4455556,"lon":-71.5294444},{"id":3033476,"name":"harvey hollow","country":"us","lat":44.3833333,"lon":-72.1438889},{"id":3033248,"name":"cabot","country":"us","lat":44.4013889,"lon":-72.3127778},{"id":3033953,"name":"west groton","country":"us","lat":44.2180556,"lon":-72.2438889},{"id":2982434,"name":"cheever","country":"us","lat":43.7988889,"lon":-71.9108333},{"id":2982365,"name":"blair","country":"us","lat":43.81,"lon":-71.6655556},{"id":3033895,"name":"union village","country":"us","lat":43.7886111,"lon":-72.2558333},{"id":3033578,"name":"miles pond","country":"us","lat":44.4472222,"lon":-71.7969444},{"id":3033739,"name":"ricker mills","country":"us","lat":44.2386111,"lon":-72.2397222},{"id":3033328,"name":"east barre","country":"us","lat":44.1580556,"lon":-72.4508333},{"id":3033687,"name":"peacham corner","country":"us","lat":44.34,"lon":-72.2688889},{"id":3033949,"name":"west fairlee center","country":"us","lat":43.9433333,"lon":-72.2258333},{"id":2982606,"name":"franconia","country":"us","lat":44.2269444,"lon":-71.7483333},{"id":2982823,"name":"meriden","country":"us","lat":43.5438889,"lon":-72.2530556},{"id":2982882,"name":"north dorchester","country":"us","lat":43.8025,"lon":-71.9713889},{"id":2982343,"name":"barrett","country":"us","lat":44.2580556,"lon":-71.8291667},{"id":2982387,"name":"bridgewater","country":"us","lat":43.6383333,"lon":-71.7369444},{"id":3033556,"name":"mackville","country":"us","lat":44.49,"lon":-72.3686111},{"id":3033457,"name":"groton","country":"us","lat":44.2102778,"lon":-72.1958333},{"id":3033175,"name":"barnet","country":"us","lat":44.2969444,"lon":-72.0497222},{"id":3033256,"name":"campbell corner","country":"us","lat":43.8336111,"lon":-72.3113889},{"id":3033337,"name":"east calais","country":"us","lat":44.3663889,"lon":-72.4302778},{"id":2982406,"name":"canaan","country":"us","lat":43.6475,"lon":-72.0122222},{"id":2982911,"name":"north woodstock","country":"us","lat":44.0302778,"lon":-71.6863889},{"id":3033901,"name":"vershire center","country":"us","lat":43.9527778,"lon":-72.3380556},{"id":3033834,"name":"south washington","country":"us","lat":44.0280556,"lon":-72.4133333},{"id":3033922,"name":"websterville","country":"us","lat":44.1605556,"lon":-72.47},{"id":3033429,"name":"gilman","country":"us","lat":44.4122222,"lon":-71.7227778},{"id":3033685,"name":"peach four corners","country":"us","lat":44.0663889,"lon":-72.0936111},{"id":2982679,"name":"haverhill","country":"us","lat":44.0344444,"lon":-72.0644444},{"id":3033610,"name":"nevesville","country":"us","lat":44.45,"lon":-72.2230556},{"id":2983195,"name":"wentworth","country":"us","lat":43.8716667,"lon":-71.9147222},{"id":2982623,"name":"gilman mobile park","country":"us","lat":44.3086111,"lon":-71.7536111},{"id":2982614,"name":"gaza","country":"us","lat":43.5219444,"lon":-71.595},{"id":2983153,"name":"toneys mobile park","country":"us","lat":44.3011111,"lon":-71.7513889},{"id":2983089,"name":"south lancaster","country":"us","lat":44.4586111,"lon":-71.6458333},{"id":2982388,"name":"bristol","country":"us","lat":43.5911111,"lon":-71.7372222},{"id":3033995,"name":"wilder","country":"us","lat":43.6727778,"lon":-72.3091667},{"id":3033616,"name":"newbury","country":"us","lat":44.0791667,"lon":-72.0588889},{"id":2983220,"name":"west lebanon","country":"us","lat":43.6491667,"lon":-72.3108333},{"id":3033290,"name":"concord corner","country":"us","lat":44.4013889,"lon":-71.8619444},{"id":2983125,"name":"sugar hill","country":"us","lat":44.2152778,"lon":-71.8},{"id":2983158,"name":"tripoli mill","country":"us","lat":43.9980556,"lon":-71.5777778},{"id":2982539,"name":"east haverhill","country":"us","lat":44.0266667,"lon":-71.9716667},{"id":3033683,"name":"passumpsic","country":"us","lat":44.3766667,"lon":-72.0280556},{"id":2982957,"name":"piermont","country":"us","lat":43.9697222,"lon":-72.0811111},{"id":2983245,"name":"wildwood","country":"us","lat":44.0783333,"lon":-71.8008333},{"id":3033758,"name":"saint johnsbury center","country":"us","lat":44.4566667,"lon":-72.0161111},{"id":2982857,"name":"new hampton","country":"us","lat":43.6055556,"lon":-71.6547222},{"id":2983177,"name":"washburn corner","country":"us","lat":43.5244444,"lon":-72.0808333},{"id":2982487,"name":"curriers mobile home park","country":"us","lat":43.6486111,"lon":-72.1666667},{"id":3033537,"name":"lewiston","country":"us","lat":43.7038889,"lon":-72.3005556},{"id":3033173,"name":"baptist hill","country":"us","lat":44.4419444,"lon":-71.7244444},{"id":2982675,"name":"hardscrabble","country":"us","lat":43.8316667,"lon":-72.1177778},{"id":2982560,"name":"east wilder","country":"us","lat":43.6819444,"lon":-72.2952778},{"id":3033598,"name":"morses mills","country":"us","lat":44.38,"lon":-72.0925},{"id":3033380,"name":"east topsham","country":"us","lat":44.1211111,"lon":-72.2333333},{"id":3033655,"name":"north tunbridge","country":"us","lat":43.9147222,"lon":-72.4788889},{"id":2982658,"name":"groton","country":"us","lat":43.7016667,"lon":-71.8361111},{"id":2983039,"name":"savageville","country":"us","lat":44.2116667,"lon":-71.8941667},{"id":2983259,"name":"winnisquam","country":"us","lat":43.5013889,"lon":-71.5125},{"id":2982891,"name":"north littleton","country":"us","lat":44.3597222,"lon":-71.8025},{"id":3033366,"name":"east orange","country":"us","lat":44.0947222,"lon":-72.3419444},{"id":2982821,"name":"meredith","country":"us","lat":43.6575,"lon":-71.5008333},{"id":2982408,"name":"canaan street","country":"us","lat":43.6652778,"lon":-72.0427778},{"id":3033379,"name":"east thetford","country":"us","lat":43.8116667,"lon":-72.1891667},{"id":2982596,"name":"five corners","country":"us","lat":44.2441667,"lon":-71.6341667},{"id":2982927,"name":"orford","country":"us","lat":43.9052778,"lon":-72.1405556},{"id":3033216,"name":"bragg","country":"us","lat":43.7197222,"lon":-72.3394444},{"id":2982671,"name":"hanover","country":"us","lat":43.7022222,"lon":-72.29},{"id":3033708,"name":"pompanoosuc","country":"us","lat":43.7555556,"lon":-72.2313889},{"id":2982325,"name":"apthorp","country":"us","lat":44.3077778,"lon":-71.7427778},{"id":3033791,"name":"smith corner","country":"us","lat":44.4666667,"lon":-72.2716667},{"id":2983260,"name":"winona","country":"us","lat":43.6661111,"lon":-71.5586111},{"id":3033533,"name":"lanesboro","country":"us","lat":44.3072222,"lon":-72.3116667},{"id":3033902,"name":"vershire heights","country":"us","lat":43.9875,"lon":-72.3694444},{"id":2982672,"name":"hanover center","country":"us","lat":43.7255556,"lon":-72.1933333},{"id":2982968,"name":"plainfield","country":"us","lat":43.5341667,"lon":-72.3566667},{"id":2982587,"name":"fairview","country":"us","lat":44.0152778,"lon":-71.6777778},{"id":3033675,"name":"orange","country":"us","lat":44.1483333,"lon":-72.4030556},{"id":2982536,"name":"east grafton","country":"us","lat":43.5686111,"lon":-71.9280556},{"id":2982472,"name":"coreys mobile park","country":"us","lat":44.3066667,"lon":-71.7533333},{"id":3033417,"name":"foxville","country":"us","lat":44.1372222,"lon":-72.4827778},{"id":3033447,"name":"graniteville","country":"us","lat":44.1511111,"lon":-72.4933333},{"id":2983134,"name":"swiftwater","country":"us","lat":44.1327778,"lon":-71.9519444},{"id":2982791,"name":"lyme","country":"us","lat":43.8094444,"lon":-72.1563889},{"id":2983242,"name":"whitefield","country":"us","lat":44.3730556,"lon":-71.6105556},{"id":2982718,"name":"ireland","country":"us","lat":44.1594444,"lon":-71.8938889},{"id":3033287,"name":"coles corner","country":"us","lat":44.4936111,"lon":-72.0580556},{"id":3033880,"name":"thetford hill","country":"us","lat":43.8194444,"lon":-72.2291667},{"id":2982822,"name":"meredith center","country":"us","lat":43.6141667,"lon":-71.5297222},{"id":3033672,"name":"olcot falls mobile home park","country":"us","lat":43.6813889,"lon":-72.3083333},{"id":2982885,"name":"north groton","country":"us","lat":43.7597222,"lon":-71.8702778},{"id":2982839,"name":"monroe","country":"us","lat":44.2602778,"lon":-72.0552778},{"id":3033364,"name":"east montpelier","country":"us","lat":44.2711111,"lon":-72.4875},{"id":3033924,"name":"wells river","country":"us","lat":44.1541667,"lon":-72.0475},{"id":3033653,"name":"north thetford","country":"us","lat":43.8430556,"lon":-72.1861111},{"id":3033548,"name":"lower websterville","country":"us","lat":44.1680556,"lon":-72.4786111},{"id":3033816,"name":"south peacham","country":"us","lat":44.3147222,"lon":-72.1663889},{"id":3033701,"name":"plainfield","country":"us","lat":44.2780556,"lon":-72.4269444},{"id":3033481,"name":"hewitts corners","country":"us","lat":43.7233333,"lon":-72.4991667},{"id":2982630,"name":"glencliff","country":"us","lat":43.9827778,"lon":-71.8938889},{"id":2982690,"name":"hill","country":"us","lat":43.5241667,"lon":-71.7013889},{"id":2982600,"name":"fords mill","country":"us","lat":43.5413889,"lon":-71.9002778},{"id":2982492,"name":"danbury","country":"us","lat":43.5255556,"lon":-71.8622222},{"id":3033721,"name":"quechee","country":"us","lat":43.6461111,"lon":-72.4188889},{"id":2983024,"name":"sachem village","country":"us","lat":43.6830556,"lon":-72.2861111},{"id":2982573,"name":"ellsworth","country":"us","lat":43.8738889,"lon":-71.7369444},{"id":3033600,"name":"mosquitoville","country":"us","lat":44.2702778,"lon":-72.1444444},{"id":3033831,"name":"south walden","country":"us","lat":44.4744444,"lon":-72.2902778},{"id":2983116,"name":"stinson lake","country":"us","lat":43.8611111,"lon":-71.8088889},{"id":3033674,"name":"old city","country":"us","lat":43.8802778,"lon":-72.3683333},{"id":2982702,"name":"holderness","country":"us","lat":43.7319444,"lon":-71.5888889},{"id":2982547,"name":"east plainfield","country":"us","lat":43.5763889,"lon":-72.2261111},{"id":2982327,"name":"ashland","country":"us","lat":43.6952778,"lon":-71.6311111},{"id":2982766,"name":"lincoln","country":"us","lat":44.0455556,"lon":-71.6705556},{"id":2982422,"name":"center haverhill","country":"us","lat":44.0769444,"lon":-71.9861111},{"id":2983182,"name":"waumbeck junction","country":"us","lat":44.3738889,"lon":-71.5202778},{"id":2983162,"name":"twin mountain","country":"us","lat":44.2722222,"lon":-71.5394444},{"id":3033942,"name":"west corinth","country":"us","lat":44.0413889,"lon":-72.3363889},{"id":3033307,"name":"danville","country":"us","lat":44.4111111,"lon":-72.1397222},{"id":3033973,"name":"west topsham","country":"us","lat":44.115,"lon":-72.3122222}]});