callback({"markets":[{"id":1966749,"name":"anker","country":"na","lat":-18.9166667,"lon":18.9833333},{"id":1968852,"name":"twyfelspoort","country":"na","lat":-18.8833333,"lon":18.7333333},{"id":1967124,"name":"henta","country":"na","lat":-18.95,"lon":18.7333333},{"id":1966853,"name":"denarius","country":"na","lat":-18.85,"lon":19.0333333},{"id":1968689,"name":"shunem","country":"na","lat":-18.9333333,"lon":18.5833333},{"id":1968820,"name":"toevlug","country":"na","lat":-18.8,"lon":18.6},{"id":1968830,"name":"tranedal","country":"na","lat":-18.8,"lon":18.8},{"id":1968862,"name":"uitsig","country":"na","lat":-18.8333333,"lon":18.6666667},{"id":1968923,"name":"wag-\u0027n-bietjie","country":"na","lat":-18.8,"lon":18.5833333},{"id":1966756,"name":"arbeidsloon","country":"na","lat":-18.95,"lon":18.9},{"id":1968915,"name":"voorwaarts","country":"na","lat":-18.8666667,"lon":18.85},{"id":1968947,"name":"wildacker","country":"na","lat":-18.9166667,"lon":19.1},{"id":1968787,"name":"sukkelsoek","country":"na","lat":-18.8,"lon":18.5166667},{"id":1968291,"name":"onreg","country":"na","lat":-18.8,"lon":18.8833333},{"id":1967545,"name":"mooibome","country":"na","lat":-18.7833333,"lon":18.7166667},{"id":1968821,"name":"toggekry","country":"na","lat":-18.95,"lon":18.6333333},{"id":1967483,"name":"maroeloboom","country":"na","lat":-19.2333333,"lon":18.8},{"id":1968863,"name":"uitspan","country":"na","lat":-18.8666667,"lon":18.6666667},{"id":1968809,"name":"tiervlei","country":"na","lat":-18.8333333,"lon":18.9833333},{"id":1968534,"name":"paradys","country":"na","lat":-18.85,"lon":19.1},{"id":1967694,"name":"non dimenticar","country":"na","lat":-18.95,"lon":18.85},{"id":1968941,"name":"welkom","country":"na","lat":-18.85,"lon":18.5},{"id":1967120,"name":"heidehof","country":"na","lat":-18.9666667,"lon":19.1666667},{"id":1967696,"name":"nora","country":"na","lat":-18.95,"lon":18.7833333},{"id":1966857,"name":"de start","country":"na","lat":-18.9666667,"lon":19.1},{"id":1968916,"name":"vorstershoop","country":"na","lat":-18.9666667,"lon":19.05},{"id":1966861,"name":"die end","country":"na","lat":-18.8833333,"lon":18.8},{"id":1966854,"name":"deo-volente","country":"na","lat":-18.9,"lon":18.9166667},{"id":1967142,"name":"horison","country":"na","lat":-18.8666667,"lon":18.55},{"id":1966886,"name":"duinekraal","country":"na","lat":-18.95,"lon":18.5333333}]});