callback({"markets":[{"id":854126,"name":"baden","country":"er","lat":16.9,"lon":37.9333333},{"id":854357,"name":"ela tita","country":"er","lat":16.8833333,"lon":37.6333333},{"id":854778,"name":"nacfa","country":"er","lat":16.6669444,"lon":38.4791667},{"id":854721,"name":"medruriet","country":"er","lat":16.9666667,"lon":38.3833333},{"id":854684,"name":"malhas","country":"er","lat":16.55,"lon":38.0833333},{"id":854015,"name":"agra\u0027i","country":"er","lat":17.0166667,"lon":38.4166667},{"id":854852,"name":"scerit","country":"er","lat":16.6166667,"lon":37.8166667},{"id":854912,"name":"tahara","country":"er","lat":16.5666667,"lon":38.1833333},{"id":854981,"name":"wedegiba","country":"er","lat":17.1166667,"lon":38.3666667},{"id":854519,"name":"hasta","country":"er","lat":16.9666667,"lon":38.1},{"id":854392,"name":"felhit","country":"er","lat":16.65,"lon":38.0333333},{"id":854487,"name":"hacal todaro","country":"er","lat":17.1666667,"lon":37.55},{"id":854005,"name":"af ceua","country":"er","lat":17.0666667,"lon":38.3666667},{"id":854943,"name":"tof alaba","country":"er","lat":16.5166667,"lon":38.2}]});