callback({"markets":[{"id":1647596,"name":"kukuryum","country":"kz","lat":47.816667,"lon":84.633333},{"id":1643852,"name":"dairovo","country":"kz","lat":47.616667,"lon":84.95},{"id":1650877,"name":"roshkovo","country":"kz","lat":47.75,"lon":84.916667},{"id":1642098,"name":"ayna-bulak","country":"kz","lat":47.533333,"lon":84.966667},{"id":1640936,"name":"akaral","country":"kz","lat":47.766667,"lon":84.766667},{"id":1653578,"name":"tyustas","country":"kz","lat":47.933333,"lon":84.916667},{"id":1650895,"name":"rozhdestvenskiy","country":"kz","lat":48.033333,"lon":85.3},{"id":1643401,"name":"buran","country":"kz","lat":48.015278,"lon":85.194444},{"id":1645880,"name":"karatal","country":"kz","lat":47.6,"lon":85.2},{"id":1641786,"name":"arkhipovskiy","country":"kz","lat":48.433333,"lon":85.466667},{"id":1643645,"name":"chernoirtyshskiy","country":"kz","lat":47.833333,"lon":85.0},{"id":1643673,"name":"chernyayevskiy","country":"kz","lat":48.116667,"lon":85.2},{"id":1647556,"name":"kuanosh","country":"kz","lat":47.683333,"lon":84.966667},{"id":1651430,"name":"sekoyenorda","country":"kz","lat":47.9,"lon":84.9},{"id":1652320,"name":"spasskiy","country":"kz","lat":48.466667,"lon":85.3},{"id":1649169,"name":"muzhuk-su","country":"kz","lat":47.7,"lon":84.966667},{"id":1650825,"name":"rechnoy","country":"kz","lat":47.966667,"lon":85.083333},{"id":1646680,"name":"kogoday","country":"kz","lat":47.6,"lon":85.066667},{"id":1653676,"name":"ul\u0027kekaratal","country":"kz","lat":47.633333,"lon":85.25},{"id":1651339,"name":"sarzhira","country":"kz","lat":47.6,"lon":84.883333},{"id":1644664,"name":"gornoye","country":"kz","lat":48.4725,"lon":84.994444},{"id":1652631,"name":"takyr","country":"kz","lat":48.166667,"lon":84.983333},{"id":1646279,"name":"kendyrlik","country":"kz","lat":47.5,"lon":85.2}]});