callback({"markets":[{"id":3058398,"name":"calzada de canagua","country":"ve","lat":7.95,"lon":-69.9333333},{"id":3072811,"name":"papayito","country":"ve","lat":7.9666667,"lon":-70.1333333},{"id":3076939,"name":"vegon de santa rosa","country":"ve","lat":8.4491667,"lon":-69.6794444},{"id":3061413,"name":"el ceibote","country":"ve","lat":8.2,"lon":-70.3666667},{"id":3067443,"name":"la palma real","country":"ve","lat":8.3,"lon":-69.7833333},{"id":3075319,"name":"san nicolas","country":"ve","lat":7.6538889,"lon":-69.7888889},{"id":3074845,"name":"san antonio del campo","country":"ve","lat":8.15,"lon":-70.4166667},{"id":3076936,"name":"vegon abajo","country":"ve","lat":8.4666667,"lon":-69.6333333},{"id":3074389,"name":"rincon de las cocuizas","country":"ve","lat":7.92,"lon":-70.3361111},{"id":3066469,"name":"la florena","country":"ve","lat":7.8808333,"lon":-69.6338889},{"id":3058496,"name":"campo alegre","country":"ve","lat":7.6833333,"lon":-70.3666667},{"id":3060672,"name":"domingo garrido","country":"ve","lat":8.3666667,"lon":-69.55},{"id":3063735,"name":"el toro","country":"ve","lat":7.6166667,"lon":-70.3166667},{"id":3075453,"name":"san silvestre","country":"ve","lat":8.2797222,"lon":-70.1083333},{"id":3064949,"name":"hato cardonal","country":"ve","lat":7.5666667,"lon":-70.4166667},{"id":3068817,"name":"las piedras","country":"ve","lat":8.15,"lon":-70.05},{"id":3057569,"name":"barriatera","country":"ve","lat":7.6461111,"lon":-69.7127778},{"id":3065964,"name":"la ceibita","country":"ve","lat":8.4833333,"lon":-70.05},{"id":3067188,"name":"la matica","country":"ve","lat":8.1522222,"lon":-70.4677778},{"id":3061440,"name":"el cerrito conchero","country":"ve","lat":7.8666667,"lon":-70.11},{"id":3062350,"name":"el laurel","country":"ve","lat":7.7780556,"lon":-69.8847222},{"id":3057449,"name":"baracharo","country":"ve","lat":8.0833333,"lon":-69.8333333},{"id":3069253,"name":"laurecito","country":"ve","lat":7.75,"lon":-69.8333333},{"id":3075681,"name":"santa marta","country":"ve","lat":7.7166667,"lon":-70.1666667},{"id":3057654,"name":"bejuco de mata","country":"ve","lat":7.7383333,"lon":-69.7477778},{"id":3060144,"name":"cornzal","country":"ve","lat":8.2,"lon":-69.9333333},{"id":3059951,"name":"cocuizas","country":"ve","lat":8.39,"lon":-69.6727778},{"id":3069840,"name":"los cabanetones","country":"ve","lat":8.4166667,"lon":-69.6666667},{"id":3075603,"name":"santa ines","country":"ve","lat":8.2688889,"lon":-69.8997222},{"id":3061556,"name":"el chozote","country":"ve","lat":8.1833333,"lon":-70.3},{"id":3071345,"name":"mata de bejuco","country":"ve","lat":8.275,"lon":-69.8361111},{"id":3065628,"name":"la balicola","country":"ve","lat":8.1,"lon":-70.4166667},{"id":3063769,"name":"el trapichito","country":"ve","lat":7.5333333,"lon":-70.3666667},{"id":3067466,"name":"la palmito","country":"ve","lat":7.6913889,"lon":-69.6486111},{"id":3074249,"name":"ramal de dolores","country":"ve","lat":8.3091667,"lon":-69.5488889},{"id":3076973,"name":"ventura","country":"ve","lat":8.25,"lon":-70.3666667},{"id":3067926,"name":"la rompia","country":"ve","lat":8.0055556,"lon":-69.5361111},{"id":3058063,"name":"brazos dieras","country":"ve","lat":7.7166667,"lon":-70.1333333},{"id":3069296,"name":"la vega","country":"ve","lat":8.2333333,"lon":-70.0333333},{"id":3066663,"name":"la guarena","country":"ve","lat":7.95,"lon":-69.5},{"id":3059667,"name":"chaparrote","country":"ve","lat":8.15,"lon":-70.3666667},{"id":3057825,"name":"boca de la tigra","country":"ve","lat":7.7902778,"lon":-70.0633333},{"id":3072063,"name":"morrocay","country":"ve","lat":7.6891667,"lon":-69.7025},{"id":3065095,"name":"hurtado abajo","country":"ve","lat":8.3122222,"lon":-69.8505556},{"id":3071161,"name":"maporita","country":"ve","lat":8.095,"lon":-69.755},{"id":3058091,"name":"bucarilto","country":"ve","lat":8.4561111,"lon":-70.0183333},{"id":3071383,"name":"mata de leon","country":"ve","lat":7.95,"lon":-70.2333333},{"id":3071416,"name":"mata despegada","country":"ve","lat":7.5,"lon":-69.5333333},{"id":3060125,"name":"cordereno","country":"ve","lat":7.95,"lon":-69.9},{"id":3076836,"name":"uvero gacho","country":"ve","lat":8.3666667,"lon":-69.6666667},{"id":3069795,"name":"los becerros","country":"ve","lat":8.35,"lon":-70.25},{"id":3070475,"name":"los palmares","country":"ve","lat":8.2333333,"lon":-70.1333333},{"id":3069478,"name":"libertad","country":"ve","lat":8.3308333,"lon":-69.6283333},{"id":3070817,"name":"macanillal","country":"ve","lat":8.0855556,"lon":-69.7783333},{"id":3076934,"name":"vega","country":"ve","lat":8.0333333,"lon":-70.0333333},{"id":3061932,"name":"el espinosero","country":"ve","lat":7.5958333,"lon":-70.1425},{"id":3073482,"name":"platanal inglesero","country":"ve","lat":7.7166667,"lon":-69.7666667},{"id":3071382,"name":"mata de leon","country":"ve","lat":7.6333333,"lon":-69.9666667},{"id":3060216,"name":"corral falso","country":"ve","lat":8.1116667,"lon":-70.0216667},{"id":3063464,"name":"el sagua","country":"ve","lat":8.35,"lon":-70.15},{"id":3067710,"name":"la ponia","country":"ve","lat":8.2666667,"lon":-69.55},{"id":3076405,"name":"tomas rivas","country":"ve","lat":8.2,"lon":-70.4},{"id":3067067,"name":"la madera","country":"ve","lat":8.445,"lon":-69.9277778},{"id":3068606,"name":"las mayitas","country":"ve","lat":8.2,"lon":-70.1},{"id":3064266,"name":"gavilan","country":"ve","lat":8.0797222,"lon":-69.5366667},{"id":3075208,"name":"san juan","country":"ve","lat":8.1166667,"lon":-69.7166667},{"id":3067370,"name":"la nietera","country":"ve","lat":7.8,"lon":-69.6166667},{"id":3059487,"name":"cerrito morinero","country":"ve","lat":8.0333333,"lon":-70.1333333},{"id":3076243,"name":"temblador","country":"ve","lat":7.9166667,"lon":-69.8666667},{"id":3060851,"name":"el amparo","country":"ve","lat":8.3166667,"lon":-69.85},{"id":3061665,"name":"el copal","country":"ve","lat":7.5,"lon":-69.7833333},{"id":3069668,"name":"los algodones","country":"ve","lat":7.5466667,"lon":-69.7088889},{"id":3075765,"name":"santa susana","country":"ve","lat":7.8333333,"lon":-70.1833333},{"id":3063725,"name":"el toreno","country":"ve","lat":8.3630556,"lon":-70.0644444},{"id":3069049,"name":"las uvitas","country":"ve","lat":8.0666667,"lon":-69.5811111},{"id":3072891,"name":"paraquitos","country":"ve","lat":7.7383333,"lon":-69.7441667},{"id":3077125,"name":"wevereno","country":"ve","lat":7.5833333,"lon":-69.8666667},{"id":3062208,"name":"el hortelguero","country":"ve","lat":8.1508333,"lon":-70.2527778},{"id":3073592,"name":"portobelo","country":"ve","lat":7.5111111,"lon":-69.8977778},{"id":3066123,"name":"la corbada","country":"ve","lat":7.7716667,"lon":-70.1263889},{"id":3070908,"name":"madre vieja arriba","country":"ve","lat":8.2666667,"lon":-69.5333333},{"id":3071396,"name":"mata de mata","country":"ve","lat":7.5933333,"lon":-69.9394444},{"id":3061030,"name":"el blanquero","country":"ve","lat":8.03,"lon":-69.9466667},{"id":3072466,"name":"orticero","country":"ve","lat":7.9083333,"lon":-70.1038889},{"id":3072810,"name":"papaya","country":"ve","lat":8.4375,"lon":-69.5897222},{"id":3061657,"name":"el consuelo","country":"ve","lat":8.1288889,"lon":-70.4361111},{"id":3063153,"name":"el portachuelo","country":"ve","lat":7.9077778,"lon":-69.5997222},{"id":3058372,"name":"calcetas","country":"ve","lat":7.7152778,"lon":-70.3636111},{"id":3072514,"name":"paguecito","country":"ve","lat":8.3966667,"lon":-70.2655556},{"id":3064033,"name":"esmeralda","country":"ve","lat":8.4166667,"lon":-69.8833333},{"id":3071420,"name":"mata de turagua","country":"ve","lat":7.6333333,"lon":-69.6},{"id":3069823,"name":"los bucaritos","country":"ve","lat":7.8,"lon":-69.6666667},{"id":3063155,"name":"el portachuelo","country":"ve","lat":8.2333333,"lon":-70.15},{"id":3072607,"name":"palma real","country":"ve","lat":8.2619444,"lon":-69.7644444},{"id":3065777,"name":"la cachaza","country":"ve","lat":8.3333333,"lon":-69.7166667},{"id":3074250,"name":"ramal de libertad","country":"ve","lat":8.3694444,"lon":-69.6083333},{"id":3058658,"name":"candelaria","country":"ve","lat":8.45,"lon":-70.0333333},{"id":3067634,"name":"la piedra","country":"ve","lat":8.2227778,"lon":-69.7005556},{"id":3068678,"name":"las mulas","country":"ve","lat":7.5019444,"lon":-69.7397222},{"id":3071399,"name":"mata de musiu","country":"ve","lat":7.6811111,"lon":-69.8727778},{"id":3063303,"name":"el real","country":"ve","lat":8.4311111,"lon":-70.0016667},{"id":3062677,"name":"el multado","country":"ve","lat":8.3666667,"lon":-69.8333333},{"id":3068707,"name":"la soledad","country":"ve","lat":8.0166667,"lon":-70.15},{"id":3074187,"name":"quintero","country":"ve","lat":7.7925,"lon":-69.8055556},{"id":3057307,"name":"avendanero","country":"ve","lat":8.2494444,"lon":-69.6141667},{"id":3075890,"name":"serranero","country":"ve","lat":7.6,"lon":-69.6333333},{"id":3066388,"name":"la esperanza","country":"ve","lat":7.6166667,"lon":-70.3},{"id":3065935,"name":"la cava","country":"ve","lat":7.6166667,"lon":-70.15},{"id":3071477,"name":"mata palo","country":"ve","lat":8.1,"lon":-69.7166667},{"id":3070753,"name":"los uveritos","country":"ve","lat":7.8816667,"lon":-69.6766667},{"id":3067297,"name":"la montanita","country":"ve","lat":8.4561111,"lon":-70.0538889},{"id":3070907,"name":"madre vieja abajo","country":"ve","lat":8.25,"lon":-69.5333333},{"id":3066501,"name":"la fortuna","country":"ve","lat":7.6961111,"lon":-70.4180556},{"id":3067319,"name":"la morita","country":"ve","lat":7.9166667,"lon":-70.2333333},{"id":3071390,"name":"mata de loro","country":"ve","lat":7.75,"lon":-69.8833333},{"id":3071993,"name":"morelena","country":"ve","lat":8.2666667,"lon":-70.2666667},{"id":3061079,"name":"el brilero","country":"ve","lat":8.1833333,"lon":-69.6},{"id":3067456,"name":"la palmita","country":"ve","lat":7.6744444,"lon":-70.3730556},{"id":3062490,"name":"el manguito","country":"ve","lat":8.1116667,"lon":-69.7641667},{"id":3063147,"name":"el polvero","country":"ve","lat":7.8908333,"lon":-70.3316667},{"id":3071429,"name":"mata e zamuro","country":"ve","lat":7.5144444,"lon":-69.9672222},{"id":3064313,"name":"graterol","country":"ve","lat":7.75,"lon":-70.0166667},{"id":3071367,"name":"mata de gabino","country":"ve","lat":8.15,"lon":-70.0333333},{"id":3060899,"name":"el areno","country":"ve","lat":8.05,"lon":-69.6666667},{"id":3074359,"name":"reyes mendez","country":"ve","lat":7.7333333,"lon":-70.0166667},{"id":3071403,"name":"mata de oritz","country":"ve","lat":8.25,"lon":-70.1666667},{"id":3067121,"name":"la maporita","country":"ve","lat":7.9533333,"lon":-69.5122222},{"id":3074283,"name":"rancho grande","country":"ve","lat":8.35,"lon":-69.6333333},{"id":3062021,"name":"el gonzalero","country":"ve","lat":7.6166667,"lon":-70.25},{"id":3061507,"name":"el chavero","country":"ve","lat":8.3019444,"lon":-70.2158333},{"id":3065663,"name":"la bellaca","country":"ve","lat":8.3833333,"lon":-69.6333333},{"id":3067034,"name":"la lucha","country":"ve","lat":7.5611111,"lon":-69.8944444},{"id":3075543,"name":"santa cruz","country":"ve","lat":7.85,"lon":-69.5666667},{"id":3074780,"name":"salome","country":"ve","lat":7.7775,"lon":-70.1572222},{"id":3074653,"name":"sabana grande","country":"ve","lat":8.0602778,"lon":-69.7425},{"id":3060196,"name":"corozalito","country":"ve","lat":8.0388889,"lon":-69.5836111},{"id":3067053,"name":"la macagua","country":"ve","lat":8.3333333,"lon":-69.5833333},{"id":3066579,"name":"la gloria","country":"ve","lat":8.0977778,"lon":-69.5955556},{"id":3067976,"name":"la sabaneta","country":"ve","lat":8.4833333,"lon":-70.1},{"id":3071317,"name":"mata angelina","country":"ve","lat":8.4,"lon":-69.85},{"id":3064306,"name":"granja","country":"ve","lat":8.3833333,"lon":-70.1166667},{"id":3073032,"name":"paso real","country":"ve","lat":8.0333333,"lon":-69.6},{"id":3059874,"name":"cientos","country":"ve","lat":8.2333333,"lon":-69.6},{"id":3058626,"name":"canagua","country":"ve","lat":8.0266667,"lon":-70.0086111},{"id":3071501,"name":"matas de garzon","country":"ve","lat":8.45,"lon":-70.35},{"id":3065653,"name":"la baticola","country":"ve","lat":8.1161111,"lon":-70.4252778},{"id":3062630,"name":"el morocoy","country":"ve","lat":8.25,"lon":-69.85},{"id":3063615,"name":"el tambor","country":"ve","lat":8.33,"lon":-69.7416667},{"id":3060670,"name":"dolores","country":"ve","lat":8.2897222,"lon":-69.5638889},{"id":3071355,"name":"mata de ceiba","country":"ve","lat":7.5161111,"lon":-70.0072222},{"id":3062624,"name":"el moraleno","country":"ve","lat":8.2677778,"lon":-70.2722222},{"id":3062284,"name":"el jobal","country":"ve","lat":7.6166667,"lon":-70.2333333},{"id":3071171,"name":"mapurital","country":"ve","lat":8.2,"lon":-69.5666667},{"id":3059684,"name":"charco largo","country":"ve","lat":8.2666667,"lon":-69.5833333},{"id":3075789,"name":"santo domingo","country":"ve","lat":7.7452778,"lon":-70.3991667},{"id":3060676,"name":"dona ana","country":"ve","lat":8.0886111,"lon":-70.4566667},{"id":3063963,"name":"el zamuzo","country":"ve","lat":7.7833333,"lon":-69.8333333},{"id":3058826,"name":"cano seco de bijao","country":"ve","lat":8.3872222,"lon":-69.6013889},{"id":3066315,"name":"la dudosa","country":"ve","lat":8.45,"lon":-70.0833333},{"id":3063750,"name":"el totumo","country":"ve","lat":7.9833333,"lon":-69.5833333},{"id":3068614,"name":"las mercedes","country":"ve","lat":7.6333333,"lon":-70.3833333},{"id":3068273,"name":"las culaticas","country":"ve","lat":8.45,"lon":-69.8666667},{"id":3063011,"name":"el pereno","country":"ve","lat":7.6333333,"lon":-70.4},{"id":3065630,"name":"la balsa","country":"ve","lat":8.2694444,"lon":-70.1430556},{"id":3075745,"name":"santa rosa","country":"ve","lat":8.4411111,"lon":-69.7},{"id":3066358,"name":"la erica","country":"ve","lat":8.475,"lon":-70.365},{"id":3064201,"name":"gallegos","country":"ve","lat":8.18,"lon":-69.9358333},{"id":3057885,"name":"boca de tortuga","country":"ve","lat":7.5666667,"lon":-70.35},{"id":3071408,"name":"mata de pilon","country":"ve","lat":7.5444444,"lon":-69.6038889},{"id":3075631,"name":"santa juana","country":"ve","lat":8.3166667,"lon":-70.2333333},{"id":3059040,"name":"cardonal","country":"ve","lat":7.5,"lon":-70.1333333},{"id":3075233,"name":"san lorenzo","country":"ve","lat":8.3444444,"lon":-69.9311111},{"id":3067987,"name":"las abras","country":"ve","lat":8.3666667,"lon":-70.3333333},{"id":3068344,"name":"las esperanza","country":"ve","lat":8.3947222,"lon":-70.2291667},{"id":3075731,"name":"santa rosalia","country":"ve","lat":7.7827778,"lon":-70.1233333},{"id":3066588,"name":"la gomera","country":"ve","lat":8.45,"lon":-69.75},{"id":3059733,"name":"chinchorro","country":"ve","lat":8.3327778,"lon":-69.7305556},{"id":3062007,"name":"el gavilan","country":"ve","lat":8.4833333,"lon":-70.0166667},{"id":3071308,"name":"masparrito arriba","country":"ve","lat":8.4136111,"lon":-69.6877778},{"id":3059927,"name":"cococito vega","country":"ve","lat":8.4819444,"lon":-69.6808333},{"id":3056716,"name":"agua larga","country":"ve","lat":8.3269444,"lon":-69.6072222},{"id":3056680,"name":"aguadela","country":"ve","lat":8.27,"lon":-69.5569444},{"id":3074677,"name":"sabana nueva","country":"ve","lat":8.3508333,"lon":-69.5063889},{"id":3060183,"name":"corozal","country":"ve","lat":8.15,"lon":-69.85},{"id":3063657,"name":"el teresero","country":"ve","lat":8.4897222,"lon":-70.2441667},{"id":3072581,"name":"palital","country":"ve","lat":7.7166667,"lon":-70.4333333},{"id":3061575,"name":"el cinal","country":"ve","lat":8.2058333,"lon":-70.1980556},{"id":3074140,"name":"quenequenero","country":"ve","lat":7.7347222,"lon":-69.5525},{"id":3069409,"name":"la vuelta de barreto","country":"ve","lat":7.5927778,"lon":-70.155},{"id":3064687,"name":"guasimal","country":"ve","lat":8.2322222,"lon":-69.5611111},{"id":3058092,"name":"bucarito","country":"ve","lat":8.455,"lon":-70.455},{"id":3057868,"name":"boca de rojas","country":"ve","lat":8.3,"lon":-69.6333333},{"id":3066957,"name":"la legua","country":"ve","lat":8.2,"lon":-70.0666667},{"id":3067586,"name":"la perdida","country":"ve","lat":7.8955556,"lon":-69.5622222},{"id":3057629,"name":"batatal","country":"ve","lat":8.2,"lon":-70.1166667},{"id":3061970,"name":"el franciero","country":"ve","lat":8.2294444,"lon":-69.7597222},{"id":3075389,"name":"san rafael de canagua","country":"ve","lat":7.9666667,"lon":-70.1166667},{"id":3073614,"name":"potrerito","country":"ve","lat":8.3461111,"lon":-69.8241667},{"id":3072577,"name":"paletones","country":"ve","lat":7.7666667,"lon":-70.2833333},{"id":3068048,"name":"las babas","country":"ve","lat":8.2786111,"lon":-69.6005556},{"id":3063176,"name":"el porvenir","country":"ve","lat":8.1333333,"lon":-70.4333333},{"id":3064494,"name":"guanapito","country":"ve","lat":8.2833333,"lon":-69.5333333},{"id":3075665,"name":"santa maria","country":"ve","lat":8.2313889,"lon":-69.9647222},{"id":3063431,"name":"el rojero","country":"ve","lat":8.2833333,"lon":-69.8},{"id":3060729,"name":"el abre carton","country":"ve","lat":7.7666667,"lon":-70.0166667},{"id":3071574,"name":"medanito","country":"ve","lat":7.6558333,"lon":-70.1152778},{"id":3057769,"name":"boca caparo","country":"ve","lat":7.6333333,"lon":-70.15},{"id":3071307,"name":"masparrito abajo","country":"ve","lat":8.3644444,"lon":-69.6691667},{"id":3065805,"name":"la calzada","country":"ve","lat":7.9666667,"lon":-70.1},{"id":3064357,"name":"guache","country":"ve","lat":8.1094444,"lon":-69.7897222},{"id":3067035,"name":"la lucha","country":"ve","lat":8.0583333,"lon":-69.875},{"id":3057417,"name":"banco alto","country":"ve","lat":7.65,"lon":-70.3333333},{"id":3061828,"name":"el diamante","country":"ve","lat":8.2333333,"lon":-70.35},{"id":3072579,"name":"palital de apure","country":"ve","lat":7.75,"lon":-70.1},{"id":3071344,"name":"mata de bejuco","country":"ve","lat":7.7397222,"lon":-69.7083333},{"id":3057741,"name":"bijao","country":"ve","lat":8.3519444,"lon":-69.5897222},{"id":3063384,"name":"el rincon","country":"ve","lat":7.6666667,"lon":-70.4833333},{"id":3056775,"name":"agua verde","country":"ve","lat":8.0166667,"lon":-69.55},{"id":3057009,"name":"anaro","country":"ve","lat":7.8105556,"lon":-70.2877778},{"id":3074322,"name":"rebolledo","country":"ve","lat":8.4666667,"lon":-70.4},{"id":3074141,"name":"quenequero","country":"ve","lat":7.7338889,"lon":-69.5527778},{"id":3071714,"name":"mesere","country":"ve","lat":8.3,"lon":-70.4},{"id":3073298,"name":"picure","country":"ve","lat":8.2333333,"lon":-69.55},{"id":3075588,"name":"santa fe","country":"ve","lat":8.3694444,"lon":-70.0094444},{"id":3063970,"name":"el zapatero","country":"ve","lat":8.0666667,"lon":-70.3666667},{"id":3060745,"name":"el aceiutono","country":"ve","lat":8.25,"lon":-69.9833333},{"id":3075704,"name":"santa rita","country":"ve","lat":7.8166667,"lon":-70.2833333},{"id":3058391,"name":"calleja","country":"ve","lat":7.9833333,"lon":-69.6333333},{"id":3071488,"name":"mata rala","country":"ve","lat":7.9416667,"lon":-70.2438889},{"id":3075841,"name":"sarare","country":"ve","lat":8.1133333,"lon":-69.8180556},{"id":3069146,"name":"la tigra","country":"ve","lat":7.7666667,"lon":-70.0333333},{"id":3058667,"name":"canejones","country":"ve","lat":8.45,"lon":-69.7333333},{"id":3061319,"name":"el carozal","country":"ve","lat":8.3755556,"lon":-69.6519444},{"id":3063430,"name":"el rojen","country":"ve","lat":8.45,"lon":-70.3},{"id":3056779,"name":"agua viva","country":"ve","lat":8.3175,"lon":-69.6061111},{"id":3068203,"name":"las cocuizas","country":"ve","lat":8.0227778,"lon":-69.9944444},{"id":3061789,"name":"el cuzco","country":"ve","lat":8.0833333,"lon":-70.0333333},{"id":3065726,"name":"la boraloza","country":"ve","lat":8.1166667,"lon":-70.4333333},{"id":3064558,"name":"guaranda","country":"ve","lat":8.1063889,"lon":-69.7238889},{"id":3068295,"name":"las delicias","country":"ve","lat":8.15,"lon":-70.4666667},{"id":3060988,"name":"el barro","country":"ve","lat":8.2511111,"lon":-69.9419444},{"id":3063862,"name":"el vegon de dolores","country":"ve","lat":8.2811111,"lon":-69.5111111},{"id":3057261,"name":"aserradero","country":"ve","lat":7.7877778,"lon":-70.27},{"id":3063863,"name":"el vegon","country":"ve","lat":8.2833333,"lon":-69.5166667},{"id":3064869,"name":"guyabal","country":"ve","lat":8.4,"lon":-69.7},{"id":3071498,"name":"mata rota","country":"ve","lat":7.95,"lon":-70.2666667},{"id":3074203,"name":"quirobena","country":"ve","lat":8.25,"lon":-69.5666667},{"id":3062317,"name":"el jordanero","country":"ve","lat":8.3666667,"lon":-69.7166667},{"id":3062888,"name":"el paraiso","country":"ve","lat":8.0,"lon":-70.45},{"id":3062527,"name":"el martinero","country":"ve","lat":8.395,"lon":-70.3133333},{"id":3073801,"name":"puerta de mata","country":"ve","lat":7.5333333,"lon":-69.5833333},{"id":3063408,"name":"el roble","country":"ve","lat":8.05,"lon":-70.3333333},{"id":3062525,"name":"el martimero","country":"ve","lat":8.4166667,"lon":-70.3333333},{"id":3056719,"name":"agua larga de dolores","country":"ve","lat":8.3194444,"lon":-69.5327778},{"id":3066905,"name":"la juvita","country":"ve","lat":8.0833333,"lon":-69.5833333},{"id":3073022,"name":"paso real bolano","country":"ve","lat":8.05,"lon":-69.7833333},{"id":3066709,"name":"laguna hermosa","country":"ve","lat":8.1333333,"lon":-69.75},{"id":3058348,"name":"cajeta","country":"ve","lat":8.2166667,"lon":-70.4333333},{"id":3067739,"name":"la providencia","country":"ve","lat":7.9166667,"lon":-70.3},{"id":3068899,"name":"las queseras","country":"ve","lat":8.4333333,"lon":-70.1333333},{"id":3067827,"name":"la ramera","country":"ve","lat":8.35,"lon":-69.7166667},{"id":3060220,"name":"corralito","country":"ve","lat":7.7333333,"lon":-70.0333333},{"id":3058141,"name":"buenos aires","country":"ve","lat":8.0333333,"lon":-70.1833333},{"id":3074006,"name":"punta larga","country":"ve","lat":7.9361111,"lon":-69.5583333},{"id":3063143,"name":"el polmeta","country":"ve","lat":7.6,"lon":-70.3333333},{"id":3075263,"name":"san marcos","country":"ve","lat":8.4333333,"lon":-70.3833333},{"id":3065121,"name":"independencia","country":"ve","lat":8.4894444,"lon":-69.7061111},{"id":3058928,"name":"caraballero","country":"ve","lat":7.7666667,"lon":-69.65},{"id":3070326,"name":"los manantiales","country":"ve","lat":8.08,"lon":-70.2966667},{"id":3061922,"name":"el esfuerzo","country":"ve","lat":8.3833333,"lon":-69.8666667},{"id":3063455,"name":"el rubiero","country":"ve","lat":8.3333333,"lon":-69.6666667},{"id":3058374,"name":"caldera","country":"ve","lat":8.3333333,"lon":-70.4166667},{"id":3071336,"name":"mata cubarritos","country":"ve","lat":7.5222222,"lon":-70.0527778},{"id":3072515,"name":"pagueicito","country":"ve","lat":8.3905556,"lon":-70.2586111},{"id":3064250,"name":"garzas","country":"ve","lat":8.3833333,"lon":-70.1},{"id":3073346,"name":"piedra grande","country":"ve","lat":8.4016667,"lon":-69.8988889},{"id":3069353,"name":"la victoria","country":"ve","lat":8.1333333,"lon":-70.4833333},{"id":3067122,"name":"la maporita","country":"ve","lat":7.6727778,"lon":-70.4013889},{"id":3067518,"name":"la pastora","country":"ve","lat":7.7033333,"lon":-69.8297222},{"id":3061502,"name":"el charo","country":"ve","lat":7.6183333,"lon":-69.9494444},{"id":3071438,"name":"mata hueca","country":"ve","lat":7.5166667,"lon":-70.0655556},{"id":3068534,"name":"las lomitas","country":"ve","lat":8.1083333,"lon":-70.3738889},{"id":3060086,"name":"constitucion","country":"ve","lat":7.8833333,"lon":-69.6333333},{"id":3065912,"name":"la cascabel","country":"ve","lat":8.1477778,"lon":-69.7433333},{"id":3062282,"name":"el jobal","country":"ve","lat":7.6438889,"lon":-69.7322222},{"id":3066084,"name":"la compaina","country":"ve","lat":8.2497222,"lon":-69.8113889},{"id":3071342,"name":"mata de banco","country":"ve","lat":7.6666667,"lon":-70.0333333},{"id":3075641,"name":"santa lucia","country":"ve","lat":7.7208333,"lon":-70.1783333},{"id":3058249,"name":"cachaza","country":"ve","lat":8.2919444,"lon":-69.7558333},{"id":3068757,"name":"las palmitas","country":"ve","lat":8.0977778,"lon":-70.3183333},{"id":3063829,"name":"el uvero de los muertos","country":"ve","lat":8.3333333,"lon":-69.5666667},{"id":3075545,"name":"santa cruz","country":"ve","lat":8.1333333,"lon":-70.45},{"id":3074536,"name":"roblecito","country":"ve","lat":8.15,"lon":-69.9833333},{"id":3067047,"name":"la luz","country":"ve","lat":8.4,"lon":-69.8194444},{"id":3060800,"name":"el algarrobo","country":"ve","lat":8.05,"lon":-69.6},{"id":3071434,"name":"mata guafillas","country":"ve","lat":7.5216667,"lon":-70.0883333},{"id":3072392,"name":"ojo de agua","country":"ve","lat":8.1666667,"lon":-70.25},{"id":3061340,"name":"el cascabel","country":"ve","lat":8.1833333,"lon":-69.7833333},{"id":3059948,"name":"cocuizal","country":"ve","lat":8.4666667,"lon":-69.8},{"id":3074907,"name":"sancadilla","country":"ve","lat":8.4666667,"lon":-69.7},{"id":3064054,"name":"espinito","country":"ve","lat":8.3983333,"lon":-69.5633333},{"id":3068285,"name":"las curicaras","country":"ve","lat":7.6133333,"lon":-70.0777778},{"id":3072690,"name":"palmitas","country":"ve","lat":8.2666667,"lon":-69.5},{"id":3071152,"name":"maporal","country":"ve","lat":7.6483333,"lon":-70.4186111},{"id":3072963,"name":"paso de guajibo","country":"ve","lat":7.835,"lon":-69.5538889}]});