callback({"markets":[{"id":2387466,"name":"chistyye klyuchi","country":"ru","lat":52.18,"lon":103.948056},{"id":2450815,"name":"malaya shumikha","country":"ru","lat":51.8038,"lon":104.4609},{"id":2371359,"name":"berezovka","country":"ru","lat":52.398889,"lon":104.092222},{"id":2564833,"name":"yubileynyy","country":"ru","lat":52.221944,"lon":104.296667},{"id":2366474,"name":"baklan","country":"ru","lat":51.7606,"lon":104.0945},{"id":2375532,"name":"bolshaya shumikha","country":"ru","lat":51.8004,"lon":104.4717},{"id":2457079,"name":"meget","country":"ru","lat":52.415,"lon":104.049444},{"id":2559823,"name":"yagaty","country":"ru","lat":52.246389,"lon":103.541667},{"id":2368795,"name":"baykalsk","country":"ru","lat":51.5151,"lon":104.1402},{"id":2368969,"name":"baza","country":"ru","lat":52.361667,"lon":104.2725},{"id":2514394,"name":"shelikhov","country":"ru","lat":52.213889,"lon":104.1},{"id":2473689,"name":"novolisikha","country":"ru","lat":52.23,"lon":104.45},{"id":2372196,"name":"bezo mannaya","country":"ru","lat":51.583333,"lon":103.916667},{"id":2529952,"name":"sukhoy ruchey","country":"ru","lat":51.619167,"lon":103.810278},{"id":2520414,"name":"smolenshchina","country":"ru","lat":52.255278,"lon":104.128056},{"id":2363817,"name":"arkhireyka","country":"ru","lat":52.453889,"lon":103.611389},{"id":2487183,"name":"pervomayskiy","country":"ru","lat":52.256389,"lon":104.231667},{"id":2437853,"name":"kultuk","country":"ru","lat":51.720833,"lon":103.695556},{"id":2437349,"name":"kuk-yurt","country":"ru","lat":52.05,"lon":104.15},{"id":2418325,"name":"khayryuzovka","country":"ru","lat":52.402222,"lon":104.184167},{"id":2450911,"name":"malaya topka","country":"ru","lat":52.344722,"lon":104.314444},{"id":2365873,"name":"babkha","country":"ru","lat":51.5328,"lon":104.0867},{"id":2449321,"name":"makarovich","country":"ru","lat":52.3,"lon":103.866667},{"id":2489404,"name":"pionersk","country":"ru","lat":52.239167,"lon":103.976389},{"id":2493276,"name":"polovinnaya","country":"ru","lat":51.8024,"lon":104.3512},{"id":2399711,"name":"glazunova","country":"ru","lat":52.385278,"lon":104.264167},{"id":2392564,"name":"dorstroy","country":"ru","lat":52.06,"lon":103.91},{"id":2394949,"name":"dzerzhinsk","country":"ru","lat":52.280278,"lon":104.386944},{"id":2490199,"name":"plishkino","country":"ru","lat":52.34,"lon":104.49},{"id":2458450,"name":"mikhalevo","country":"ru","lat":52.066667,"lon":104.439444},{"id":2378224,"name":"bolshoy lug","country":"ru","lat":52.065556,"lon":104.083889},{"id":2495362,"name":"poselok vtoroy","country":"ru","lat":52.224167,"lon":104.315833},{"id":2419587,"name":"khomutovo","country":"ru","lat":52.465833,"lon":104.4025},{"id":2370661,"name":"belyy klyuch","country":"ru","lat":52.116944,"lon":103.712778},{"id":2484724,"name":"parki","country":"ru","lat":52.1,"lon":104.466667},{"id":2474542,"name":"novorazvodnaya","country":"ru","lat":52.248056,"lon":104.394167},{"id":2520111,"name":"sludyanka","country":"ru","lat":51.659444,"lon":103.706111},{"id":2542686,"name":"udarnik","country":"ru","lat":52.432222,"lon":104.067778},{"id":2521653,"name":"solnechnyy","country":"ru","lat":52.25,"lon":104.358889},{"id":2532812,"name":"talka","country":"ru","lat":52.452222,"lon":104.455},{"id":2403257,"name":"gramatukha","country":"ru","lat":51.949167,"lon":103.812778},{"id":2494009,"name":"ponomarevka","country":"ru","lat":51.8069,"lon":104.3993},{"id":2512145,"name":"shabartuy","country":"ru","lat":51.7619,"lon":104.0779},{"id":2454481,"name":"marata","country":"ru","lat":52.318889,"lon":104.302222},{"id":2500803,"name":"rassokha","country":"ru","lat":52.016111,"lon":104.1075},{"id":2454044,"name":"mamony","country":"ru","lat":52.309722,"lon":104.178056},{"id":2444175,"name":"letnyaya","country":"ru","lat":52.15,"lon":104.07},{"id":2491256,"name":"podkamennaya","country":"ru","lat":51.966111,"lon":103.909167},{"id":2411432,"name":"kalinovka","country":"ru","lat":52.470556,"lon":103.652778},{"id":2414367,"name":"karluk","country":"ru","lat":52.418611,"lon":104.301667},{"id":2560109,"name":"yakitovka","country":"ru","lat":52.394722,"lon":103.501667},{"id":2388710,"name":"dachnaya","country":"ru","lat":52.126944,"lon":104.073056},{"id":2407429,"name":"imeni lenina","country":"ru","lat":52.338889,"lon":104.224167},{"id":2374326,"name":"bokovo","country":"ru","lat":52.369722,"lon":104.213889},{"id":2564978,"name":"yugo-vostochnyy","country":"ru","lat":52.444167,"lon":103.92},{"id":2570272,"name":"zhardovnik","country":"ru","lat":52.45,"lon":103.933333},{"id":2358413,"name":"adrianovskaya","country":"ru","lat":51.805,"lon":103.809722},{"id":2544613,"name":"urik","country":"ru","lat":52.4575,"lon":104.245556},{"id":2395624,"name":"energetikov","country":"ru","lat":52.228889,"lon":104.309167},{"id":2495303,"name":"poselok tretiy","country":"ru","lat":52.231389,"lon":104.274167},{"id":2509838,"name":"selivanikha","country":"ru","lat":52.299167,"lon":104.232778},{"id":2508673,"name":"savateyevka","country":"ru","lat":52.333333,"lon":103.64},{"id":2563154,"name":"yelovka","country":"ru","lat":52.304444,"lon":103.861389},{"id":2375889,"name":"bolsheglubokovskaya","country":"ru","lat":51.891667,"lon":103.844167},{"id":2407369,"name":"imeni kirova","country":"ru","lat":52.309167,"lon":104.2525},{"id":2359318,"name":"akinino-baklashi","country":"ru","lat":52.225556,"lon":104.048611},{"id":2384288,"name":"chebagor","country":"ru","lat":52.416111,"lon":103.5275},{"id":2483517,"name":"pad melnichnaya","country":"ru","lat":52.16,"lon":104.38},{"id":2451010,"name":"malaya yelan","country":"ru","lat":52.361944,"lon":104.056111},{"id":2484615,"name":"parfenovka","country":"ru","lat":52.337222,"lon":104.307778},{"id":2483538,"name":"pad topka","country":"ru","lat":52.331667,"lon":104.330833},{"id":2512692,"name":"shamanka pervaya","country":"ru","lat":52.066667,"lon":103.820278},{"id":2518670,"name":"sinyushina gora","country":"ru","lat":52.264167,"lon":104.2075},{"id":2573308,"name":"zuy","country":"ru","lat":52.45,"lon":104.066667},{"id":2362253,"name":"angasolka","country":"ru","lat":51.752778,"lon":103.741944},{"id":2564181,"name":"yershi","country":"ru","lat":52.2,"lon":104.333333},{"id":2496092,"name":"pozdnyakova","country":"ru","lat":52.483333,"lon":104.433333},{"id":2449889,"name":"maksimovshchina","country":"ru","lat":52.273056,"lon":104.121111},{"id":2386726,"name":"chetvertyy poselok","country":"ru","lat":52.484444,"lon":103.842778},{"id":2390712,"name":"devyatyy kilometr","country":"ru","lat":52.278056,"lon":104.201111},{"id":2499965,"name":"rabocheye","country":"ru","lat":52.294167,"lon":104.336389},{"id":2547131,"name":"utulikskaya","country":"ru","lat":51.5463,"lon":104.0569},{"id":2454169,"name":"mangutay","country":"ru","lat":51.604722,"lon":103.908333},{"id":2461088,"name":"molodezhnyy","country":"ru","lat":52.243611,"lon":104.4175},{"id":2408227,"name":"irkutsk","country":"ru","lat":52.297778,"lon":104.296389},{"id":2566950,"name":"zaimka veselyy kut","country":"ru","lat":52.41,"lon":103.82},{"id":2403316,"name":"granovshchina","country":"ru","lat":52.466667,"lon":104.283333},{"id":2358987,"name":"akademgorodok","country":"ru","lat":52.243889,"lon":104.273611},{"id":2436752,"name":"kuda","country":"ru","lat":52.443611,"lon":104.405833},{"id":2573428,"name":"zvezdochka","country":"ru","lat":52.349167,"lon":103.648056},{"id":2514105,"name":"shchukino","country":"ru","lat":52.2,"lon":104.433333},{"id":2384700,"name":"cheloty","country":"ru","lat":52.477222,"lon":103.542222},{"id":2440449,"name":"kuzmikha","country":"ru","lat":52.238611,"lon":104.288056},{"id":2388687,"name":"dabat","country":"ru","lat":51.9747,"lon":104.3474},{"id":2563928,"name":"yermakovskiy","country":"ru","lat":52.349167,"lon":104.23},{"id":2527728,"name":"steklyanka","country":"ru","lat":52.400278,"lon":103.9675},{"id":2454842,"name":"marituy","country":"ru","lat":51.7903,"lon":104.2182},{"id":2528254,"name":"stolbova","country":"ru","lat":52.42,"lon":104.22},{"id":2512693,"name":"shamanka pyataya","country":"ru","lat":52.1,"lon":103.8},{"id":2489747,"name":"pivovarikha","country":"ru","lat":52.270556,"lon":104.445833},{"id":2485247,"name":"patrony","country":"ru","lat":52.157222,"lon":104.466667},{"id":2571215,"name":"zhilkino","country":"ru","lat":52.324444,"lon":104.260278},{"id":2479851,"name":"olkha","country":"ru","lat":52.158333,"lon":104.096389},{"id":2473666,"name":"novolenino","country":"ru","lat":52.346111,"lon":104.177778},{"id":2525346,"name":"staraya yasachnaya","country":"ru","lat":52.486389,"lon":103.738333},{"id":2445308,"name":"lisikha","country":"ru","lat":52.260833,"lon":104.321389},{"id":2474186,"name":"novoodinsk","country":"ru","lat":52.309167,"lon":103.722222},{"id":2546186,"name":"ust-kuda","country":"ru","lat":52.431111,"lon":104.136667},{"id":2475721,"name":"novoyasachnaya","country":"ru","lat":52.466667,"lon":103.7},{"id":2573356,"name":"zverevo","country":"ru","lat":52.391389,"lon":103.941111},{"id":2491791,"name":"podsochka","country":"ru","lat":52.36,"lon":103.751944},{"id":2406082,"name":"idinskaya","country":"ru","lat":52.4625,"lon":103.722222},{"id":2478955,"name":"ogonki","country":"ru","lat":52.01,"lon":104.01},{"id":2512691,"name":"shamanka odinnadtsataya","country":"ru","lat":52.133333,"lon":103.733333},{"id":2473096,"name":"novogrudinina","country":"ru","lat":52.149167,"lon":104.413611},{"id":2423878,"name":"klyuchevaya","country":"ru","lat":52.380278,"lon":103.921944},{"id":2362241,"name":"angara","country":"ru","lat":52.387222,"lon":104.229167},{"id":2368381,"name":"batareynaya","country":"ru","lat":52.389167,"lon":104.136944},{"id":2417462,"name":"khanchinskiy","country":"ru","lat":52.066667,"lon":104.083333},{"id":2558217,"name":"vvedenskoye","country":"ru","lat":52.207222,"lon":103.940833},{"id":2457417,"name":"melnikovo","country":"ru","lat":52.278333,"lon":104.225278}]});