callback({"markets":[{"id":1492259,"name":"talebabad","country":"ir","lat":30.10575,"lon":54.416148},{"id":1424842,"name":"hajji qadam","country":"ir","lat":29.578056,"lon":54.048611},{"id":1468631,"name":"qal`eh-ye bala","country":"ir","lat":30.355833,"lon":53.893056},{"id":1455630,"name":"mirza gholam `ali","country":"ir","lat":29.743611,"lon":54.303889},{"id":1443812,"name":"khwaja jamali","country":"ir","lat":29.8149,"lon":53.8435},{"id":1430049,"name":"jahunabad","country":"ir","lat":29.7179,"lon":53.8621},{"id":1411929,"name":"dojegheh dustaqad","country":"ir","lat":30.123012,"lon":53.591038},{"id":1389467,"name":"bagh-e seyr","country":"ir","lat":30.3,"lon":54.266667},{"id":1399050,"name":"chah haft tir","country":"ir","lat":29.897261,"lon":54.327404},{"id":1482482,"name":"sevenj","country":"ir","lat":30.365,"lon":53.8368},{"id":1493639,"name":"tarabad","country":"ir","lat":30.3138,"lon":53.9151},{"id":1469791,"name":"qanat sorkh","country":"ir","lat":30.085359,"lon":53.599032},{"id":1421681,"name":"golpa","country":"ir","lat":30.0378,"lon":53.9263},{"id":1484233,"name":"shahrak-e emam reza","country":"ir","lat":29.7426,"lon":53.9639},{"id":1407376,"name":"dasht-e shahriari","country":"ir","lat":29.707654,"lon":54.315552},{"id":1398504,"name":"chah-e-gaz","country":"ir","lat":29.608611,"lon":54.051944},{"id":1452499,"name":"marvashkan","country":"ir","lat":29.9284,"lon":53.9337},{"id":1452716,"name":"mashhadi emam","country":"ir","lat":29.604167,"lon":54.015833},{"id":1468866,"name":"qal`eh-ye hajji mand`ali","country":"ir","lat":30.051111,"lon":54.3875},{"id":1483373,"name":"shah `abdol qasem","country":"ir","lat":30.143002,"lon":53.716567},{"id":1492382,"name":"tal gavdani","country":"ir","lat":30.3969,"lon":53.5327},{"id":1404070,"name":"dafar","country":"ir","lat":30.221381,"lon":53.565281},{"id":1380732,"name":"abu nasr","country":"ir","lat":30.079825,"lon":53.614271},{"id":1379033,"name":"abadi-ye tashk","country":"ir","lat":29.810833,"lon":53.7275},{"id":1446944,"name":"kupan","country":"ir","lat":30.2866,"lon":53.5909},{"id":1485045,"name":"shah rostam","country":"ir","lat":30.299,"lon":53.543},{"id":1468061,"name":"qal`eh nas band","country":"ir","lat":29.933333,"lon":54.05},{"id":1465723,"name":"pir kadu","country":"ir","lat":30.3008,"lon":53.7431},{"id":1462246,"name":"`olya-ye now","country":"ir","lat":29.703889,"lon":53.858889},{"id":1409301,"name":"deh-e ziarat","country":"ir","lat":29.9214,"lon":53.8902},{"id":1477017,"name":"sadur","country":"ir","lat":29.8,"lon":54.25},{"id":1406970,"name":"darvish safar","country":"ir","lat":29.584722,"lon":54.041389},{"id":1452502,"name":"marvast","country":"ir","lat":30.478333,"lon":54.211667},{"id":1489617,"name":"siyahu\u0027iyeh","country":"ir","lat":29.967573,"lon":54.397726},{"id":1489985,"name":"somad jan","country":"ir","lat":30.3877,"lon":53.5019},{"id":1494071,"name":"tashk","country":"ir","lat":29.828056,"lon":53.599167},{"id":1456346,"name":"mohammadabad","country":"ir","lat":30.2352,"lon":53.9309},{"id":1481293,"name":"sarvistan","country":"ir","lat":30.3712,"lon":53.8334},{"id":1446239,"name":"kuh-e sefid bowru\u0027iyeh","country":"ir","lat":30.053988,"lon":54.241817},{"id":1391766,"name":"baqeri","country":"ir","lat":29.662848,"lon":54.354163},{"id":1409500,"name":"dehkadeh","country":"ir","lat":29.708889,"lon":53.871111},{"id":1389597,"name":"bagh-i-bakhtiari","country":"ir","lat":29.7525,"lon":54.1958},{"id":1449539,"name":"loqman cheshmeh","country":"ir","lat":30.3922,"lon":53.5362},{"id":1443989,"name":"kimalu","country":"ir","lat":29.639118,"lon":53.66362},{"id":1469187,"name":"qal`eh-ye nosrat","country":"ir","lat":30.435,"lon":53.6539},{"id":1488446,"name":"shuruyeh","country":"ir","lat":29.7717,"lon":54.2452},{"id":1475561,"name":"rizahkan","country":"ir","lat":30.358,"lon":53.8718},{"id":1397868,"name":"chah abu ol fazl","country":"ir","lat":29.719413,"lon":54.255559},{"id":1495554,"name":"tolombeh mozahari","country":"ir","lat":29.642325,"lon":54.015368},{"id":1457817,"name":"mubadak","country":"ir","lat":30.460627,"lon":54.250069},{"id":1446165,"name":"kuh-e chah boraq","country":"ir","lat":30.237222,"lon":53.94},{"id":1395198,"name":"bikehdan geshni","country":"ir","lat":29.986636,"lon":53.581106},{"id":1423233,"name":"gulumabad","country":"ir","lat":29.9,"lon":54.133333},{"id":1469728,"name":"qanat ebrahim","country":"ir","lat":30.1025,"lon":53.634521},{"id":1470691,"name":"qareh cha\u0027i","country":"ir","lat":29.716944,"lon":54.316667},{"id":1479580,"name":"sar barreh-ye bala","country":"ir","lat":30.0981,"lon":53.9136},{"id":1403955,"name":"dabestan-e abolfath","country":"ir","lat":30.104287,"lon":54.393379},{"id":1385990,"name":"aravjun","country":"ir","lat":30.315688,"lon":54.205346},{"id":1424336,"name":"hajiabad","country":"ir","lat":29.916667,"lon":54.166667},{"id":1402051,"name":"chenar-e naz","country":"ir","lat":30.0912,"lon":53.9944},{"id":1416897,"name":"gaid-e abdal","country":"ir","lat":30.3,"lon":53.816667},{"id":1484560,"name":"shahrak-e saduqi","country":"ir","lat":30.041221,"lon":54.363846},{"id":1456481,"name":"mohammad karim khan","country":"ir","lat":30.043889,"lon":54.380833},{"id":1495546,"name":"tolombeh hajj najaf","country":"ir","lat":29.595015,"lon":54.365903},{"id":1402138,"name":"chenaru\u0027iyeh","country":"ir","lat":29.9153,"lon":53.9157},{"id":1458258,"name":"murshidi","country":"ir","lat":30.3262,"lon":53.8168},{"id":1492319,"name":"tal-e khaki","country":"ir","lat":29.5996,"lon":53.7615},{"id":1502326,"name":"zinabad","country":"ir","lat":30.085627,"lon":54.325375},{"id":1495359,"name":"tizabad","country":"ir","lat":29.926,"lon":54.0897},{"id":1424765,"name":"hajji kia","country":"ir","lat":29.712778,"lon":54.323056},{"id":1495907,"name":"tonb-e siah","country":"ir","lat":29.8387,"lon":53.9939},{"id":1414524,"name":"eslamabad-e kondor","country":"ir","lat":29.8568,"lon":54.231},{"id":1477260,"name":"saghuyeh","country":"ir","lat":29.8867,"lon":53.9667},{"id":1471656,"name":"qaziabad","country":"ir","lat":30.4013,"lon":53.7392},{"id":1405713,"name":"darjureh","country":"ir","lat":29.607,"lon":53.7862},{"id":1399486,"name":"chah sorkh","country":"ir","lat":29.670329,"lon":53.999227},{"id":1399297,"name":"chah motahhari","country":"ir","lat":29.904629,"lon":54.322962},{"id":1426411,"name":"hashimabad","country":"ir","lat":30.0857,"lon":54.375588},{"id":1462125,"name":"nuyeh","country":"ir","lat":29.9007,"lon":53.9672},{"id":1402019,"name":"chenar dozd","country":"ir","lat":30.0897,"lon":53.8308},{"id":1486322,"name":"sheikh abad","country":"ir","lat":30.077303,"lon":54.353405},{"id":1461034,"name":"nimeh afraz","country":"ir","lat":30.3625,"lon":53.507},{"id":1412800,"name":"dozd-e gabr","country":"ir","lat":30.383333,"lon":53.95},{"id":1398848,"name":"chah-e savar agha","country":"ir","lat":29.5971,"lon":53.955},{"id":1476903,"name":"sadeqabad-e lachri","country":"ir","lat":30.205,"lon":53.557882},{"id":1409693,"name":"deh man","country":"ir","lat":29.753056,"lon":54.015556},{"id":1469329,"name":"qal`eh-ye sadat","country":"ir","lat":29.7556,"lon":54.011},{"id":1459493,"name":"naranj","country":"ir","lat":30.0,"lon":54.316667},{"id":1391389,"name":"band-i-chenar","country":"ir","lat":29.9146,"lon":54.1278},{"id":1467357,"name":"qal`eh abadeh","country":"ir","lat":30.3339,"lon":53.8138},{"id":1397882,"name":"chahak","country":"ir","lat":29.788214,"lon":54.318763},{"id":1435068,"name":"kalatuk","country":"ir","lat":30.316667,"lon":53.766667},{"id":1409863,"name":"deh now","country":"ir","lat":29.503609,"lon":54.357887},{"id":1467898,"name":"qal`eh karim khan","country":"ir","lat":30.066667,"lon":53.766667},{"id":1484976,"name":"shahriari-ye `olya","country":"ir","lat":29.686578,"lon":54.313654},{"id":1427341,"name":"heydari","country":"ir","lat":29.658093,"lon":53.673028},{"id":1457245,"name":"morad khani","country":"ir","lat":29.6118,"lon":53.9394},{"id":1389765,"name":"bagh safa","country":"ir","lat":30.246357,"lon":53.511527},{"id":1468895,"name":"qal`eh-ye hashem khan","country":"ir","lat":30.0094,"lon":53.7822},{"id":1457099,"name":"monj","country":"ir","lat":30.3548,"lon":53.902},{"id":1483634,"name":"shahidan","country":"ir","lat":30.3911,"lon":53.7683},{"id":1394998,"name":"bid molla-ye sofla","country":"ir","lat":30.0217,"lon":53.9115},{"id":1469794,"name":"qanatu","country":"ir","lat":29.7574,"lon":54.1815},{"id":1446150,"name":"kuh-e `ali mirza\u0027i","country":"ir","lat":30.349167,"lon":53.614167},{"id":1492670,"name":"tall sarbani","country":"ir","lat":29.601751,"lon":54.023856},{"id":1452854,"name":"masjed dagh","country":"ir","lat":29.683333,"lon":54.35},{"id":1453622,"name":"mazra`eh-ye now","country":"ir","lat":30.3658,"lon":53.8566},{"id":1396535,"name":"borazjan","country":"ir","lat":29.924,"lon":54.07},{"id":1468573,"name":"qal`eh-ye aqa ja`far","country":"ir","lat":30.061111,"lon":54.386944},{"id":1410527,"name":"deh zir","country":"ir","lat":29.7706,"lon":53.7514},{"id":1403172,"name":"chir","country":"ir","lat":30.360833,"lon":53.835},{"id":1393522,"name":"baz","country":"ir","lat":30.3771,"lon":53.7991},{"id":1399180,"name":"chah kaz","country":"ir","lat":29.6172,"lon":53.9255},{"id":1496840,"name":"tutak","country":"ir","lat":30.2779,"lon":53.9911},{"id":1496287,"name":"towtak baz","country":"ir","lat":30.230302,"lon":54.04223},{"id":1402015,"name":"chenar","country":"ir","lat":29.914722,"lon":54.132778},{"id":1446408,"name":"kuh sar","country":"ir","lat":30.371389,"lon":53.601111},{"id":1495668,"name":"tolombeh-ye khanbaz","country":"ir","lat":29.529167,"lon":54.096111},{"id":1457095,"name":"monj-e pa\u0027in","country":"ir","lat":30.3476,"lon":53.8956},{"id":1431700,"name":"jowakan-e pa\u0027in","country":"ir","lat":30.180117,"lon":53.581847},{"id":1397511,"name":"burru\u0027iyeh","country":"ir","lat":29.9707,"lon":54.0963},{"id":1496437,"name":"tujerdi","country":"ir","lat":29.9258,"lon":53.9714},{"id":1491103,"name":"suriyan","country":"ir","lat":30.4551,"lon":53.651},{"id":1399243,"name":"chah mahki","country":"ir","lat":29.524247,"lon":54.123842},{"id":1407349,"name":"dasht-e mur howz","country":"ir","lat":29.898611,"lon":54.332778},{"id":1453687,"name":"mazra`eh-ye zargar","country":"ir","lat":30.1164,"lon":53.9675},{"id":1379807,"name":"ab-e bakhsh-e `olya","country":"ir","lat":29.703333,"lon":53.865556},{"id":1424639,"name":"hajji `aziz","country":"ir","lat":29.584167,"lon":54.064444},{"id":1487495,"name":"shirkhani","country":"ir","lat":29.711944,"lon":54.322222},{"id":1413363,"name":"duvun","country":"ir","lat":29.55,"lon":54.366667},{"id":1456830,"name":"molki-ye bozorg","country":"ir","lat":30.064167,"lon":54.36},{"id":1427036,"name":"hesami","country":"ir","lat":29.9683,"lon":53.8731},{"id":1381819,"name":"ahmadi","country":"ir","lat":29.741389,"lon":54.297778},{"id":1443561,"name":"khvansar","country":"ir","lat":29.9301,"lon":54.1228},{"id":1431979,"name":"ju-i-baz","country":"ir","lat":30.3847,"lon":53.7763},{"id":1397430,"name":"burd herat","country":"ir","lat":30.054072,"lon":54.372938},{"id":1417933,"name":"garkhonkan","country":"ir","lat":30.1415,"lon":53.9662},{"id":1414611,"name":"eslaviyeh","country":"ir","lat":29.5935,"lon":53.7516},{"id":1453304,"name":"mazijan","country":"ir","lat":30.2936,"lon":53.8022},{"id":1446803,"name":"kuluyeh","country":"ir","lat":30.143815,"lon":53.557604},{"id":1398272,"name":"chah bozu","country":"ir","lat":30.266667,"lon":53.966667},{"id":1386301,"name":"arjank","country":"ir","lat":30.3374,"lon":53.5849},{"id":1426123,"name":"hasanabad","country":"ir","lat":29.9146,"lon":54.1512},{"id":1479579,"name":"sar barreh","country":"ir","lat":30.064,"lon":53.9193},{"id":1478798,"name":"sanjad","country":"ir","lat":30.060833,"lon":54.344444},{"id":1399518,"name":"chah tangal","country":"ir","lat":29.8659,"lon":53.759},{"id":1379021,"name":"abadi","country":"ir","lat":30.283333,"lon":54.233333},{"id":1382438,"name":"a`la kuh","country":"ir","lat":30.0854,"lon":53.8514},{"id":1445654,"name":"korreh","country":"ir","lat":30.030093,"lon":53.71567},{"id":1436705,"name":"kangashi","country":"ir","lat":29.612603,"lon":53.743084},{"id":1391570,"name":"bani yak","country":"ir","lat":29.522602,"lon":54.117812},{"id":1399406,"name":"chah rowghani","country":"ir","lat":29.619,"lon":53.8707},{"id":1495887,"name":"tom shuli","country":"ir","lat":29.579258,"lon":54.048608},{"id":1412189,"name":"do rah","country":"ir","lat":30.3941,"lon":53.5051},{"id":1391352,"name":"band-e now","country":"ir","lat":29.9126,"lon":54.0073},{"id":1391816,"name":"baq-ma`dan","country":"ir","lat":29.508675,"lon":54.355495},{"id":1488884,"name":"siahu","country":"ir","lat":30.08577,"lon":53.660335},{"id":1466000,"name":"pishur","country":"ir","lat":30.4877,"lon":53.5666},{"id":1481530,"name":"sayehban","country":"ir","lat":30.383333,"lon":53.652222},{"id":1392745,"name":"bar ruz","country":"ir","lat":29.95,"lon":54.416667},{"id":1435583,"name":"kal ken jian","country":"ir","lat":30.4812,"lon":53.5922},{"id":1468929,"name":"qal`eh-ye ja`far","country":"ir","lat":30.068333,"lon":54.326667},{"id":1467570,"name":"qal`eh-e- `aliabad","country":"ir","lat":29.933333,"lon":53.933333},{"id":1398662,"name":"chah-e kuraki","country":"ir","lat":29.529167,"lon":54.093611},{"id":1389003,"name":"badvra","country":"ir","lat":30.2988,"lon":53.7665},{"id":1495636,"name":"tolombeh-ye hajji bahman","country":"ir","lat":29.521944,"lon":54.117778},{"id":1420465,"name":"ghowri","country":"ir","lat":29.510058,"lon":54.46941},{"id":1495555,"name":"tolombeh sarbozi","country":"ir","lat":29.716573,"lon":54.28983},{"id":1406958,"name":"darvish ja`far","country":"ir","lat":29.626111,"lon":54.040278},{"id":1477981,"name":"salimabad-e miani","country":"ir","lat":30.086742,"lon":54.366007},{"id":1456427,"name":"mohammad hanifeh","country":"ir","lat":30.4167,"lon":53.652},{"id":1430970,"name":"jazin","country":"ir","lat":29.82004,"lon":53.650257},{"id":1477116,"name":"safiabad","country":"ir","lat":29.800126,"lon":53.57917},{"id":1443015,"name":"khulian","country":"ir","lat":30.2289,"lon":53.8945},{"id":1418975,"name":"gaz-e khong","country":"ir","lat":30.200468,"lon":53.514864},{"id":1429805,"name":"ja`fariyeh","country":"ir","lat":30.3586,"lon":53.8371},{"id":1425258,"name":"hamdabad","country":"ir","lat":30.084754,"lon":54.413854},{"id":1484392,"name":"shahrak-e mahdavi","country":"ir","lat":29.514336,"lon":54.111127},{"id":1477019,"name":"sa`duyeh","country":"ir","lat":29.7939,"lon":54.2348},{"id":1399048,"name":"chah guraki","country":"ir","lat":29.5463,"lon":53.9978},{"id":1468522,"name":"qal`eh-ye `ajam","country":"ir","lat":29.785833,"lon":53.704167},{"id":1395197,"name":"bikehdan","country":"ir","lat":29.999094,"lon":53.564179},{"id":1386854,"name":"`asemi","country":"ir","lat":30.3391,"lon":53.8193},{"id":1382179,"name":"akbar","country":"ir","lat":29.523249,"lon":54.153443},{"id":1400057,"name":"chalmeh","country":"ir","lat":29.749263,"lon":54.236686},{"id":1473123,"name":"qomabad","country":"ir","lat":29.934014,"lon":54.417919},{"id":1450183,"name":"mahalleh-ye akbari","country":"ir","lat":30.336,"lon":53.8202},{"id":1450464,"name":"mahmood abad","country":"ir","lat":29.9959,"lon":53.8035},{"id":1429750,"name":"ja`farabad-e sofla","country":"ir","lat":30.4283,"lon":53.7061},{"id":1398527,"name":"chah-e gu\u0027iyeh","country":"ir","lat":29.897054,"lon":54.437399},{"id":1495545,"name":"tolombeh darvish azadi","country":"ir","lat":29.626853,"lon":54.339176},{"id":1460719,"name":"neyestan","country":"ir","lat":29.924,"lon":54.1385},{"id":1426381,"name":"hashemabad","country":"ir","lat":29.781636,"lon":54.333436},{"id":1430275,"name":"jamalabad-e char rah","country":"ir","lat":29.998,"lon":53.783},{"id":1389726,"name":"bagh ma`dan","country":"ir","lat":29.7716,"lon":54.1572},{"id":1439489,"name":"keshtak","country":"ir","lat":29.7723,"lon":53.926},{"id":1390991,"name":"banak","country":"ir","lat":30.2942,"lon":53.5607},{"id":1421404,"name":"gol gashtu","country":"ir","lat":29.953732,"lon":54.406096},{"id":1433155,"name":"kahtuyeh","country":"ir","lat":29.528079,"lon":54.371001},{"id":1477990,"name":"salimabad","country":"ir","lat":30.080516,"lon":54.364807},{"id":1402809,"name":"cheshmeh-ye divaneh","country":"ir","lat":30.338333,"lon":53.700556},{"id":1429723,"name":"ja`farabad bala","country":"ir","lat":30.4422,"lon":53.6785},{"id":1477983,"name":"salimabad-e pa\u0027in","country":"ir","lat":30.094875,"lon":54.358955},{"id":1380815,"name":"abu tarbeh","country":"ir","lat":30.3239,"lon":53.5218},{"id":1399673,"name":"chakeri","country":"ir","lat":30.100847,"lon":54.382553},{"id":1420934,"name":"godar-e badar","country":"ir","lat":30.100833,"lon":54.191944},{"id":1487507,"name":"shir khvorosht","country":"ir","lat":30.4001,"lon":53.5166},{"id":1426681,"name":"hazar jan","country":"ir","lat":29.933333,"lon":54.083333},{"id":1497701,"name":"vali-ye `asr-e kondor","country":"ir","lat":29.8685,"lon":54.2424},{"id":1399577,"name":"chah vahdat","country":"ir","lat":29.863527,"lon":54.288839},{"id":1495685,"name":"tolombeh-ye mashd `ali baz","country":"ir","lat":29.621389,"lon":54.033333},{"id":1495764,"name":"tolombeh-ye seyyed hashem","country":"ir","lat":29.627222,"lon":54.045},{"id":1415317,"name":"fakhrabad tang-e hana","country":"ir","lat":29.502222,"lon":54.115},{"id":1466733,"name":"pureh siah","country":"ir","lat":29.9446,"lon":53.7838},{"id":1399204,"name":"chah khulu","country":"ir","lat":29.883333,"lon":53.516667},{"id":1496717,"name":"turkan","country":"ir","lat":30.327327,"lon":54.196299},{"id":1407325,"name":"dasht-e kharzeh","country":"ir","lat":30.3619,"lon":53.832},{"id":1491942,"name":"takht-e farhadi","country":"ir","lat":29.851,"lon":53.8875},{"id":1409758,"name":"deh mon","country":"ir","lat":29.7509,"lon":54.0081},{"id":1399223,"name":"chah kowser","country":"ir","lat":29.875757,"lon":54.353722},{"id":1424850,"name":"hajji qodrat","country":"ir","lat":29.514167,"lon":54.112778},{"id":1391356,"name":"band-e pa\u0027in","country":"ir","lat":29.9251,"lon":54.0879},{"id":1399211,"name":"chah kolang","country":"ir","lat":29.603485,"lon":54.422632},{"id":1445703,"name":"korurow bazm","country":"ir","lat":30.3686,"lon":53.7771},{"id":1468317,"name":"qal`eh sangi","country":"ir","lat":30.3945,"lon":53.5594},{"id":1408909,"name":"deh-e moshkan","country":"ir","lat":29.537778,"lon":54.376389},{"id":1435709,"name":"kalleh parideh","country":"ir","lat":29.786111,"lon":54.32},{"id":1471267,"name":"qasemabad-e saqu\u0027iyeh","country":"ir","lat":29.8733,"lon":53.9766},{"id":1490590,"name":"sufian","country":"ir","lat":30.157356,"lon":53.69956},{"id":1484310,"name":"shahrak-e hajjiabad","country":"ir","lat":29.7579,"lon":53.8721},{"id":1469789,"name":"qanat sefid","country":"ir","lat":30.066536,"lon":54.324444}]});