callback({"markets":[{"id":2607797,"name":"leipojarvi","country":"se","lat":67.05,"lon":21.216667},{"id":2614366,"name":"rutna","country":"se","lat":66.816667,"lon":20.55},{"id":2619154,"name":"tingvallskulle","country":"se","lat":67.2,"lon":20.65},{"id":2612819,"name":"ovre kuouka","country":"se","lat":66.566667,"lon":20.55},{"id":2619112,"name":"tidnokentta","country":"se","lat":66.916667,"lon":20.916667},{"id":2607970,"name":"liikavaara","country":"se","lat":67.083333,"lon":21.05},{"id":2610265,"name":"nattavara","country":"se","lat":66.75,"lon":21.05},{"id":2600696,"name":"gallivare","country":"se","lat":67.133333,"lon":20.7},{"id":2614847,"name":"sarvisvaara","country":"se","lat":66.75,"lon":21.483333},{"id":2612931,"name":"palohuornainen","country":"se","lat":66.933333,"lon":21.416667},{"id":2610264,"name":"nattavaara","country":"se","lat":66.75,"lon":20.95},{"id":2606051,"name":"kilvoby","country":"se","lat":66.833333,"lon":21.033333},{"id":2613080,"name":"pikkujako","country":"se","lat":66.866667,"lon":21.25},{"id":2613117,"name":"polcirkeln","country":"se","lat":66.55,"lon":21.016667},{"id":2613221,"name":"purnu","country":"se","lat":66.883333,"lon":21.3},{"id":2615399,"name":"sjungberget","country":"se","lat":67.15,"lon":21.05},{"id":2605981,"name":"keskijarvi","country":"se","lat":67.033333,"lon":21.166667},{"id":2596805,"name":"bjorkberget","country":"se","lat":67.016667,"lon":21.283333},{"id":2595146,"name":"ampiaslanto","country":"se","lat":67.033333,"lon":21.383333},{"id":2609837,"name":"moskojarvi","country":"se","lat":67.383333,"lon":21.1},{"id":2607055,"name":"kuouka","country":"se","lat":66.55,"lon":20.516667},{"id":2610437,"name":"nilimanniko","country":"se","lat":67.433333,"lon":20.883333},{"id":2614515,"name":"sakajarvi","country":"se","lat":67.1,"lon":21.0},{"id":2610400,"name":"neitisuanto","country":"se","lat":67.433333,"lon":20.833333},{"id":2609504,"name":"menasvaara","country":"se","lat":67.016667,"lon":20.533333},{"id":2603079,"name":"harrejaur","country":"se","lat":66.75,"lon":20.616667},{"id":2594763,"name":"alavaara","country":"se","lat":67.05,"lon":21.366667},{"id":2609955,"name":"muorjevare","country":"se","lat":67.183333,"lon":20.983333},{"id":2613220,"name":"purnovaara","country":"se","lat":67.1,"lon":21.35},{"id":2609114,"name":"malmberget","country":"se","lat":67.166667,"lon":20.666667},{"id":2609526,"name":"metta dokkas","country":"se","lat":67.05,"lon":21.283333},{"id":2603960,"name":"hogtrask","country":"se","lat":66.666667,"lon":20.55},{"id":2595949,"name":"avvakko","country":"se","lat":67.333333,"lon":20.966667},{"id":2619229,"name":"tjautjas","country":"se","lat":67.316667,"lon":20.733333},{"id":2613216,"name":"puoltikasvaara","country":"se","lat":67.433333,"lon":21.1},{"id":2618487,"name":"suotojarvi","country":"se","lat":67.416667,"lon":21.083333},{"id":2598757,"name":"dokkasvaara","country":"se","lat":67.05,"lon":21.35},{"id":2613592,"name":"ratukkavaara","country":"se","lat":66.916667,"lon":21.266667},{"id":2614468,"name":"sadjem","country":"se","lat":66.95,"lon":21.216667},{"id":2611225,"name":"nuortikon","country":"se","lat":66.883333,"lon":20.816667},{"id":2605197,"name":"kaartijarvi","country":"se","lat":66.85,"lon":20.783333},{"id":2606691,"name":"koskullskulle","country":"se","lat":67.183333,"lon":20.75},{"id":2615747,"name":"skaulo","country":"se","lat":67.416667,"lon":21.133333}]});