callback({"markets":[{"id":3155699,"name":"ila","country":"zr","lat":-2.8833333,"lon":21.0833333},{"id":356896,"name":"ekutama","country":"cd","lat":-3.483333,"lon":21.083333},{"id":374680,"name":"yoso","country":"cd","lat":-3.45,"lon":20.666667},{"id":358366,"name":"itunga","country":"cd","lat":-3.416667,"lon":21.4},{"id":356848,"name":"ekolombe","country":"cd","lat":-3.466667,"lon":20.966667},{"id":354919,"name":"bongola","country":"cd","lat":-2.566667,"lon":20.966667},{"id":3154233,"name":"djosomo","country":"zr","lat":-3.4833333,"lon":20.65},{"id":356384,"name":"djale djomi","country":"cd","lat":-2.5,"lon":20.5},{"id":3155343,"name":"goyolo","country":"zr","lat":-3.2333333,"lon":21.4666667},{"id":357606,"name":"goyolo","country":"cd","lat":-3.233333,"lon":21.466667},{"id":358230,"name":"isambo","country":"cd","lat":-2.6,"lon":21.033333},{"id":364390,"name":"losalanga","country":"cd","lat":-3.483333,"lon":20.766667},{"id":358232,"name":"isambu","country":"cd","lat":-2.716667,"lon":20.966667},{"id":3172417,"name":"yoso","country":"zr","lat":-3.45,"lon":20.6666667},{"id":3152657,"name":"bongola","country":"zr","lat":-2.5666667,"lon":20.9666667},{"id":3156103,"name":"itunga","country":"zr","lat":-3.4166667,"lon":21.4},{"id":3152828,"name":"boshe-kungu","country":"zr","lat":-3.25,"lon":21.45},{"id":353394,"name":"bekoma","country":"cd","lat":-3.416667,"lon":20.55},{"id":356495,"name":"djosomo","country":"cd","lat":-3.483333,"lon":20.65},{"id":363297,"name":"kongo","country":"cd","lat":-3.483333,"lon":21.066667},{"id":355061,"name":"bosangu","country":"cd","lat":-3.466667,"lon":21.216667},{"id":3162115,"name":"loope","country":"zr","lat":-2.5333333,"lon":20.5},{"id":3151132,"name":"bekoma","country":"zr","lat":-3.4166667,"lon":20.55},{"id":3162233,"name":"luapa","country":"zr","lat":-2.9666667,"lon":21.2666667},{"id":364378,"name":"loope","country":"cd","lat":-2.533333,"lon":20.5},{"id":3155969,"name":"isambu","country":"zr","lat":-2.7166667,"lon":20.9666667},{"id":3154505,"name":"ediki","country":"zr","lat":-2.7333333,"lon":21.05},{"id":3154585,"name":"ekolombe aboko","country":"zr","lat":-3.4666667,"lon":20.9666667},{"id":3172068,"name":"yanza","country":"zr","lat":-3.4666667,"lon":20.6833333},{"id":3153888,"name":"dekese","country":"zr","lat":-3.45,"lon":21.4},{"id":374331,"name":"yanza","country":"cd","lat":-3.466667,"lon":20.683333},{"id":3162127,"name":"losalanga","country":"zr","lat":-3.4833333,"lon":20.7666667},{"id":3154634,"name":"ekutama","country":"zr","lat":-3.4833333,"lon":21.0833333},{"id":357962,"name":"ila","country":"cd","lat":-2.883333,"lon":21.083333},{"id":364496,"name":"luapa","country":"cd","lat":-2.966667,"lon":21.266667},{"id":3153480,"name":"busandja","country":"zr","lat":-2.7,"lon":21.05},{"id":3155967,"name":"isambo","country":"zr","lat":-2.6,"lon":21.0333333},{"id":3152799,"name":"bosangu","country":"zr","lat":-3.4666667,"lon":21.2166667},{"id":356767,"name":"ediki","country":"cd","lat":-2.733333,"lon":21.05}]});