callback({"markets":[{"id":3049446,"name":"leiter","country":"us","lat":44.7180556,"lon":-106.2686111},{"id":3049615,"name":"spotted horse","country":"us","lat":44.7083333,"lon":-105.8344444},{"id":3049426,"name":"kendrick","country":"us","lat":44.7208333,"lon":-106.2013889},{"id":3049554,"name":"recluse","country":"us","lat":44.7411111,"lon":-105.7075},{"id":3049290,"name":"croton","country":"us","lat":44.5241667,"lon":-105.9530556},{"id":3049687,"name":"wildcat","country":"us","lat":44.6016667,"lon":-105.6752778},{"id":2980063,"name":"quietus","country":"us","lat":45.0963889,"lon":-106.2825},{"id":2980190,"name":"sayle","country":"us","lat":45.2269444,"lon":-105.995},{"id":2980260,"name":"sonnette","country":"us","lat":45.4130556,"lon":-105.8308333},{"id":2979393,"name":"epsie","country":"us","lat":45.4916667,"lon":-105.6505556},{"id":2979973,"name":"otter","country":"us","lat":45.2077778,"lon":-106.2011111},{"id":2979891,"name":"moorhead","country":"us","lat":45.065,"lon":-105.8705556},{"id":3049271,"name":"clearmont","country":"us","lat":44.6402778,"lon":-106.3802778},{"id":2979076,"name":"birney day school","country":"us","lat":45.4161111,"lon":-106.4647222},{"id":2979012,"name":"bay horse","country":"us","lat":45.0433333,"lon":-105.5663889},{"id":3049188,"name":"arvada","country":"us","lat":44.6536111,"lon":-106.1305556}]});