callback({"markets":[{"id":3012211,"name":"petroleum center","country":"us","lat":41.5161111,"lon":-79.6825},{"id":3008026,"name":"cross","country":"us","lat":41.9705556,"lon":-80.3752778},{"id":3014274,"name":"waring","country":"us","lat":41.6858333,"lon":-80.4875},{"id":3008780,"name":"fairplain","country":"us","lat":42.0380556,"lon":-80.3036111},{"id":2992452,"name":"volusia","country":"us","lat":42.2511111,"lon":-79.5994444},{"id":3013720,"name":"sunville","country":"us","lat":41.5519444,"lon":-79.835},{"id":3008892,"name":"five corners","country":"us","lat":41.7033333,"lon":-79.7472222},{"id":3008981,"name":"fountain house corners","country":"us","lat":41.6997222,"lon":-80.1138889},{"id":3007219,"name":"britton run","country":"us","lat":41.7947222,"lon":-79.7425},{"id":3006567,"name":"arbuckle","country":"us","lat":41.9827778,"lon":-79.8641667},{"id":3006989,"name":"black ash","country":"us","lat":41.5911111,"lon":-79.9005556},{"id":3008491,"name":"east titusville","country":"us","lat":41.6219444,"lon":-79.6425},{"id":2988860,"name":"forest park","country":"us","lat":42.3338889,"lon":-79.605},{"id":3013850,"name":"thompsons mills","country":"us","lat":41.6730556,"lon":-79.6805556},{"id":2990027,"name":"lombard","country":"us","lat":42.2502778,"lon":-79.6369444},{"id":3007918,"name":"corry","country":"us","lat":41.9202778,"lon":-79.6405556},{"id":2992049,"name":"stebbins corners","country":"us","lat":42.1627778,"lon":-79.5263889},{"id":3007853,"name":"conneautville","country":"us","lat":41.7577778,"lon":-80.3680556},{"id":3009452,"name":"guys mills","country":"us","lat":41.63,"lon":-79.9777778},{"id":3012749,"name":"rockdale acres","country":"us","lat":41.7669444,"lon":-79.9238889},{"id":3014146,"name":"venango","country":"us","lat":41.7725,"lon":-80.1133333},{"id":3011807,"name":"north springfield","country":"us","lat":41.9944444,"lon":-80.4252778},{"id":2990415,"name":"morgan corners","country":"us","lat":42.0536111,"lon":-79.6597222},{"id":2992528,"name":"wattlesburg","country":"us","lat":42.2269444,"lon":-79.6888889},{"id":3007757,"name":"cochranton","country":"us","lat":41.52,"lon":-80.0486111},{"id":3013928,"name":"tracy","country":"us","lat":41.8747222,"lon":-80.4713889},{"id":2990355,"name":"mina","country":"us","lat":42.13,"lon":-79.6883333},{"id":3012380,"name":"pont","country":"us","lat":41.8513889,"lon":-80.3058333},{"id":3014002,"name":"turnersville","country":"us","lat":41.51,"lon":-80.4769444},{"id":3007882,"name":"coons corners","country":"us","lat":41.7161111,"lon":-80.2097222},{"id":3007072,"name":"bogus corners","country":"us","lat":42.06,"lon":-79.9313889},{"id":3014650,"name":"wilson mills","country":"us","lat":41.5497222,"lon":-79.9111111},{"id":3007528,"name":"center corner","country":"us","lat":41.9561111,"lon":-80.4475},{"id":3014722,"name":"woodcock grange","country":"us","lat":41.7169444,"lon":-80.1044444},{"id":3008297,"name":"dowley corners","country":"us","lat":41.9488889,"lon":-80.265},{"id":3010391,"name":"lake city","country":"us","lat":42.0141667,"lon":-80.3455556},{"id":3010912,"name":"manchester beach","country":"us","lat":42.0772222,"lon":-80.2372222},{"id":3014203,"name":"vrooman","country":"us","lat":41.7258333,"lon":-79.6497222},{"id":3013464,"name":"spring","country":"us","lat":41.7966667,"lon":-80.3266667},{"id":3011539,"name":"mystic park","country":"us","lat":41.6738889,"lon":-79.7647222},{"id":3014388,"name":"wesleyville","country":"us","lat":42.1402778,"lon":-80.0152778},{"id":3007538,"name":"centerville","country":"us","lat":41.7361111,"lon":-79.7633333},{"id":3008500,"name":"east wayne","country":"us","lat":41.5722222,"lon":-79.9080556},{"id":3010865,"name":"lyona","country":"us","lat":41.6933333,"lon":-79.9683333},{"id":2992728,"name":"westfield","country":"us","lat":42.3222222,"lon":-79.5783333},{"id":3014236,"name":"wallaceville","country":"us","lat":41.5625,"lon":-79.8027778},{"id":3010675,"name":"little elk","country":"us","lat":41.9638889,"lon":-80.2883333},{"id":3011123,"name":"mclane","country":"us","lat":41.9361111,"lon":-80.1266667},{"id":3009864,"name":"hornby","country":"us","lat":42.1161111,"lon":-79.8630556},{"id":3012011,"name":"owltown","country":"us","lat":41.5072222,"lon":-79.6516667},{"id":3012917,"name":"saegertown","country":"us","lat":41.7188889,"lon":-80.1477778},{"id":3007149,"name":"bradleytown","country":"us","lat":41.5558333,"lon":-79.8616667},{"id":3011255,"name":"mill village","country":"us","lat":41.8763889,"lon":-79.9716667},{"id":3010498,"name":"lavery","country":"us","lat":41.88,"lon":-80.2258333},{"id":3013469,"name":"spring creek","country":"us","lat":41.8758333,"lon":-79.5255556},{"id":3012021,"name":"pageville","country":"us","lat":41.86,"lon":-80.2666667},{"id":3009500,"name":"hammett","country":"us","lat":42.0666667,"lon":-79.9688889},{"id":3007818,"name":"columbus","country":"us","lat":41.9408333,"lon":-79.5819444},{"id":3013970,"name":"troy center","country":"us","lat":41.6425,"lon":-79.8261111},{"id":3008289,"name":"dotyville","country":"us","lat":41.67,"lon":-79.6002778},{"id":3014158,"name":"vernondale","country":"us","lat":42.0683333,"lon":-80.2016667},{"id":3010520,"name":"leboeuf garden","country":"us","lat":41.9297222,"lon":-79.9822222},{"id":3007003,"name":"blacks corner","country":"us","lat":41.6872222,"lon":-80.1894444},{"id":3011124,"name":"mclaughlin corners","country":"us","lat":41.7261111,"lon":-79.7088889},{"id":3010440,"name":"langdon","country":"us","lat":42.0769444,"lon":-80.0280556},{"id":3014499,"name":"west vernon","country":"us","lat":41.5969444,"lon":-80.2652778},{"id":3008223,"name":"dicksonburg","country":"us","lat":41.7052778,"lon":-80.3522222},{"id":3012263,"name":"pine valley","country":"us","lat":41.9675,"lon":-79.5188889},{"id":3010231,"name":"kerrs corners","country":"us","lat":42.2052778,"lon":-79.7716667},{"id":3010824,"name":"luces corners","country":"us","lat":41.6161111,"lon":-79.8333333},{"id":2988050,"name":"clymer center","country":"us","lat":42.0533333,"lon":-79.5780556},{"id":3012286,"name":"pithole city","country":"us","lat":41.5208333,"lon":-79.5872222},{"id":2990229,"name":"mayville","country":"us","lat":42.2538889,"lon":-79.5047222},{"id":3013562,"name":"sterrettania","country":"us","lat":42.0044444,"lon":-80.2033333},{"id":3014316,"name":"wattsburg","country":"us","lat":42.0036111,"lon":-79.8111111},{"id":3014464,"name":"west millcreek","country":"us","lat":42.0744444,"lon":-80.165},{"id":3007158,"name":"branchville","country":"us","lat":41.96,"lon":-80.1411111},{"id":3007577,"name":"chapmanville","country":"us","lat":41.5930556,"lon":-79.8383333},{"id":3013486,"name":"springboro","country":"us","lat":41.8005556,"lon":-80.3691667},{"id":3013199,"name":"shermansville","country":"us","lat":41.6258333,"lon":-80.3741667},{"id":2989648,"name":"jaquins","country":"us","lat":42.0166667,"lon":-79.6091667},{"id":3014001,"name":"turner","country":"us","lat":41.5077778,"lon":-80.4819444},{"id":3008860,"name":"fiddlergreen","country":"us","lat":41.7461111,"lon":-79.5419444},{"id":3011214,"name":"middleboro","country":"us","lat":41.9969444,"lon":-80.1433333},{"id":3014305,"name":"waterford","country":"us","lat":41.9427778,"lon":-79.9847222},{"id":3012969,"name":"sampson","country":"us","lat":42.0091667,"lon":-79.9977778},{"id":3009148,"name":"geneva","country":"us","lat":41.5625,"lon":-80.2252778},{"id":3011948,"name":"orchard beach","country":"us","lat":42.2413889,"lon":-79.8288889},{"id":3010643,"name":"lincolnville","country":"us","lat":41.7936111,"lon":-79.8383333},{"id":3009949,"name":"hydetown","country":"us","lat":41.6525,"lon":-79.7272222},{"id":3011676,"name":"new richmond","country":"us","lat":41.7213889,"lon":-79.9513889},{"id":3010137,"name":"kanty","country":"us","lat":42.1211111,"lon":-80.0022222},{"id":3013069,"name":"scotts crossing","country":"us","lat":41.9355556,"lon":-79.5952778},{"id":2991742,"name":"shore haven","country":"us","lat":42.3138889,"lon":-79.6419444},{"id":3011317,"name":"mishler corners","country":"us","lat":41.935,"lon":-80.205},{"id":3008162,"name":"delamater corners","country":"us","lat":41.6988889,"lon":-80.0022222},{"id":3006790,"name":"beaver dam","country":"us","lat":41.9272222,"lon":-79.7505556},{"id":3010243,"name":"kidders corner","country":"us","lat":41.9108333,"lon":-80.4013889},{"id":3014432,"name":"west greene","country":"us","lat":42.0141667,"lon":-79.9408333},{"id":3009406,"name":"gresham","country":"us","lat":41.6236111,"lon":-79.72},{"id":3013252,"name":"sibleyville","country":"us","lat":41.9836111,"lon":-80.0469444},{"id":3007587,"name":"charter oaks","country":"us","lat":42.0883333,"lon":-80.1377778},{"id":3012582,"name":"reeds corners","country":"us","lat":41.9794444,"lon":-80.1094444},{"id":3014518,"name":"westford","country":"us","lat":41.5575,"lon":-80.4788889},{"id":3010250,"name":"kimble corners","country":"us","lat":41.9172222,"lon":-79.8663889},{"id":3012007,"name":"owens corners","country":"us","lat":42.1161111,"lon":-79.92},{"id":3007822,"name":"colza","country":"us","lat":41.9152778,"lon":-79.6055556},{"id":3012330,"name":"plum corner","country":"us","lat":41.5319444,"lon":-79.865},{"id":3009003,"name":"francis","country":"us","lat":41.9594444,"lon":-80.265},{"id":3008033,"name":"crossingville","country":"us","lat":41.8297222,"lon":-80.2391667},{"id":3009526,"name":"harborcreek","country":"us","lat":42.1663889,"lon":-79.9530556},{"id":3007532,"name":"center road","country":"us","lat":41.7119444,"lon":-80.4172222},{"id":3011149,"name":"meadville","country":"us","lat":41.6413889,"lon":-80.1516667},{"id":3014011,"name":"tuttle lake","country":"us","lat":41.6333333,"lon":-80.49},{"id":3009580,"name":"hatchtown","country":"us","lat":41.7788889,"lon":-79.6505556},{"id":3013873,"name":"tillotson","country":"us","lat":41.8338889,"lon":-79.8180556},{"id":3006430,"name":"akerly","country":"us","lat":41.8905556,"lon":-80.4877778},{"id":2988868,"name":"forsyth","country":"us","lat":42.2922222,"lon":-79.6538889},{"id":3007406,"name":"cambridge springs","country":"us","lat":41.8036111,"lon":-80.0566667},{"id":3013166,"name":"shaws corners","country":"us","lat":41.5611111,"lon":-80.1088889},{"id":2992124,"name":"summerdale","country":"us","lat":42.2138889,"lon":-79.5705556},{"id":3007851,"name":"conneaut lake","country":"us","lat":41.6033333,"lon":-80.3055556},{"id":3008255,"name":"dock junction","country":"us","lat":42.1058333,"lon":-80.1188889},{"id":3010351,"name":"kuhl","country":"us","lat":42.0919444,"lon":-79.9641667},{"id":2988049,"name":"clymer","country":"us","lat":42.0208333,"lon":-79.6302778},{"id":3010654,"name":"linesville","country":"us","lat":41.6561111,"lon":-80.4241667},{"id":3013121,"name":"shadeland","country":"us","lat":41.8155556,"lon":-80.3763889},{"id":3011415,"name":"mosiertown","country":"us","lat":41.7725,"lon":-80.2063889},{"id":3009700,"name":"hickernell","country":"us","lat":41.7936111,"lon":-80.2977778},{"id":3007850,"name":"conneaut center","country":"us","lat":41.7122222,"lon":-80.4502778},{"id":3013894,"name":"titusville","country":"us","lat":41.6269444,"lon":-79.6738889},{"id":3012306,"name":"platea","country":"us","lat":41.9502778,"lon":-80.3283333},{"id":3009192,"name":"girard junction","country":"us","lat":42.0130556,"lon":-80.3716667},{"id":3013290,"name":"skeltontown","country":"us","lat":41.8122222,"lon":-80.1119444},{"id":3012326,"name":"pleasantville","country":"us","lat":41.5922222,"lon":-79.5797222},{"id":3011150,"name":"meadville junction","country":"us","lat":41.6388889,"lon":-80.3452778},{"id":3010791,"name":"lovell","country":"us","lat":41.9061111,"lon":-79.7025},{"id":3010680,"name":"little hope","country":"us","lat":42.0988889,"lon":-79.8191667},{"id":3012219,"name":"phillipsville","country":"us","lat":42.0366667,"lon":-79.885},{"id":3011939,"name":"onspaugh corners","country":"us","lat":41.6472222,"lon":-80.2088889},{"id":3008705,"name":"erie heights","country":"us","lat":42.085,"lon":-80.1091667},{"id":2988787,"name":"findley lake","country":"us","lat":42.1191667,"lon":-79.7327778},{"id":3008108,"name":"dantown","country":"us","lat":41.7066667,"lon":-80.3916667},{"id":3013822,"name":"teepleville","country":"us","lat":41.7525,"lon":-79.9383333},{"id":2988262,"name":"cutting","country":"us","lat":42.0241667,"lon":-79.6961111},{"id":3006412,"name":"adamsville","country":"us","lat":41.5111111,"lon":-80.37},{"id":3008177,"name":"dempseytown","country":"us","lat":41.5130556,"lon":-79.7783333},{"id":2987594,"name":"bournes beach","country":"us","lat":42.3597222,"lon":-79.5511111},{"id":3014341,"name":"weeds corners","country":"us","lat":42.03,"lon":-79.9333333},{"id":3007672,"name":"clappville","country":"us","lat":41.6963889,"lon":-79.7947222},{"id":3009316,"name":"grand valley","country":"us","lat":41.7211111,"lon":-79.5377778},{"id":3010690,"name":"littles corners","country":"us","lat":41.7130556,"lon":-80.2322222},{"id":3007988,"name":"cranesville","country":"us","lat":41.905,"lon":-80.3438889},{"id":3008704,"name":"erie","country":"us","lat":42.1291667,"lon":-80.0852778},{"id":3011778,"name":"north east","country":"us","lat":42.2155556,"lon":-79.8344444},{"id":3010812,"name":"lowville","country":"us","lat":42.0247222,"lon":-79.8216667},{"id":3006847,"name":"belleview heights","country":"us","lat":42.09,"lon":-80.0016667},{"id":3013926,"name":"townville","country":"us","lat":41.6777778,"lon":-79.88},{"id":3014492,"name":"west springfield","country":"us","lat":41.9458333,"lon":-80.4744444},{"id":3014721,"name":"woodcock","country":"us","lat":41.7547222,"lon":-80.0858333},{"id":3010853,"name":"lynces junction","country":"us","lat":41.6241667,"lon":-80.3305556},{"id":3009540,"name":"harmonsburg","country":"us","lat":41.6608333,"lon":-80.3180556},{"id":3009015,"name":"franklin pike corners","country":"us","lat":41.6133333,"lon":-80.1486111},{"id":3008816,"name":"fauncetown","country":"us","lat":41.6191667,"lon":-79.8572222},{"id":2987342,"name":"barcelona","country":"us","lat":42.3402778,"lon":-79.5961111},{"id":3014046,"name":"union city","country":"us","lat":41.8994444,"lon":-79.8455556},{"id":3011378,"name":"moorheadville","country":"us","lat":42.1919444,"lon":-79.9102778},{"id":2991935,"name":"south ripley","country":"us","lat":42.195,"lon":-79.7208333},{"id":3007852,"name":"conneaut lake park","country":"us","lat":41.6355556,"lon":-80.315},{"id":3009250,"name":"glenruadh","country":"us","lat":42.0972222,"lon":-80.1730556},{"id":3014320,"name":"wayland","country":"us","lat":41.6286111,"lon":-80.0694444},{"id":3013100,"name":"selkirk","country":"us","lat":41.6872222,"lon":-79.5805556},{"id":3008143,"name":"deckard","country":"us","lat":41.5244444,"lon":-79.9758333},{"id":3012282,"name":"pioneer","country":"us","lat":41.5311111,"lon":-79.6652778},{"id":3008716,"name":"espyville","country":"us","lat":41.6063889,"lon":-80.4944444},{"id":2988051,"name":"clymer hill","country":"us","lat":42.0608333,"lon":-79.6152778},{"id":3008561,"name":"edinboro","country":"us","lat":41.8741667,"lon":-80.1319444},{"id":2991408,"name":"ripley","country":"us","lat":42.2669444,"lon":-79.7108333},{"id":3013167,"name":"shaws landing","country":"us","lat":41.5513889,"lon":-80.1147222},{"id":3010163,"name":"keborts corners","country":"us","lat":41.5894444,"lon":-80.1947222},{"id":3008308,"name":"drakes mills","country":"us","lat":41.8297222,"lon":-80.0822222},{"id":3013442,"name":"spartansburg","country":"us","lat":41.8238889,"lon":-79.6838889},{"id":3012798,"name":"rootville","country":"us","lat":41.7747222,"lon":-79.8711111},{"id":3012279,"name":"pinney corners","country":"us","lat":41.7169444,"lon":-80.0213889},{"id":3010139,"name":"kantz corners","country":"us","lat":41.5180556,"lon":-80.0594444},{"id":3009264,"name":"godard","country":"us","lat":42.0391667,"lon":-80.0105556},{"id":3010022,"name":"ivarea","country":"us","lat":41.9036111,"lon":-80.2661111},{"id":3013575,"name":"stewartville","country":"us","lat":41.6008333,"lon":-80.4275},{"id":3012991,"name":"sanford","country":"us","lat":41.7694444,"lon":-79.5361111},{"id":3008184,"name":"dennys corners","country":"us","lat":41.6736111,"lon":-80.2247222},{"id":3008596,"name":"eldred center","country":"us","lat":41.7452778,"lon":-79.5563889},{"id":3008479,"name":"east shamburg","country":"us","lat":41.5691667,"lon":-79.6105556},{"id":2992047,"name":"state line","country":"us","lat":42.2444444,"lon":-79.7588889},{"id":2990205,"name":"marvin","country":"us","lat":42.0313889,"lon":-79.7347222},{"id":3011588,"name":"neilltown","country":"us","lat":41.6055556,"lon":-79.5058333},{"id":3010135,"name":"kaneville","country":"us","lat":41.5041667,"lon":-79.7027778},{"id":3008168,"name":"delhill corners","country":"us","lat":42.155,"lon":-79.8633333},{"id":3013859,"name":"thornton junction","country":"us","lat":41.9913889,"lon":-80.3755556},{"id":3014523,"name":"westminster","country":"us","lat":42.0808333,"lon":-80.1411111},{"id":3013548,"name":"steamburg","country":"us","lat":41.7377778,"lon":-80.4705556},{"id":3006531,"name":"andersons corner","country":"us","lat":41.7944444,"lon":-80.0238889},{"id":3008398,"name":"eaglehurst","country":"us","lat":42.0955556,"lon":-80.1636111},{"id":3007036,"name":"blooming valley","country":"us","lat":41.6811111,"lon":-80.0411111},{"id":3009041,"name":"frenchtown","country":"us","lat":41.6119444,"lon":-80.0219444},{"id":3008853,"name":"ferris corners","country":"us","lat":41.7941667,"lon":-79.9625},{"id":3014336,"name":"weber hills","country":"us","lat":42.07,"lon":-80.0625},{"id":3013908,"name":"toonerville","country":"us","lat":41.5697222,"lon":-79.6911111},{"id":3011270,"name":"millers station","country":"us","lat":41.8105556,"lon":-79.9947222},{"id":3006788,"name":"beaver center","country":"us","lat":41.8022222,"lon":-80.4675},{"id":2992689,"name":"west portland","country":"us","lat":42.3522222,"lon":-79.5216667},{"id":3009191,"name":"girard","country":"us","lat":42.0002778,"lon":-80.3183333},{"id":3010160,"name":"kearsarge","country":"us","lat":42.0658333,"lon":-80.0930556},{"id":3007177,"name":"breedtown","country":"us","lat":41.6,"lon":-79.7080556},{"id":3011655,"name":"new ireland","country":"us","lat":41.8797222,"lon":-79.9277778},{"id":3011573,"name":"neason hill","country":"us","lat":41.6283333,"lon":-80.145},{"id":3011761,"name":"norrisville","country":"us","lat":41.7158333,"lon":-80.2702778},{"id":3013735,"name":"swanville","country":"us","lat":42.065,"lon":-80.1947222},{"id":3008782,"name":"fairview","country":"us","lat":42.0313889,"lon":-80.2555556},{"id":3014356,"name":"weis library","country":"us","lat":42.0483333,"lon":-80.17},{"id":3008485,"name":"east springfield","country":"us","lat":41.965,"lon":-80.4075},{"id":3014548,"name":"wheelock","country":"us","lat":41.9797222,"lon":-79.67},{"id":3012649,"name":"riceville","country":"us","lat":41.7775,"lon":-79.8030556},{"id":3007854,"name":"conneautville station","country":"us","lat":41.7605556,"lon":-80.4025},{"id":3009244,"name":"glenmar gardens","country":"us","lat":42.0641667,"lon":-80.0422222},{"id":3011122,"name":"mclallen corners","country":"us","lat":41.8797222,"lon":-80.0494444},{"id":3010233,"name":"kerrtown","country":"us","lat":41.6291667,"lon":-80.1613889},{"id":3008601,"name":"elgin","country":"us","lat":41.9030556,"lon":-79.7438889},{"id":3006675,"name":"bagdad","country":"us","lat":41.9519444,"lon":-80.0244444},{"id":3014234,"name":"wallace junction","country":"us","lat":42.0133333,"lon":-80.3197222},{"id":3014107,"name":"valley corners","country":"us","lat":41.9872222,"lon":-79.8938889},{"id":3009008,"name":"franklin center","country":"us","lat":41.9355556,"lon":-80.225},{"id":3007257,"name":"brown hill","country":"us","lat":41.7908333,"lon":-79.9325},{"id":3007615,"name":"cherrytree","country":"us","lat":41.5327778,"lon":-79.7186111},{"id":3014490,"name":"west spring creek","country":"us","lat":41.8455556,"lon":-79.5697222},{"id":3010173,"name":"keepville","country":"us","lat":41.8683333,"lon":-80.395},{"id":3006629,"name":"atlantic","country":"us","lat":41.5047222,"lon":-80.3391667},{"id":3007421,"name":"canadohta lake","country":"us","lat":41.8136111,"lon":-79.835},{"id":3012524,"name":"ranges corners","country":"us","lat":41.9183333,"lon":-79.7436111},{"id":3008077,"name":"custards","country":"us","lat":41.5302778,"lon":-80.1594444},{"id":2991726,"name":"sherman","country":"us","lat":42.1591667,"lon":-79.5955556},{"id":3013984,"name":"tryonville","country":"us","lat":41.7016667,"lon":-79.785},{"id":2990657,"name":"north clymer","country":"us","lat":42.075,"lon":-79.5727778},{"id":3012870,"name":"rundell","country":"us","lat":41.7586111,"lon":-80.2844444},{"id":3010674,"name":"little cooley","country":"us","lat":41.7405556,"lon":-79.8941667},{"id":3011377,"name":"moorhead","country":"us","lat":42.1858333,"lon":-79.9036111},{"id":3006438,"name":"albion","country":"us","lat":41.8905556,"lon":-80.3666667},{"id":3010837,"name":"lundys lane","country":"us","lat":41.8925,"lon":-80.3391667},{"id":3012057,"name":"paperville","country":"us","lat":41.8602778,"lon":-80.2713889},{"id":3014312,"name":"watson run","country":"us","lat":41.5897222,"lon":-80.2172222},{"id":2988935,"name":"french creek","country":"us","lat":42.0677778,"lon":-79.7038889},{"id":3006773,"name":"bear lake","country":"us","lat":41.9933333,"lon":-79.5030556},{"id":3012406,"name":"porters corners","country":"us","lat":41.505,"lon":-80.2577778},{"id":2988573,"name":"east ripley","country":"us","lat":42.2838889,"lon":-79.6727778},{"id":3006841,"name":"belle valley","country":"us","lat":42.1041667,"lon":-80.0216667},{"id":3006660,"name":"avonia","country":"us","lat":42.0455556,"lon":-80.27},{"id":3009566,"name":"hartstown","country":"us","lat":41.5525,"lon":-80.3794444}]});