callback({"markets":[{"id":133889,"name":"puerto moreno","country":"ar","lat":-41.116183,"lon":-71.409396},{"id":135362,"name":"traful","country":"ar","lat":-40.689818,"lon":-71.203868},{"id":133026,"name":"nirihau","country":"ar","lat":-41.116667,"lon":-71.15},{"id":133342,"name":"paso chacabuco","country":"ar","lat":-40.64184,"lon":-70.970709},{"id":133859,"name":"puerto huemul","country":"ar","lat":-41.029845,"lon":-71.425953},{"id":133529,"name":"pilcaniyeu","country":"ar","lat":-41.118809,"lon":-70.729144},{"id":133364,"name":"paso flores","country":"ar","lat":-40.570284,"lon":-70.6353},{"id":132304,"name":"los juncos","country":"ar","lat":-41.066667,"lon":-71.033333},{"id":132966,"name":"nalmel huapi","country":"ar","lat":-41.056164,"lon":-71.156064},{"id":128049,"name":"bariloche","country":"ar","lat":-41.140293,"lon":-71.301369},{"id":128386,"name":"caleufu","country":"ar","lat":-40.5,"lon":-71.166667},{"id":135942,"name":"villa traful","country":"ar","lat":-40.657554,"lon":-71.405831},{"id":131832,"name":"las bayas","country":"ar","lat":-41.453298,"lon":-70.670119},{"id":131644,"name":"la lipela","country":"ar","lat":-40.804263,"lon":-71.139412},{"id":129528,"name":"cuyin manzano","country":"ar","lat":-40.768497,"lon":-71.180502},{"id":133489,"name":"pichi leufu","country":"ar","lat":-41.133333,"lon":-70.85}]});