callback({"markets":[{"id":2363180,"name":"apshiyakhtu","country":"ru","lat":50.4,"lon":86.65},{"id":2407776,"name":"inegen","country":"ru","lat":50.333333,"lon":86.7},{"id":2370494,"name":"belyashi","country":"ru","lat":49.733333,"lon":87.416667},{"id":2413737,"name":"kara-su","country":"ru","lat":50.45,"lon":86.75},{"id":2535357,"name":"terebety","country":"ru","lat":50.283333,"lon":86.716667},{"id":2363564,"name":"argut","country":"ru","lat":49.85,"lon":87.05},{"id":2370620,"name":"belyy bom","country":"ru","lat":50.4,"lon":87.033333},{"id":2561129,"name":"yar-balyk","country":"ru","lat":50.383333,"lon":87.316667},{"id":2551689,"name":"verkhniy inegen","country":"ru","lat":50.366667,"lon":86.583333},{"id":2441299,"name":"kyzylargut","country":"ru","lat":49.783333,"lon":87.216667},{"id":2407977,"name":"inya","country":"ru","lat":50.466667,"lon":86.616667},{"id":2359358,"name":"akkem","country":"ru","lat":50.15,"lon":86.55},{"id":2559796,"name":"yadrov","country":"ru","lat":50.4,"lon":86.966667},{"id":2497870,"name":"prorabstvo","country":"ru","lat":50.366667,"lon":87.083333},{"id":2369680,"name":"belgebash","country":"ru","lat":50.35,"lon":87.433333},{"id":1650772,"name":"rakhmanovskiye klyuchi","country":"kz","lat":49.532222,"lon":86.515556},{"id":1646710,"name":"kokkul\u0027","country":"kz","lat":49.715278,"lon":86.767222},{"id":2521490,"name":"sok\"yaryk","country":"ru","lat":50.266667,"lon":86.716667},{"id":2426663,"name":"kommuna argut","country":"ru","lat":49.85,"lon":87.1},{"id":2416448,"name":"kaznakhta","country":"ru","lat":50.216667,"lon":86.65},{"id":2369646,"name":"beleshi","country":"ru","lat":49.716667,"lon":87.416667},{"id":2358450,"name":"adyrkaya","country":"ru","lat":50.416667,"lon":86.783333},{"id":2395071,"name":"dzhazator","country":"ru","lat":49.733333,"lon":87.383333}]});