callback({"markets":[{"id":407235,"name":"las gualas","country":"cl","lat":-41.633333,"lon":-72.216667},{"id":129745,"name":"el bolson","country":"ar","lat":-41.966667,"lon":-71.516667},{"id":406580,"name":"factoria","country":"cl","lat":-41.566667,"lon":-72.366667},{"id":133786,"name":"puelo","country":"ar","lat":-42.116667,"lon":-71.716667},{"id":131561,"name":"lago puelo","country":"ar","lat":-42.080946,"lon":-71.614052},{"id":405861,"name":"cochamo","country":"cl","lat":-41.5,"lon":-72.316667},{"id":134247,"name":"rio villegas","country":"ar","lat":-41.566667,"lon":-71.533333},{"id":409079,"name":"sotomo","country":"cl","lat":-41.65,"lon":-72.316667},{"id":130772,"name":"golondrinas","country":"ar","lat":-42.029195,"lon":-71.520952},{"id":408492,"name":"puerto del yate","country":"cl","lat":-41.7,"lon":-72.4},{"id":130945,"name":"hoyo de epuyen","country":"ar","lat":-42.071892,"lon":-71.508113},{"id":407422,"name":"llaguepe","country":"cl","lat":-41.733333,"lon":-72.466667}]});