callback({"markets":[{"id":1058994,"name":"polichnitos","country":"gr","lat":39.0811111,"lon":26.1833333},{"id":1042824,"name":"anemotia","country":"gr","lat":39.25,"lon":26.1},{"id":1062610,"name":"trygonas","country":"gr","lat":38.9833333,"lon":26.4},{"id":1058552,"name":"pirama","country":"gr","lat":38.505,"lon":25.9138889},{"id":1044968,"name":"boros","country":"gr","lat":39.0333333,"lon":26.3166667},{"id":1063931,"name":"vourkos","country":"gr","lat":39.05,"lon":26.2666667},{"id":1058091,"name":"perama","country":"gr","lat":39.0483333,"lon":26.4972222},{"id":1051474,"name":"klomidhadhos","country":"gr","lat":39.27,"lon":26.2875},{"id":1062178,"name":"thermi","country":"gr","lat":39.1805556,"lon":26.4863889},{"id":1043879,"name":"aspropotamos","country":"gr","lat":39.275,"lon":26.3766667},{"id":2784242,"name":"damlarkaya","country":"tr","lat":39.474167,"lon":26.243611},{"id":1051728,"name":"komi","country":"gr","lat":39.1838889,"lon":26.4063889},{"id":1052367,"name":"koustaros","country":"gr","lat":39.3,"lon":26.1333333},{"id":1058944,"name":"ploumarion","country":"gr","lat":38.9766667,"lon":26.3680556},{"id":1054870,"name":"melanias","country":"gr","lat":38.5447222,"lon":25.8427778},{"id":2811555,"name":"kucukbahce","country":"tr","lat":38.557338,"lon":26.393052},{"id":1041824,"name":"agia paraskevi","country":"gr","lat":39.2480556,"lon":26.2716667},{"id":1043371,"name":"antrachlias","country":"gr","lat":38.5633333,"lon":25.8808333},{"id":1053557,"name":"liota","country":"gr","lat":39.2666667,"lon":25.9666667},{"id":2797203,"name":"hasseki","country":"tr","lat":38.663333,"lon":26.414444},{"id":1054916,"name":"melinta","country":"gr","lat":38.9883333,"lon":26.3113889},{"id":1063364,"name":"vatousa","country":"gr","lat":39.2333333,"lon":26.05},{"id":1042254,"name":"akrasion","country":"gr","lat":39.0263889,"lon":26.3077778},{"id":1061946,"name":"sykounta","country":"gr","lat":39.1105556,"lon":26.4111111},{"id":1047573,"name":"giosonas","country":"gr","lat":38.5658333,"lon":26.0794444},{"id":1050229,"name":"kato tritos","country":"gr","lat":39.0833333,"lon":26.4333333},{"id":1042786,"name":"andissa","country":"gr","lat":39.2333333,"lon":25.9833333},{"id":1062969,"name":"vafios","country":"gr","lat":39.3333333,"lon":26.2166667},{"id":1051281,"name":"kipouriai","country":"gr","lat":38.5077778,"lon":25.9933333},{"id":1062935,"name":"tzithra","country":"gr","lat":39.2333333,"lon":26.0},{"id":1059224,"name":"potamia","country":"gr","lat":38.5283333,"lon":25.9375},{"id":1060610,"name":"sigri","country":"gr","lat":39.2166667,"lon":25.85},{"id":1058654,"name":"pispilous","country":"gr","lat":38.5280556,"lon":25.9516667},{"id":1056362,"name":"nenitouria","country":"gr","lat":38.5683333,"lon":25.8761111},{"id":1046730,"name":"eresos","country":"gr","lat":39.1666667,"lon":25.9333333},{"id":1045515,"name":"dhafia","country":"gr","lat":39.2402778,"lon":26.2005556},{"id":1058307,"name":"petra","country":"gr","lat":39.3333333,"lon":26.1833333},{"id":1050937,"name":"khidhira","country":"gr","lat":39.2,"lon":26.0166667},{"id":1056286,"name":"nea potamia","country":"gr","lat":38.5177778,"lon":25.9444444},{"id":1055729,"name":"mistegna","country":"gr","lat":39.2108333,"lon":26.4613889},{"id":1043552,"name":"argennos","country":"gr","lat":39.3608333,"lon":26.2636111},{"id":2833451,"name":"yaylakoy","country":"tr","lat":38.575155,"lon":26.454579},{"id":1053588,"name":"lisvorion","country":"gr","lat":39.1058333,"lon":26.2186111},{"id":1048992,"name":"kampia","country":"gr","lat":38.5722222,"lon":25.9825},{"id":1063571,"name":"vikio","country":"gr","lat":38.5794444,"lon":26.0147222},{"id":1050569,"name":"kerameia","country":"gr","lat":39.1333333,"lon":26.4166667},{"id":1042505,"name":"amathes","country":"gr","lat":38.5725,"lon":26.0391667},{"id":1046998,"name":"filia","country":"gr","lat":39.2666667,"lon":26.15},{"id":1050584,"name":"keramion","country":"gr","lat":39.2191667,"lon":26.2066667},{"id":1055074,"name":"mesargos","country":"gr","lat":39.0363889,"lon":26.4444444},{"id":1064481,"name":"yera","country":"gr","lat":39.1,"lon":26.4333333},{"id":1055203,"name":"mesotopos","country":"gr","lat":39.1333333,"lon":26.0},{"id":2834359,"name":"yeniliman","country":"tr","lat":38.670556,"lon":26.4375},{"id":2772721,"name":"babakale","country":"tr","lat":39.4773,"lon":26.093849},{"id":1063280,"name":"vassilikia","country":"gr","lat":39.1038889,"lon":26.2413889},{"id":1064088,"name":"vrisia","country":"gr","lat":39.0394444,"lon":26.2011111},{"id":1055813,"name":"molyvos","country":"gr","lat":39.3666667,"lon":26.1666667},{"id":1052979,"name":"lambou miloi","country":"gr","lat":39.1333333,"lon":26.4},{"id":2798102,"name":"hisarcik","country":"tr","lat":38.653333,"lon":26.486944},{"id":1045178,"name":"chalandra","country":"gr","lat":38.5472222,"lon":25.9288889},{"id":1058010,"name":"pelopi","country":"gr","lat":39.3286111,"lon":26.2794444},{"id":1044768,"name":"barbaria","country":"gr","lat":38.5194444,"lon":25.8833333},{"id":1048977,"name":"kaminia","country":"gr","lat":38.5491667,"lon":25.9355556},{"id":1058731,"name":"plakados","country":"gr","lat":39.0455556,"lon":26.4544444},{"id":1056164,"name":"nea arisvi","country":"gr","lat":39.23,"lon":26.2186111},{"id":1056121,"name":"nagos","country":"gr","lat":38.5591667,"lon":26.0830556},{"id":1047326,"name":"fyta","country":"gr","lat":38.5177778,"lon":26.0},{"id":1051450,"name":"klio","country":"gr","lat":39.3480556,"lon":26.3216667},{"id":1053295,"name":"levka","country":"gr","lat":39.1666667,"lon":26.05},{"id":1049107,"name":"kapi","country":"gr","lat":39.3347222,"lon":26.3113889},{"id":1057129,"name":"palaia psara","country":"gr","lat":38.5333333,"lon":25.5666667},{"id":2775040,"name":"behram","country":"tr","lat":39.493443,"lon":26.333163},{"id":2772846,"name":"bademli","country":"tr","lat":39.49606,"lon":26.16855},{"id":2821987,"name":"salman","country":"tr","lat":38.595012,"lon":26.38607},{"id":1060995,"name":"skala polikhnitou","country":"gr","lat":39.1,"lon":26.1666667},{"id":1043581,"name":"ariana","country":"gr","lat":39.2166667,"lon":26.2},{"id":2811189,"name":"koyunevi","country":"tr","lat":39.492023,"lon":26.181472},{"id":1049303,"name":"kardhamila","country":"gr","lat":38.5288889,"lon":26.0913889},{"id":1054304,"name":"mantamados","country":"gr","lat":39.3116667,"lon":26.3338889},{"id":1050588,"name":"keramos","country":"gr","lat":38.5555556,"lon":25.9358333},{"id":1058711,"name":"piyi","country":"gr","lat":39.1833333,"lon":26.4166667},{"id":1064400,"name":"yeni limanion","country":"gr","lat":39.3447222,"lon":26.3625},{"id":1057764,"name":"parakella","country":"gr","lat":39.1666667,"lon":26.1333333},{"id":1053050,"name":"lardato","country":"gr","lat":38.5536111,"lon":25.9427778},{"id":1061028,"name":"skalokhori","country":"gr","lat":39.2666667,"lon":26.0666667},{"id":1063090,"name":"valtzikion","country":"gr","lat":39.2255556,"lon":26.4394444},{"id":2788408,"name":"egriliman","country":"tr","lat":38.5375,"lon":26.381389},{"id":1060615,"name":"sikaminea","country":"gr","lat":39.3613889,"lon":26.2958333},{"id":1060967,"name":"skala kallonis","country":"gr","lat":39.2066667,"lon":26.2125},{"id":2828734,"name":"tepeboz","country":"tr","lat":38.661869,"lon":26.447295},{"id":1044208,"name":"ayiassios","country":"gr","lat":39.085,"lon":26.37},{"id":1057735,"name":"pappados","country":"gr","lat":39.0394444,"lon":26.4547222},{"id":2819692,"name":"parlak","country":"tr","lat":38.61072,"lon":26.397114},{"id":1062614,"name":"trypai","country":"gr","lat":38.5272222,"lon":25.8658333},{"id":1061019,"name":"skala sykamineas","country":"gr","lat":39.3736111,"lon":26.3036111},{"id":1056819,"name":"ntipion","country":"gr","lat":39.105,"lon":26.4402778},{"id":1052849,"name":"lafionas","country":"gr","lat":39.3,"lon":26.1833333},{"id":1054804,"name":"megalokhorion","country":"gr","lat":39.0191667,"lon":26.3658333},{"id":2823160,"name":"sarpincik","country":"tr","lat":38.654079,"lon":26.402872},{"id":1061498,"name":"spartounta","country":"gr","lat":38.545,"lon":25.9938889},{"id":1060962,"name":"skala eresou","country":"gr","lat":39.1333333,"lon":25.9333333},{"id":1054458,"name":"marmaron","country":"gr","lat":38.5408333,"lon":26.1130556},{"id":2836867,"name":"yuruklerevi koyu","country":"tr","lat":39.484099,"lon":26.220943},{"id":1057253,"name":"palaiokipos","country":"gr","lat":39.0558333,"lon":26.4511111},{"id":1041786,"name":"agelopo","country":"gr","lat":38.5822222,"lon":25.97},{"id":1048117,"name":"ippeion","country":"gr","lat":39.1166667,"lon":26.4130556},{"id":2777244,"name":"boz","country":"tr","lat":38.658333,"lon":26.466667},{"id":1048707,"name":"kalloni","country":"gr","lat":39.2327778,"lon":26.2080556},{"id":1058903,"name":"playia","country":"gr","lat":38.9833333,"lon":26.3833333},{"id":1041867,"name":"agion gala","country":"gr","lat":38.565,"lon":25.8583333},{"id":1042537,"name":"ambeliko","country":"gr","lat":39.05,"lon":26.3166667},{"id":2785400,"name":"denizgiren","country":"tr","lat":38.569722,"lon":26.361389},{"id":1052327,"name":"kourounia","country":"gr","lat":38.5644444,"lon":25.9097222},{"id":1059516,"name":"psaros","country":"gr","lat":38.5708333,"lon":25.8788889},{"id":1050733,"name":"khalikas","country":"gr","lat":39.3666667,"lon":26.2833333},{"id":1043836,"name":"asomatos","country":"gr","lat":39.1,"lon":26.3833333},{"id":1041756,"name":"afrodisia","country":"gr","lat":38.5544444,"lon":25.925},{"id":1061197,"name":"skopelos","country":"gr","lat":39.0297222,"lon":26.4483333},{"id":1059781,"name":"remma","country":"gr","lat":39.2166667,"lon":26.0333333},{"id":1049709,"name":"kastron","country":"gr","lat":38.5216667,"lon":26.2061111},{"id":2829542,"name":"tolos","country":"tr","lat":38.561667,"lon":26.369167},{"id":1060984,"name":"skala neon kydonion","country":"gr","lat":39.2294444,"lon":26.4577778},{"id":1061897,"name":"stypsi","country":"gr","lat":39.3116667,"lon":26.2197222},{"id":1046373,"name":"egrigoros","country":"gr","lat":38.5733333,"lon":25.9172222},{"id":1053242,"name":"leptopodha","country":"gr","lat":38.5733333,"lon":25.9497222},{"id":1048127,"name":"ipsilometopon","country":"gr","lat":39.3175,"lon":26.2441667},{"id":1056393,"name":"neochorion","country":"gr","lat":39.0288889,"lon":26.3211111},{"id":1056837,"name":"oikismos agiasmata","country":"gr","lat":38.5858333,"lon":25.9377778},{"id":1042005,"name":"agra","country":"gr","lat":39.1666667,"lon":26.0666667},{"id":1052033,"name":"kosmados","country":"gr","lat":38.5663889,"lon":25.8813889},{"id":1056857,"name":"oinoussai","country":"gr","lat":38.5141667,"lon":26.2202778},{"id":1057251,"name":"palaiokhori","country":"gr","lat":39.0,"lon":26.3166667},{"id":1059599,"name":"pterounda","country":"gr","lat":39.2166667,"lon":26.05}]});