callback({"markets":[{"id":158796,"name":"port kenny","country":"au","lat":-33.166667,"lon":134.7},{"id":158740,"name":"poochera","country":"au","lat":-32.716667,"lon":134.85},{"id":153083,"name":"colton","country":"au","lat":-33.483333,"lon":134.933333},{"id":153440,"name":"cungena","country":"au","lat":-32.583333,"lon":134.716667},{"id":159899,"name":"talia","country":"au","lat":-33.316667,"lon":134.883333},{"id":157570,"name":"mount wedge","country":"au","lat":-33.483333,"lon":135.166667},{"id":152827,"name":"chandada","country":"au","lat":-32.75,"lon":134.683333},{"id":155416,"name":"inkster","country":"au","lat":-32.816667,"lon":134.683333},{"id":157455,"name":"mount damper","country":"au","lat":-33.116667,"lon":135.1},{"id":153110,"name":"condada","country":"au","lat":-32.8,"lon":135.066667},{"id":158892,"name":"pygery","country":"au","lat":-33.016667,"lon":135.416667},{"id":154070,"name":"emerald rise","country":"au","lat":-32.6,"lon":134.966667},{"id":161487,"name":"wootoona","country":"au","lat":-33.0,"lon":135.033333},{"id":155701,"name":"karcultaby","country":"au","lat":-32.766667,"lon":134.966667},{"id":161631,"name":"yaninee","country":"au","lat":-32.95,"lon":135.266667},{"id":157123,"name":"minnipa","country":"au","lat":-32.85,"lon":135.15},{"id":161505,"name":"wudinna","country":"au","lat":-33.050129,"lon":135.463806},{"id":160656,"name":"venus bay","country":"au","lat":-33.233333,"lon":134.683333},{"id":157445,"name":"mount cooper","country":"au","lat":-33.083333,"lon":134.7}]});