callback({"markets":[{"id":317268,"name":"saudade","country":"br","lat":-21.083333,"lon":-56.116667},{"id":287112,"name":"ambicao","country":"br","lat":-21.366667,"lon":-56.216667},{"id":299221,"name":"flexas","country":"br","lat":-21.05,"lon":-56.083333},{"id":295737,"name":"coqueiro","country":"br","lat":-21.216667,"lon":-56.383333},{"id":301510,"name":"ipe","country":"br","lat":-21.016667,"lon":-55.816667},{"id":287225,"name":"anastacio","country":"br","lat":-20.516667,"lon":-55.8},{"id":326207,"name":"tapera sao jose","country":"br","lat":-20.933333,"lon":-56.366667},{"id":326299,"name":"taquaralzinho","country":"br","lat":-20.716667,"lon":-56.166667},{"id":309827,"name":"pedra canga","country":"br","lat":-20.666667,"lon":-55.816667},{"id":301533,"name":"ipiranga","country":"br","lat":-20.933333,"lon":-55.583333},{"id":313307,"name":"retiro taruna","country":"br","lat":-21.316667,"lon":-56.216667},{"id":298219,"name":"fazenda da conceicao","country":"br","lat":-20.833333,"lon":-55.783333},{"id":291135,"name":"bom socego","country":"br","lat":-20.9,"lon":-55.516667},{"id":301084,"name":"ida","country":"br","lat":-20.95,"lon":-55.916667},{"id":298924,"name":"fazenda triunfo","country":"br","lat":-21.433333,"lon":-56.483333},{"id":312588,"name":"quati","country":"br","lat":-21.05,"lon":-56.233333},{"id":310015,"name":"pedro canga","country":"br","lat":-21.166667,"lon":-56.15},{"id":325419,"name":"sossego","country":"br","lat":-20.85,"lon":-56.45},{"id":300801,"name":"herval","country":"br","lat":-20.733333,"lon":-56.283333},{"id":303193,"name":"joao queiroz","country":"br","lat":-20.5,"lon":-56.116667},{"id":302273,"name":"jaboti","country":"br","lat":-20.8,"lon":-56.383333},{"id":300691,"name":"guia lopes","country":"br","lat":-21.433333,"lon":-56.116667},{"id":302727,"name":"jardim","country":"br","lat":-21.466667,"lon":-56.15},{"id":290942,"name":"boliche seco","country":"br","lat":-21.3,"lon":-55.95},{"id":310452,"name":"pilao","country":"br","lat":-21.1,"lon":-55.95},{"id":294694,"name":"chapada","country":"br","lat":-21.433333,"lon":-55.566667},{"id":294832,"name":"chiru","country":"br","lat":-21.183333,"lon":-56.433333},{"id":327174,"name":"triangulo","country":"br","lat":-20.983333,"lon":-56.166667},{"id":287930,"name":"areias","country":"br","lat":-20.983333,"lon":-55.883333},{"id":315351,"name":"santa","country":"br","lat":-21.1,"lon":-56.233333},{"id":294644,"name":"cevadongo","country":"br","lat":-21.15,"lon":-55.65},{"id":327407,"name":"turvo","country":"br","lat":-21.35,"lon":-55.516667},{"id":297479,"name":"espirito santo","country":"br","lat":-21.4,"lon":-56.233333},{"id":304344,"name":"lamina","country":"br","lat":-20.566667,"lon":-56.233333},{"id":327230,"name":"triunfo","country":"br","lat":-20.766667,"lon":-55.783333},{"id":290185,"name":"bebedor","country":"br","lat":-21.316667,"lon":-55.866667},{"id":299401,"name":"forquilha","country":"br","lat":-20.733333,"lon":-56.016667},{"id":294201,"name":"cassio","country":"br","lat":-21.2,"lon":-56.333333},{"id":287431,"name":"antigo aldeia lania","country":"br","lat":-20.55,"lon":-55.983333},{"id":308434,"name":"oriente","country":"br","lat":-20.966667,"lon":-55.916667},{"id":314112,"name":"rodrigo mendes","country":"br","lat":-20.566667,"lon":-56.116667},{"id":290209,"name":"beija-flor","country":"br","lat":-21.383333,"lon":-56.233333},{"id":306848,"name":"monjolinho","country":"br","lat":-20.816667,"lon":-55.633333},{"id":296403,"name":"cure","country":"br","lat":-21.416667,"lon":-56.416667},{"id":327684,"name":"urumbeba","country":"br","lat":-21.183333,"lon":-55.683333},{"id":288150,"name":"arvoredo","country":"br","lat":-21.35,"lon":-56.416667},{"id":291767,"name":"burity","country":"br","lat":-21.366667,"lon":-55.8},{"id":310070,"name":"pedro xavier","country":"br","lat":-21.216667,"lon":-56.25},{"id":304565,"name":"levergeria","country":"br","lat":-21.133333,"lon":-55.8},{"id":291220,"name":"bonito","country":"br","lat":-21.133333,"lon":-56.466667}]});