callback({"markets":[{"id":2312473,"name":"ortiz","country":"py","lat":-23.583333,"lon":-61.233333},{"id":2312411,"name":"mision san leonardo","country":"py","lat":-23.75,"lon":-60.783333},{"id":2312408,"name":"mision","country":"py","lat":-23.75,"lon":-60.983333},{"id":2312060,"name":"estancia tres reyes","country":"py","lat":-23.55,"lon":-60.683333},{"id":133673,"name":"pozo del mortero","country":"ar","lat":-24.407677,"lon":-61.029731},{"id":2310829,"name":"aguero","country":"py","lat":-23.55,"lon":-61.216667},{"id":130361,"name":"ex fortin lamadrid","country":"ar","lat":-23.938814,"lon":-60.740606},{"id":132782,"name":"mision pilaga","country":"ar","lat":-23.583333,"lon":-61.183333},{"id":130619,"name":"general francisco basiliano bosch","country":"ar","lat":-24.4,"lon":-61.016667},{"id":128876,"name":"chiriguanos","country":"ar","lat":-24.097527,"lon":-61.465493},{"id":2310818,"name":"aca vera","country":"py","lat":-23.533333,"lon":-60.933333},{"id":130471,"name":"fortin nuevo pilcomayo","country":"ar","lat":-23.868211,"lon":-60.874849},{"id":2312356,"name":"mandarina","country":"py","lat":-23.533333,"lon":-61.083333},{"id":2310840,"name":"alianza","country":"py","lat":-23.633333,"lon":-61.133333},{"id":2313315,"name":"zenteno","country":"py","lat":-23.533333,"lon":-61.333333},{"id":133219,"name":"palma sola","country":"ar","lat":-23.637688,"lon":-61.322352},{"id":130479,"name":"fortin soledad","country":"ar","lat":-24.140342,"lon":-60.696113},{"id":134854,"name":"santa rosa","country":"ar","lat":-23.784199,"lon":-61.482569},{"id":2312401,"name":"mision abajo","country":"py","lat":-23.816667,"lon":-60.733333},{"id":134229,"name":"rio muerto","country":"ar","lat":-23.616667,"lon":-61.316667},{"id":131595,"name":"laguna yema","country":"ar","lat":-24.253906,"lon":-61.244655},{"id":2312838,"name":"puesto palomo","country":"py","lat":-23.583333,"lon":-60.866667},{"id":2312808,"name":"puesto horqueta","country":"py","lat":-23.916667,"lon":-60.75},{"id":129628,"name":"doctor ezequiel ramos mejia","country":"ar","lat":-24.116667,"lon":-61.416667},{"id":131757,"name":"la primavera","country":"ar","lat":-23.531247,"lon":-61.259121},{"id":2310965,"name":"campo azul","country":"py","lat":-23.666667,"lon":-61.1},{"id":2312773,"name":"puesto careta","country":"py","lat":-23.6,"lon":-60.833333}]});