callback({"markets":[{"id":2452549,"name":"maloye yuryevo","country":"ru","lat":55.5841,"lon":41.8552},{"id":2507879,"name":"sannikovo","country":"ru","lat":55.6675,"lon":42.0001},{"id":2419296,"name":"kholkovo","country":"ru","lat":55.5145,"lon":41.7909},{"id":2461211,"name":"molotitsy","country":"ru","lat":55.7498,"lon":41.9588},{"id":2387811,"name":"chudskaya","country":"ru","lat":56.01182,"lon":42.44803},{"id":2461840,"name":"morozovo","country":"ru","lat":55.7206,"lon":41.8199},{"id":2408900,"name":"istomino","country":"ru","lat":55.922,"lon":42.4477},{"id":2424498,"name":"kobyakovo","country":"ru","lat":56.35,"lon":42.066667},{"id":2484692,"name":"parizhskaya kommuna","country":"ru","lat":55.9556,"lon":41.9795},{"id":2556310,"name":"vorobyevo","country":"ru","lat":56.15621,"lon":42.149017},{"id":2400161,"name":"glushitsy","country":"ru","lat":56.467866,"lon":41.971462},{"id":2406343,"name":"igumentsevo","country":"ru","lat":56.205532,"lon":42.014553},{"id":2548886,"name":"vasilyevskoye","country":"ru","lat":55.816667,"lon":41.983333},{"id":2367809,"name":"barsko-tatarovo","country":"ru","lat":56.391093,"lon":41.917271},{"id":2465466,"name":"navashino","country":"ru","lat":55.5441,"lon":42.1968},{"id":2483874,"name":"palkino","country":"ru","lat":56.330147,"lon":42.112214},{"id":2517592,"name":"shushpanovo","country":"ru","lat":55.6,"lon":41.7},{"id":2459951,"name":"mitinskaya","country":"ru","lat":56.082088,"lon":42.152292},{"id":2385863,"name":"chernomorye","country":"ru","lat":56.346667,"lon":41.878889},{"id":2378909,"name":"borisogleb","country":"ru","lat":55.7136,"lon":42.0144},{"id":2485741,"name":"pchelkino","country":"ru","lat":55.933333,"lon":41.7},{"id":2503912,"name":"rozhdestveno","country":"ru","lat":55.5522,"lon":41.7379},{"id":2527164,"name":"staryye kotlitsy","country":"ru","lat":55.717,"lon":41.9237},{"id":2508498,"name":"saryyevo","country":"ru","lat":56.272016,"lon":41.761139},{"id":2364097,"name":"artemkovo","country":"ru","lat":56.293444,"lon":42.217515},{"id":2523529,"name":"spasskaya","country":"ru","lat":55.916667,"lon":41.5},{"id":2564711,"name":"yezhovo","country":"ru","lat":56.025871,"lon":41.839684},{"id":2365935,"name":"baburino","country":"ru","lat":55.69,"lon":41.8714},{"id":2554051,"name":"vikhirevo","country":"ru","lat":55.9184,"lon":41.8924},{"id":2570679,"name":"zhelobikha","country":"ru","lat":56.377391,"lon":41.87107},{"id":2423914,"name":"klyuchevo","country":"ru","lat":55.9874,"lon":42.1907},{"id":2419813,"name":"khorobritsy","country":"ru","lat":55.7443,"lon":41.8935},{"id":2394333,"name":"dushkino","country":"ru","lat":56.4094,"lon":41.635162},{"id":2541156,"name":"tupik","country":"ru","lat":56.466667,"lon":42.183333},{"id":2535524,"name":"terenino","country":"ru","lat":55.8824,"lon":41.8691},{"id":2468021,"name":"nikulikha","country":"ru","lat":56.457057,"lon":41.962884},{"id":2369021,"name":"bazarovo","country":"ru","lat":55.8019,"lon":42.4287},{"id":2456150,"name":"matyukino","country":"ru","lat":56.127819,"lon":41.875731},{"id":2484097,"name":"panfilovo","country":"ru","lat":55.515556,"lon":42.078611},{"id":2431525,"name":"kozlovka","country":"ru","lat":56.380327,"lon":41.901953},{"id":2464718,"name":"nagovitsyno","country":"ru","lat":55.6793,"lon":41.6516},{"id":2523665,"name":"spas-zhelezino","country":"ru","lat":55.882,"lon":41.8952},{"id":2467289,"name":"nikitkino","country":"ru","lat":56.121173,"lon":42.364335},{"id":2548518,"name":"vasenino","country":"ru","lat":56.088906,"lon":42.275493},{"id":2380824,"name":"bryukhovaya","country":"ru","lat":56.40266,"lon":42.054989},{"id":2522724,"name":"sosnovka","country":"ru","lat":55.95,"lon":41.5},{"id":2454764,"name":"marin-oselok","country":"ru","lat":55.9668,"lon":41.742},{"id":2484363,"name":"panteleyevo","country":"ru","lat":56.461613,"lon":41.837754},{"id":2468061,"name":"nikulino","country":"ru","lat":55.6322,"lon":41.6959},{"id":2452675,"name":"maltsevo","country":"ru","lat":55.8,"lon":41.95},{"id":2405650,"name":"guzhikha","country":"ru","lat":56.465603,"lon":41.624325},{"id":2568086,"name":"zapolye","country":"ru","lat":56.036277,"lon":41.738561},{"id":2486973,"name":"pertovo","country":"ru","lat":55.765,"lon":42.412778},{"id":2569249,"name":"zaykino","country":"ru","lat":56.401133,"lon":41.582863},{"id":2497941,"name":"proskuryakovo","country":"ru","lat":56.04181,"lon":41.997469},{"id":2496104,"name":"pozdnyakovo","country":"ru","lat":55.6345,"lon":42.2416},{"id":2366808,"name":"balashi","country":"ru","lat":56.094173,"lon":41.749106},{"id":2522624,"name":"sosnitsa","country":"ru","lat":55.7974,"lon":42.2652},{"id":2557633,"name":"voznesenye","country":"ru","lat":56.131185,"lon":42.450361},{"id":2466798,"name":"nevezhino","country":"ru","lat":56.109026,"lon":41.716759},{"id":2511398,"name":"sergiya-gorki","country":"ru","lat":55.9837,"lon":42.1075},{"id":2376645,"name":"bolshiye rylukhi","country":"ru","lat":56.038238,"lon":41.789415},{"id":2518242,"name":"simantsevskiy","country":"ru","lat":56.235572,"lon":41.785341},{"id":2415132,"name":"kashirino","country":"ru","lat":56.224889,"lon":42.320958},{"id":2506010,"name":"rytovo","country":"ru","lat":56.018439,"lon":42.062887},{"id":2572789,"name":"zolotovo","country":"ru","lat":56.01712,"lon":42.218555},{"id":2460523,"name":"mokeyevka","country":"ru","lat":55.9581,"lon":41.8524},{"id":2362745,"name":"antonikha","country":"ru","lat":55.933333,"lon":42.2},{"id":2458430,"name":"mikhalchugovo","country":"ru","lat":55.92,"lon":42.0553},{"id":2463867,"name":"myakushino","country":"ru","lat":55.998,"lon":41.891},{"id":2562995,"name":"yelkhi","country":"ru","lat":55.7427,"lon":41.7085},{"id":2534848,"name":"telepovo","country":"ru","lat":56.110745,"lon":42.423044},{"id":2397131,"name":"filippovka","country":"ru","lat":56.064599,"lon":41.638093},{"id":2489479,"name":"pirovy-gorodishchi","country":"ru","lat":56.227146,"lon":42.253519},{"id":2502288,"name":"reutovo","country":"ru","lat":56.179714,"lon":42.376216},{"id":2473463,"name":"novoklyazminskoye","country":"ru","lat":56.430602,"lon":42.008218},{"id":2404093,"name":"grishino","country":"ru","lat":56.005269,"lon":42.294147},{"id":2559240,"name":"vysokova","country":"ru","lat":55.8357,"lon":41.7711},{"id":2423588,"name":"klin","country":"ru","lat":55.820278,"lon":42.481389},{"id":2425505,"name":"kolesnikovo","country":"ru","lat":56.144505,"lon":42.420142},{"id":2538546,"name":"trekhovitsy","country":"ru","lat":55.65,"lon":41.95},{"id":2555644,"name":"volnino","country":"ru","lat":55.7023,"lon":42.0335},{"id":2452022,"name":"maloye koltsovo","country":"ru","lat":55.75,"lon":41.666667},{"id":2420051,"name":"khotilovka","country":"ru","lat":56.172752,"lon":42.221146},{"id":2401462,"name":"gorbatka","country":"ru","lat":55.8703,"lon":41.7641},{"id":2390229,"name":"denyatino","country":"ru","lat":55.5055,"lon":41.6747},{"id":2440308,"name":"kuzemino","country":"ru","lat":56.381068,"lon":41.649735},{"id":2453434,"name":"malyye udoly","country":"ru","lat":56.270286,"lon":42.24547},{"id":2531742,"name":"svyatsy","country":"ru","lat":55.7756,"lon":41.6574},{"id":2379796,"name":"borzakovo","country":"ru","lat":55.9847,"lon":42.3505},{"id":2563508,"name":"yenikha","country":"ru","lat":56.474346,"lon":41.759416},{"id":2369545,"name":"belaya ramen","country":"ru","lat":55.9291,"lon":42.0891},{"id":2496705,"name":"prigorevo","country":"ru","lat":55.99,"lon":42.1},{"id":2451078,"name":"malchikha","country":"ru","lat":56.460307,"lon":41.803369},{"id":2530828,"name":"suvorikha","country":"ru","lat":56.459982,"lon":41.798058},{"id":2555907,"name":"volo-ozero","country":"ru","lat":55.9731,"lon":41.6063},{"id":2432177,"name":"krasnaya gorka","country":"ru","lat":55.8525,"lon":41.7456},{"id":2385010,"name":"cheremisino","country":"ru","lat":55.532,"lon":41.9375},{"id":2397487,"name":"fominki","country":"ru","lat":55.9615,"lon":42.3689},{"id":2548237,"name":"varezh","country":"ru","lat":55.7477,"lon":42.0087},{"id":2411598,"name":"kality","country":"ru","lat":56.302971,"lon":41.961351},{"id":2561353,"name":"yartseva","country":"ru","lat":55.7875,"lon":41.5644},{"id":2421287,"name":"khvostsovo","country":"ru","lat":55.8568,"lon":41.7132},{"id":2517299,"name":"shumilikha","country":"ru","lat":55.7953,"lon":42.2446},{"id":2548668,"name":"vasilki","country":"ru","lat":56.10355,"lon":41.953684},{"id":2464732,"name":"naguyevo","country":"ru","lat":56.182468,"lon":42.082469},{"id":2534050,"name":"tatarovo","country":"ru","lat":55.889167,"lon":42.139444},{"id":2429863,"name":"kosiki","country":"ru","lat":56.390278,"lon":42.017222},{"id":2528773,"name":"strigino","country":"ru","lat":55.5567,"lon":41.8823},{"id":2572713,"name":"zolotaya griva","country":"ru","lat":56.264763,"lon":42.206726},{"id":2497378,"name":"probuzhdeniye","country":"ru","lat":55.8186,"lon":42.0747},{"id":2399771,"name":"glebovo","country":"ru","lat":55.6397,"lon":41.5666},{"id":2447553,"name":"lukoyanikha","country":"ru","lat":55.961,"lon":41.6816},{"id":2510061,"name":"seltsovy-derevenki","country":"ru","lat":56.282136,"lon":42.143516},{"id":2390194,"name":"denisovo","country":"ru","lat":55.9275,"lon":41.5502},{"id":2491344,"name":"podlesnaya andreyevka","country":"ru","lat":56.093899,"lon":41.592229},{"id":2495436,"name":"poshatovo","country":"ru","lat":55.6463,"lon":41.6964},{"id":2559558,"name":"wjasnik","country":"ru","lat":56.240566,"lon":42.155629},{"id":2472298,"name":"novishki","country":"ru","lat":56.103821,"lon":42.353232},{"id":2394675,"name":"dyakonovo","country":"ru","lat":55.7062,"lon":41.8706},{"id":2358156,"name":"abrosimovo","country":"ru","lat":56.1358,"lon":41.863215},{"id":2571517,"name":"zholobovo","country":"ru","lat":56.127166,"lon":42.230644},{"id":2365763,"name":"baberikha","country":"ru","lat":56.454869,"lon":41.556424},{"id":2435132,"name":"krivitsy","country":"ru","lat":55.516667,"lon":41.9},{"id":2438620,"name":"kurbatikha","country":"ru","lat":55.9949,"lon":42.0025},{"id":2528967,"name":"stryapkovo","country":"ru","lat":56.084261,"lon":42.194624},{"id":2458492,"name":"mikhalishki","country":"ru","lat":56.110042,"lon":42.021637},{"id":2465971,"name":"nekhayka","country":"ru","lat":55.75,"lon":42.483333},{"id":2405046,"name":"gulyaikha","country":"ru","lat":56.040983,"lon":41.96529},{"id":2392477,"name":"doronovo","country":"ru","lat":56.310514,"lon":41.948083},{"id":2440080,"name":"kuvezino","country":"ru","lat":56.452782,"lon":41.795002},{"id":2396477,"name":"fedoseikha","country":"ru","lat":56.334438,"lon":41.951143},{"id":2446675,"name":"losye","country":"ru","lat":56.385315,"lon":41.804782},{"id":2449231,"name":"maitnoye","country":"ru","lat":56.446442,"lon":42.465953},{"id":2362626,"name":"anosino","country":"ru","lat":56.182672,"lon":41.60018},{"id":2567909,"name":"zaozerye","country":"ru","lat":55.9645,"lon":42.3082},{"id":2456842,"name":"medvedevo","country":"ru","lat":55.9806,"lon":42.0546},{"id":2455341,"name":"martyushikha","country":"ru","lat":55.7042,"lon":42.3986},{"id":2427060,"name":"kondrakova","country":"ru","lat":55.797778,"lon":41.910556},{"id":2377785,"name":"bolshoye sokurovo","country":"ru","lat":56.155275,"lon":42.341758},{"id":2519009,"name":"sizovo","country":"ru","lat":56.205859,"lon":41.980951},{"id":2376765,"name":"bolshiye udoly","country":"ru","lat":56.264715,"lon":42.268742},{"id":2527995,"name":"stepkovo","country":"ru","lat":56.142774,"lon":42.03397},{"id":2523506,"name":"spas-sedchino","country":"ru","lat":55.6839,"lon":42.2697},{"id":2426007,"name":"kolotilovo","country":"ru","lat":56.275514,"lon":42.440261},{"id":2420543,"name":"khudyakovo","country":"ru","lat":56.074579,"lon":41.771982},{"id":2573606,"name":"zykovo","country":"ru","lat":55.9998,"lon":42.3781},{"id":2572409,"name":"zlobiyevo","country":"ru","lat":55.9909,"lon":42.1671},{"id":2494681,"name":"porzamka","country":"ru","lat":56.330346,"lon":42.059058},{"id":2511545,"name":"serkovo sloboda","country":"ru","lat":56.06519,"lon":41.798975},{"id":2540595,"name":"tuchkovo","country":"ru","lat":55.8831,"lon":41.6518},{"id":2452825,"name":"malyshevo","country":"ru","lat":55.6146,"lon":42.3082},{"id":2488259,"name":"petrokovo","country":"ru","lat":55.693056,"lon":41.984722},{"id":2430825,"name":"kourkovo","country":"ru","lat":56.237214,"lon":41.990001},{"id":2459943,"name":"mitino","country":"ru","lat":55.6025,"lon":41.5677},{"id":2409807,"name":"ivonino","country":"ru","lat":55.9619,"lon":41.5534},{"id":2361888,"name":"andreyevka","country":"ru","lat":55.8479,"lon":41.75},{"id":2460095,"name":"mitsyno","country":"ru","lat":56.33295,"lon":41.570082},{"id":2459958,"name":"mitiny-derevenki","country":"ru","lat":56.289338,"lon":42.125828},{"id":2485384,"name":"pavlitsy","country":"ru","lat":56.395946,"lon":42.026308},{"id":2464355,"name":"nadekhdino","country":"ru","lat":55.9442,"lon":41.9008},{"id":2513381,"name":"shatnevo","country":"ru","lat":56.096675,"lon":41.930181},{"id":2473518,"name":"novokostsy","country":"ru","lat":56.148466,"lon":42.383191},{"id":2362894,"name":"antsifrovo","country":"ru","lat":55.6281,"lon":42.2347},{"id":2387785,"name":"chudinovo","country":"ru","lat":56.239439,"lon":42.066548},{"id":2519071,"name":"skalovo","country":"ru","lat":55.8826,"lon":41.5285},{"id":2389795,"name":"delova","country":"ru","lat":55.788,"lon":41.7996},{"id":2568927,"name":"zaveleva","country":"ru","lat":55.733333,"lon":41.583333},{"id":2508934,"name":"savkova","country":"ru","lat":55.6829,"lon":41.9137},{"id":2569770,"name":"zelenyye prudy","country":"ru","lat":56.057339,"lon":41.768271},{"id":2401224,"name":"golyshevo","country":"ru","lat":56.085905,"lon":41.719376},{"id":2560751,"name":"yam","country":"ru","lat":56.094722,"lon":42.079285},{"id":2520875,"name":"sobolevo","country":"ru","lat":55.6385,"lon":41.8571},{"id":2505828,"name":"rykino","country":"ru","lat":56.28323,"lon":41.971245},{"id":2500941,"name":"rastovets","country":"ru","lat":56.374804,"lon":42.060855},{"id":2483885,"name":"palkovo","country":"ru","lat":56.128461,"lon":42.15174},{"id":2455750,"name":"maslovskoye","country":"ru","lat":55.5371,"lon":42.371},{"id":2424245,"name":"knyazevo","country":"ru","lat":55.5833,"lon":42.2899},{"id":2358613,"name":"afonasovo","country":"ru","lat":56.016667,"lon":41.833333},{"id":2483099,"name":"ozerki","country":"ru","lat":56.334478,"lon":41.650255},{"id":2366434,"name":"bakhtolovo","country":"ru","lat":55.9998,"lon":42.0857},{"id":2429075,"name":"koroventsevo","country":"ru","lat":56.144046,"lon":41.718501},{"id":2359439,"name":"aksakovo","country":"ru","lat":56.06957,"lon":42.481823},{"id":2474172,"name":"novo","country":"ru","lat":56.293496,"lon":42.31732},{"id":2406600,"name":"ilevniki","country":"ru","lat":56.202843,"lon":42.315664},{"id":2382673,"name":"butorlino","country":"ru","lat":56.043851,"lon":41.823828},{"id":2358099,"name":"abramovo","country":"ru","lat":55.5749,"lon":41.7978},{"id":2434165,"name":"krasnyy oktyabr","country":"ru","lat":55.6208,"lon":42.2421},{"id":2398275,"name":"galkino","country":"ru","lat":56.115999,"lon":41.827264},{"id":2461321,"name":"monakovo","country":"ru","lat":55.7388,"lon":42.3644},{"id":2459841,"name":"mishurovo","country":"ru","lat":56.186667,"lon":42.28687},{"id":2445320,"name":"lisino","country":"ru","lat":55.9191,"lon":42.2808},{"id":2567098,"name":"zakharovka","country":"ru","lat":56.090027,"lon":42.115327},{"id":2382327,"name":"burnovo","country":"ru","lat":56.113432,"lon":42.056691},{"id":2401325,"name":"gonchary","country":"ru","lat":56.010742,"lon":42.49607},{"id":2540078,"name":"tsentralnyy","country":"ru","lat":56.203825,"lon":42.127709},{"id":2397467,"name":"fomina ramen","country":"ru","lat":56.022604,"lon":41.810226},{"id":2562853,"name":"yeliseyevo","country":"ru","lat":56.13141,"lon":41.797128},{"id":2383487,"name":"chaadayevo","country":"ru","lat":55.666667,"lon":42.033333},{"id":2497891,"name":"prosenitsa","country":"ru","lat":55.5349,"lon":41.8001},{"id":2502617,"name":"rodionikha","country":"ru","lat":55.7054,"lon":42.3204},{"id":2506905,"name":"saksino","country":"ru","lat":55.6501,"lon":41.9406},{"id":2360721,"name":"aleshunino","country":"ru","lat":55.8255,"lon":42.3355},{"id":2383168,"name":"bykovka","country":"ru","lat":56.256435,"lon":42.089683},{"id":2480081,"name":"oltushevo","country":"ru","lat":56.221613,"lon":42.382138},{"id":2516227,"name":"shishlovo","country":"ru","lat":55.7316,"lon":41.764},{"id":2419003,"name":"khmelniki","country":"ru","lat":56.290442,"lon":41.961982},{"id":2475002,"name":"novoshino","country":"ru","lat":55.5894,"lon":42.2416},{"id":2413320,"name":"karacharovo","country":"ru","lat":55.5449,"lon":42.0805},{"id":2428044,"name":"koptsovo","country":"ru","lat":56.130926,"lon":41.912104},{"id":2393395,"name":"dubovo","country":"ru","lat":56.136614,"lon":42.353191},{"id":2556931,"name":"voskhod","country":"ru","lat":56.094474,"lon":41.53007},{"id":2515110,"name":"shevinskaya","country":"ru","lat":56.03284,"lon":41.641413},{"id":2457123,"name":"mekhanizatorov","country":"ru","lat":55.6027,"lon":42.038},{"id":2429493,"name":"korzhavino","country":"ru","lat":55.5731,"lon":41.9184},{"id":2359485,"name":"aksenikha","country":"ru","lat":56.074918,"lon":41.584936},{"id":2458973,"name":"miklyayevo","country":"ru","lat":56.008973,"lon":42.176554},{"id":2436074,"name":"krutoy-vrag","country":"ru","lat":56.0,"lon":41.8},{"id":2359681,"name":"akulikha","country":"ru","lat":56.086146,"lon":41.676321},{"id":2462698,"name":"mstera","country":"ru","lat":56.378889,"lon":41.92},{"id":2504371,"name":"rudilnitsy","country":"ru","lat":56.236445,"lon":42.330291},{"id":2514002,"name":"shchibrovo","country":"ru","lat":56.20341,"lon":41.658097},{"id":2560829,"name":"yandovy","country":"ru","lat":56.267645,"lon":41.992624},{"id":2518471,"name":"singer","country":"ru","lat":56.272608,"lon":42.042213},{"id":2443914,"name":"lesnoye tatarintsevo","country":"ru","lat":56.084528,"lon":42.373045},{"id":2562043,"name":"yefanovo","country":"ru","lat":55.7193,"lon":42.2811},{"id":2504356,"name":"rudelevo","country":"ru","lat":56.23273,"lon":42.303985},{"id":2402383,"name":"gorodishche","country":"ru","lat":55.5125,"lon":41.8337},{"id":2452388,"name":"maloye sokurovo","country":"ru","lat":56.154957,"lon":42.333249},{"id":2474764,"name":"novoselki","country":"ru","lat":55.6362,"lon":41.8122},{"id":2374904,"name":"bolshaya grigoryeva","country":"ru","lat":55.9683,"lon":41.7553},{"id":2426650,"name":"komlevo","country":"ru","lat":56.19162,"lon":42.360108},{"id":2549240,"name":"vazhanka","country":"ru","lat":55.833333,"lon":41.583333},{"id":2519489,"name":"skrypino","country":"ru","lat":55.6008,"lon":41.5029},{"id":2510475,"name":"semeykino","country":"ru","lat":56.372956,"lon":41.837757},{"id":2411223,"name":"kalikino","country":"ru","lat":56.20326,"lon":42.080807},{"id":2558992,"name":"vyselok","country":"ru","lat":55.95,"lon":41.816667},{"id":2537940,"name":"torchikha","country":"ru","lat":56.110948,"lon":41.741008},{"id":2451931,"name":"maloye grigorovo","country":"ru","lat":55.9609,"lon":41.7456},{"id":2377931,"name":"bolshoye vysokovo","country":"ru","lat":56.170764,"lon":41.865321},{"id":2424202,"name":"knyaginkino","country":"ru","lat":56.462162,"lon":41.561211},{"id":2466970,"name":"nezhilovka","country":"ru","lat":55.5899,"lon":41.9855},{"id":2502082,"name":"repniki","country":"ru","lat":56.461611,"lon":41.574995},{"id":2385031,"name":"cheremkha","country":"ru","lat":56.314361,"lon":41.599058},{"id":2399753,"name":"glebovka","country":"ru","lat":55.7516,"lon":42.083},{"id":2402981,"name":"gostinino","country":"ru","lat":55.9734,"lon":41.8467},{"id":2445935,"name":"log","country":"ru","lat":56.226746,"lon":42.304652},{"id":2439017,"name":"kurkovo","country":"ru","lat":55.9081,"lon":42.0289},{"id":2390166,"name":"denisovka","country":"ru","lat":56.103611,"lon":41.535278},{"id":2515862,"name":"shirino","country":"ru","lat":55.928,"lon":42.1669},{"id":2562143,"name":"yefremovo","country":"ru","lat":55.7313,"lon":42.2711},{"id":2555054,"name":"vnukovo","country":"ru","lat":56.065871,"lon":42.449141},{"id":2382413,"name":"burtsevo","country":"ru","lat":56.113481,"lon":41.708579},{"id":2377875,"name":"bolshoye ugryumovo","country":"ru","lat":55.6986,"lon":41.5777},{"id":2497724,"name":"proletarskiy","country":"ru","lat":56.104699,"lon":42.334324},{"id":2406691,"name":"ilina gora","country":"ru","lat":56.210329,"lon":42.401812},{"id":2572078,"name":"zimnitsy","country":"ru","lat":55.5251,"lon":41.5928},{"id":2549881,"name":"verbonskiy","country":"ru","lat":55.5284,"lon":41.9712},{"id":2483383,"name":"ozhigovo","country":"ru","lat":55.8296,"lon":42.1004},{"id":2392672,"name":"drachevo","country":"ru","lat":55.6988,"lon":41.6359},{"id":2419490,"name":"kholshchevo","country":"ru","lat":56.133333,"lon":42.016667},{"id":2461539,"name":"mordovshchikovo","country":"ru","lat":55.533333,"lon":42.2},{"id":2434414,"name":"krasnyy voskhod","country":"ru","lat":55.966667,"lon":41.633333},{"id":2484503,"name":"papulino","country":"ru","lat":55.5575,"lon":41.7618},{"id":2402559,"name":"gorokhovo","country":"ru","lat":55.5845,"lon":41.519},{"id":2519965,"name":"slobodishchi","country":"ru","lat":56.169361,"lon":42.444995},{"id":2459688,"name":"misaylovo","country":"ru","lat":56.38745,"lon":41.580074},{"id":2508833,"name":"savino","country":"ru","lat":55.7149,"lon":41.6967},{"id":2428754,"name":"korobkovo","country":"ru","lat":55.6677,"lon":42.2759},{"id":2531414,"name":"svinovo","country":"ru","lat":56.366667,"lon":41.8},{"id":2548000,"name":"vamna","country":"ru","lat":55.8825,"lon":42.2408},{"id":2556885,"name":"voshchikha","country":"ru","lat":55.9193,"lon":41.8018},{"id":2403819,"name":"gridinskaya","country":"ru","lat":56.118951,"lon":41.933769},{"id":2433709,"name":"krasnyy bor","country":"ru","lat":55.821,"lon":42.3099},{"id":2504069,"name":"rozhnovo","country":"ru","lat":55.7607,"lon":41.89},{"id":2377969,"name":"bolshoye yuryevo","country":"ru","lat":55.584,"lon":41.8822},{"id":2472612,"name":"novo-barsukovka","country":"ru","lat":55.5848,"lon":41.7922},{"id":2565869,"name":"yuryshki","country":"ru","lat":56.326808,"lon":41.709083},{"id":2522187,"name":"sonino","country":"ru","lat":55.602222,"lon":42.435833},{"id":2373894,"name":"bogdanovo","country":"ru","lat":56.35,"lon":41.65},{"id":2457877,"name":"meshcherskoye","country":"ru","lat":55.5386,"lon":42.446},{"id":2451849,"name":"maloye bykasovo","country":"ru","lat":56.000813,"lon":42.148455},{"id":2415611,"name":"katyshevo","country":"ru","lat":55.6202,"lon":41.8204},{"id":2555910,"name":"volosataya","country":"ru","lat":55.9775,"lon":41.6229},{"id":2479108,"name":"okheyevo","country":"ru","lat":55.5926,"lon":41.8447},{"id":2452658,"name":"maltsevo","country":"ru","lat":56.407331,"lon":41.991439},{"id":2536225,"name":"tikhovo","country":"ru","lat":56.048845,"lon":41.871494},{"id":2460044,"name":"mitrofanovo","country":"ru","lat":55.7394,"lon":41.5243},{"id":2460786,"name":"mokrovo","country":"ru","lat":55.9785,"lon":41.8705},{"id":2548954,"name":"vaskino","country":"ru","lat":56.158281,"lon":42.048818},{"id":2490925,"name":"podbolotnya","country":"ru","lat":55.533333,"lon":41.966667},{"id":2436122,"name":"krutyye","country":"ru","lat":56.144001,"lon":42.151783},{"id":2496997,"name":"priozernyy","country":"ru","lat":56.14,"lon":41.96},{"id":2360040,"name":"aleksandrino","country":"ru","lat":55.5256,"lon":41.6502},{"id":2444366,"name":"levino","country":"ru","lat":55.5264,"lon":41.6308},{"id":2380168,"name":"bragino","country":"ru","lat":56.2385,"lon":42.315378},{"id":2421695,"name":"kineshemskiy pogost","country":"ru","lat":56.297341,"lon":42.080223},{"id":2443570,"name":"lepeshkino","country":"ru","lat":56.26693,"lon":41.710478},{"id":2517212,"name":"shulgino","country":"ru","lat":55.7704,"lon":41.7445},{"id":2509375,"name":"sedelnikovo","country":"ru","lat":56.174053,"lon":42.077327},{"id":2530825,"name":"suvoloka","country":"ru","lat":56.079871,"lon":41.977262},{"id":2391071,"name":"dmitriyevka","country":"ru","lat":55.6262,"lon":41.8849},{"id":2371404,"name":"berezovka","country":"ru","lat":55.6567,"lon":41.9637},{"id":2509813,"name":"selishchi","country":"ru","lat":55.7645,"lon":41.7548},{"id":2358512,"name":"afanasovo","country":"ru","lat":55.6469,"lon":41.8342},{"id":2392452,"name":"doronikha","country":"ru","lat":56.490716,"lon":41.789731},{"id":2564381,"name":"yesipovo","country":"ru","lat":55.9081,"lon":41.7832},{"id":2381595,"name":"bulatnikovo","country":"ru","lat":55.6889,"lon":41.7623},{"id":2430429,"name":"kostyunino","country":"ru","lat":56.240757,"lon":41.598415},{"id":2372840,"name":"bityukovo","country":"ru","lat":55.666667,"lon":42.066667},{"id":2560055,"name":"yakimanskaya sloboda","country":"ru","lat":55.5976,"lon":42.0419},{"id":2432472,"name":"krasnaya yablon","country":"ru","lat":56.107189,"lon":42.438182},{"id":2419508,"name":"kholui","country":"ru","lat":56.072058,"lon":42.122715},{"id":2400654,"name":"golobokovo","country":"ru","lat":56.144868,"lon":41.864251},{"id":2458096,"name":"mezhakovo","country":"ru","lat":56.068119,"lon":41.72682},{"id":2477898,"name":"nula","country":"ru","lat":55.9144,"lon":42.1514},{"id":2450939,"name":"malaya ugryumova","country":"ru","lat":55.616667,"lon":41.55},{"id":2427020,"name":"kondakovo","country":"ru","lat":55.5507,"lon":41.6992},{"id":2556452,"name":"voronino","country":"ru","lat":56.161469,"lon":41.9912},{"id":2472322,"name":"novlyanka","country":"ru","lat":55.7991,"lon":41.7296},{"id":2451126,"name":"malevskaya","country":"ru","lat":56.116003,"lon":41.964601},{"id":2481866,"name":"ostanovka mezina","country":"ru","lat":55.539,"lon":42.2706},{"id":2545642,"name":"uspenskiy pogost","country":"ru","lat":56.102559,"lon":42.168864},{"id":2452834,"name":"malyshevo","country":"ru","lat":55.7285,"lon":41.5386},{"id":2396701,"name":"fedyunino","country":"ru","lat":56.460968,"lon":41.689876},{"id":2376130,"name":"bolshevysokovo","country":"ru","lat":56.170832,"lon":41.865801},{"id":2370796,"name":"berdishchevo","country":"ru","lat":55.7014,"lon":41.9409},{"id":2424706,"name":"kochetikha","country":"ru","lat":56.431721,"lon":41.852538},{"id":2524788,"name":"stantsiya stroydetal","country":"ru","lat":55.5974,"lon":41.995},{"id":2404856,"name":"gubino","country":"ru","lat":55.6889,"lon":41.6763},{"id":2372133,"name":"bezlesnaya","country":"ru","lat":55.7477,"lon":41.7652},{"id":2393807,"name":"dudkino","country":"ru","lat":56.194783,"lon":41.967116},{"id":2424301,"name":"knyazheskaya","country":"ru","lat":56.463626,"lon":41.615451},{"id":2555324,"name":"volchikha","country":"ru","lat":55.9478,"lon":42.2246},{"id":2386032,"name":"chernovskaya","country":"ru","lat":55.9296,"lon":41.9101},{"id":2484640,"name":"parfentyevo","country":"ru","lat":55.616667,"lon":41.65},{"id":2426543,"name":"komary","country":"ru","lat":56.184807,"lon":41.880083},{"id":2490127,"name":"pleskovo","country":"ru","lat":55.8589,"lon":42.4535},{"id":2541219,"name":"turakovo","country":"ru","lat":56.081789,"lon":42.319949},{"id":2564102,"name":"yerofeyevo","country":"ru","lat":56.136144,"lon":42.036696},{"id":2463403,"name":"muromskiy","country":"ru","lat":55.5571,"lon":42.0272},{"id":2379437,"name":"borovitsy","country":"ru","lat":55.8023,"lon":42.362},{"id":2365929,"name":"babukhovo","country":"ru","lat":55.5507,"lon":41.5772},{"id":2474916,"name":"novosemenovka","country":"ru","lat":56.129221,"lon":42.339394},{"id":2509795,"name":"selishche","country":"ru","lat":56.211579,"lon":42.197157},{"id":2493443,"name":"poltso","country":"ru","lat":55.769,"lon":42.2239},{"id":2417825,"name":"kharina","country":"ru","lat":56.05292,"lon":41.985856},{"id":2510090,"name":"selyankino","country":"ru","lat":56.311052,"lon":41.672108},{"id":2430904,"name":"kovarditsy","country":"ru","lat":55.6117,"lon":41.9501},{"id":2429788,"name":"koshkino","country":"ru","lat":55.5442,"lon":41.5327},{"id":2458291,"name":"michkovo","country":"ru","lat":55.6455,"lon":41.5372},{"id":2431059,"name":"kovyryayekha","country":"ru","lat":56.333333,"lon":41.95},{"id":2369809,"name":"belkovo","country":"ru","lat":55.516667,"lon":41.716667},{"id":2494208,"name":"popolutovo","country":"ru","lat":55.6733,"lon":41.9136},{"id":2527482,"name":"staryy potash","country":"ru","lat":55.9352,"lon":42.2543},{"id":2458823,"name":"mikhaylovskoye","country":"ru","lat":56.051267,"lon":42.373377},{"id":2505214,"name":"ryabikha","country":"ru","lat":56.182937,"lon":41.754772},{"id":2500948,"name":"rastovo","country":"ru","lat":55.9652,"lon":42.1615},{"id":2533658,"name":"tarkhanovo","country":"ru","lat":56.178851,"lon":42.422223},{"id":2464964,"name":"napalikha","country":"ru","lat":56.410051,"lon":41.872588},{"id":2455804,"name":"mastikhina","country":"ru","lat":55.7,"lon":41.95},{"id":2476594,"name":"novtso","country":"ru","lat":55.9253,"lon":42.296},{"id":2379236,"name":"borodino","country":"ru","lat":56.097302,"lon":42.180518},{"id":2532356,"name":"tabachikha","country":"ru","lat":56.103389,"lon":41.760139},{"id":2508665,"name":"savanchakovo","country":"ru","lat":55.718,"lon":41.8998},{"id":2494033,"name":"ponomarevo","country":"ru","lat":56.163859,"lon":41.802355},{"id":2423542,"name":"klimovskaya","country":"ru","lat":56.077675,"lon":42.111816},{"id":2387763,"name":"chud","country":"ru","lat":55.7676,"lon":42.329},{"id":2391797,"name":"dolgovo","country":"ru","lat":56.298257,"lon":41.816434},{"id":2531354,"name":"svezhaki","country":"ru","lat":55.616667,"lon":41.6},{"id":2555956,"name":"volosovo","country":"ru","lat":55.6012,"lon":42.1602},{"id":2360627,"name":"aleshina","country":"ru","lat":56.25,"lon":41.6},{"id":2407632,"name":"imeni voykova","country":"ru","lat":55.6151,"lon":42.0315},{"id":2424884,"name":"kochnevo","country":"ru","lat":56.133333,"lon":41.633333},{"id":2400563,"name":"golenishchevo","country":"ru","lat":55.8382,"lon":42.4975},{"id":2492906,"name":"polevikha","country":"ru","lat":56.028544,"lon":41.691815},{"id":2568336,"name":"zarechnyy","country":"ru","lat":56.359408,"lon":41.940797},{"id":2543013,"name":"ugolnoye","country":"ru","lat":55.6154,"lon":42.1759},{"id":2379831,"name":"borzyn","country":"ru","lat":56.245429,"lon":42.033837},{"id":2570669,"name":"zhelnino","country":"ru","lat":56.097755,"lon":41.966676},{"id":2414249,"name":"kariki","country":"ru","lat":56.42975,"lon":41.658661},{"id":2426697,"name":"kommuna","country":"ru","lat":55.6087,"lon":41.9911},{"id":2520241,"name":"smenki","country":"ru","lat":56.175099,"lon":42.2578},{"id":2425415,"name":"koldino","country":"ru","lat":55.558,"lon":41.9358},{"id":2501644,"name":"rebrovo","country":"ru","lat":55.9326,"lon":42.3423},{"id":2378113,"name":"bolshoy kholm","country":"ru","lat":56.213706,"lon":42.008049},{"id":2377301,"name":"bolshoye koltsovo","country":"ru","lat":55.7539,"lon":41.6978},{"id":2572636,"name":"zobishchi","country":"ru","lat":56.188,"lon":42.020037},{"id":2572426,"name":"zlydnevo","country":"ru","lat":56.154478,"lon":41.666849},{"id":2539060,"name":"troitskoye tatarovo","country":"ru","lat":56.416667,"lon":41.883333},{"id":2391109,"name":"dmitriyevskaya sloboda","country":"ru","lat":55.6095,"lon":42.0358},{"id":2429155,"name":"korovkino","country":"ru","lat":56.148194,"lon":42.402025},{"id":2529399,"name":"sudostroy","country":"ru","lat":55.7229,"lon":42.2571},{"id":2362637,"name":"anosovo","country":"ru","lat":55.9548,"lon":42.105},{"id":2570829,"name":"zhemchuzhnaya","country":"ru","lat":55.5443,"lon":41.9433},{"id":2462007,"name":"moshachikha","country":"ru","lat":56.345283,"lon":41.58281},{"id":2519228,"name":"skolepovo","country":"ru","lat":56.247194,"lon":41.888779},{"id":2408333,"name":"isakovka","country":"ru","lat":56.372909,"lon":41.883479},{"id":2478219,"name":"obednino","country":"ru","lat":56.000881,"lon":42.167069},{"id":2479010,"name":"ogryzkovo","country":"ru","lat":55.9414,"lon":42.3489},{"id":2495086,"name":"poselok novlyanka","country":"ru","lat":55.8077,"lon":41.7385},{"id":2418075,"name":"kharyatino","country":"ru","lat":56.421919,"lon":41.55174},{"id":2516084,"name":"shiryayevo","country":"ru","lat":55.9635,"lon":41.9023},{"id":2886651,"name":"pozdnyakovo","country":"ua","lat":56.2,"lon":41.816667},{"id":2383522,"name":"chabyshevo","country":"ru","lat":55.5311,"lon":41.799},{"id":2391325,"name":"dobritsy","country":"ru","lat":56.387793,"lon":41.994712},{"id":2507715,"name":"sanchugovo","country":"ru","lat":55.6974,"lon":41.6692},{"id":2570460,"name":"zhdanovka","country":"ru","lat":56.103426,"lon":42.131925},{"id":2485292,"name":"paustovo","country":"ru","lat":56.119617,"lon":42.167235},{"id":2434957,"name":"krilitsa","country":"ru","lat":56.35,"lon":42.016667},{"id":2483432,"name":"ozonovo","country":"ru","lat":55.5568,"lon":41.6456},{"id":2555202,"name":"vodyanov","country":"ru","lat":55.833333,"lon":42.0},{"id":2446331,"name":"lopaschino","country":"ru","lat":55.616667,"lon":41.95},{"id":2366771,"name":"balandino","country":"ru","lat":55.8857,"lon":42.3749},{"id":2479490,"name":"okulovo","country":"ru","lat":55.5564,"lon":42.2215},{"id":2532660,"name":"takovikha","country":"ru","lat":56.009268,"lon":41.629067},{"id":2428343,"name":"korelkino","country":"ru","lat":55.6869,"lon":41.6375},{"id":2459889,"name":"misyuryevo","country":"ru","lat":56.166585,"lon":42.477118},{"id":2389054,"name":"danilkovo","country":"ru","lat":56.205283,"lon":42.244668},{"id":2490268,"name":"plokhovo","country":"ru","lat":56.202157,"lon":41.626777},{"id":2537814,"name":"topolevka","country":"ru","lat":56.183746,"lon":42.279074},{"id":2421484,"name":"kika","country":"ru","lat":56.232256,"lon":42.021848},{"id":2402191,"name":"gornoye tatarintsevo","country":"ru","lat":56.162579,"lon":42.400483},{"id":2445043,"name":"lipki","country":"ru","lat":56.106902,"lon":41.666478},{"id":2449340,"name":"makarovka","country":"ru","lat":55.5838,"lon":41.9444},{"id":2471717,"name":"novaya ramen","country":"ru","lat":55.9534,"lon":42.1142},{"id":2370762,"name":"berchakovo","country":"ru","lat":56.451083,"lon":41.582958},{"id":2408425,"name":"isayevo","country":"ru","lat":56.170487,"lon":42.109207},{"id":2373027,"name":"blagoveshchensk","country":"ru","lat":55.7231,"lon":42.202},{"id":2458199,"name":"mezhishchi","country":"ru","lat":55.7044,"lon":41.8075},{"id":2464916,"name":"namestovo","country":"ru","lat":56.158676,"lon":42.067399},{"id":2439827,"name":"kutarino","country":"ru","lat":55.6157,"lon":42.2636},{"id":2568452,"name":"zaroslovo","country":"ru","lat":55.6367,"lon":41.7611},{"id":2379319,"name":"borok","country":"ru","lat":55.7603,"lon":42.2469},{"id":2382174,"name":"burino","country":"ru","lat":56.350285,"lon":42.191657},{"id":2482563,"name":"otrub","country":"ru","lat":56.090128,"lon":41.547607},{"id":2510710,"name":"semyn","country":"ru","lat":56.380674,"lon":41.813107},{"id":2434799,"name":"krestnikova","country":"ru","lat":56.338042,"lon":41.601234},{"id":2479494,"name":"okulovo","country":"ru","lat":55.6142,"lon":41.7886},{"id":2500592,"name":"ramezhki","country":"ru","lat":55.6157,"lon":41.8513},{"id":2393644,"name":"dubrovo","country":"ru","lat":55.8098,"lon":41.8564},{"id":2466098,"name":"nekrasovo","country":"ru","lat":55.9113,"lon":41.837},{"id":2401880,"name":"goritsy","country":"ru","lat":55.6251,"lon":42.4378},{"id":2513667,"name":"shchekino","country":"ru","lat":56.237208,"lon":42.275436},{"id":2490333,"name":"ploskovo","country":"ru","lat":56.28188,"lon":41.973003},{"id":2458635,"name":"mikhaylovka","country":"ru","lat":55.5851,"lon":41.8258},{"id":2480901,"name":"orlovka","country":"ru","lat":55.5414,"lon":41.7511},{"id":2460105,"name":"mityakovo","country":"ru","lat":55.9589,"lon":41.7749},{"id":2442571,"name":"lazarevo","country":"ru","lat":55.5531,"lon":41.9564},{"id":2423531,"name":"klimovo","country":"ru","lat":55.7525,"lon":41.783},{"id":2550058,"name":"vereyki","country":"ru","lat":56.460556,"lon":41.613889},{"id":2558821,"name":"vypolzovo","country":"ru","lat":55.59,"lon":41.7953},{"id":2389874,"name":"demidikha","country":"ru","lat":56.316667,"lon":42.25},{"id":2506587,"name":"safoneyevo","country":"ru","lat":56.115494,"lon":42.396442},{"id":2452514,"name":"maloye vysokovo","country":"ru","lat":56.160662,"lon":41.851772},{"id":2562232,"name":"yegoriy","country":"ru","lat":56.219386,"lon":42.464949},{"id":2568387,"name":"zarechye","country":"ru","lat":55.8816,"lon":41.795},{"id":2521091,"name":"sofryaki","country":"ru","lat":56.159368,"lon":42.467689},{"id":2464857,"name":"naleskino","country":"ru","lat":56.321287,"lon":41.959221},{"id":2522556,"name":"sosenki","country":"ru","lat":56.170823,"lon":42.18231},{"id":2379948,"name":"botulino","country":"ru","lat":56.185278,"lon":42.431944},{"id":2409230,"name":"ivankovo","country":"ru","lat":55.5474,"lon":41.919},{"id":2572540,"name":"znamenka","country":"ru","lat":55.8268,"lon":41.6151},{"id":2539572,"name":"trukhachikha","country":"ru","lat":55.9659,"lon":42.0984},{"id":2446557,"name":"losevo","country":"ru","lat":56.216667,"lon":42.05},{"id":2423829,"name":"klyazmenskiy gorodok","country":"ru","lat":56.447767,"lon":41.506321},{"id":2526621,"name":"staroye ratovo","country":"ru","lat":55.5129,"lon":41.9067},{"id":2502968,"name":"rogovskaya","country":"ru","lat":56.068121,"lon":42.14512},{"id":2395826,"name":"esino","country":"ru","lat":56.146369,"lon":41.508902},{"id":2396313,"name":"fedorkovo","country":"ru","lat":55.708,"lon":41.7215},{"id":2499228,"name":"pustyn","country":"ru","lat":56.445006,"lon":41.991375},{"id":2534047,"name":"tatarovka","country":"ru","lat":55.9778,"lon":41.5525},{"id":2396650,"name":"fedurniki","country":"ru","lat":56.216667,"lon":42.233333},{"id":2503740,"name":"rovnaya","country":"ru","lat":55.566667,"lon":41.633333},{"id":2547252,"name":"uvarovka","country":"ru","lat":56.025019,"lon":41.596501},{"id":2428647,"name":"kornilovka","country":"ru","lat":55.6995,"lon":42.3046},{"id":2422826,"name":"kitovo","country":"ru","lat":56.083333,"lon":41.762222},{"id":2510779,"name":"senino","country":"ru","lat":56.153643,"lon":41.738196},{"id":2370436,"name":"belyaikha","country":"ru","lat":56.210504,"lon":41.899963},{"id":2532144,"name":"sysoyevo","country":"ru","lat":56.136138,"lon":41.959238},{"id":2459900,"name":"mitenevo","country":"ru","lat":55.733333,"lon":41.85},{"id":2432458,"name":"krasnaya ushna","country":"ru","lat":55.798,"lon":41.5626},{"id":2510285,"name":"semenovka","country":"ru","lat":55.9309,"lon":42.1489},{"id":2533401,"name":"taranovo","country":"ru","lat":55.9003,"lon":42.264},{"id":2467645,"name":"nikologory","country":"ru","lat":56.141298,"lon":41.992185},{"id":2486427,"name":"perelozhnikovo","country":"ru","lat":55.7495,"lon":41.6111},{"id":2463393,"name":"murom am oka","country":"ru","lat":55.575,"lon":42.0426},{"id":2479115,"name":"okhlopkovo","country":"ru","lat":56.341323,"lon":41.731957},{"id":2532659,"name":"takovets","country":"ru","lat":56.407405,"lon":42.087504},{"id":2429165,"name":"korovskaya","country":"ru","lat":56.097937,"lon":41.68501},{"id":2491993,"name":"pod\"yelovo","country":"ru","lat":56.426468,"lon":41.989573},{"id":2458465,"name":"mikhalevo","country":"ru","lat":55.666667,"lon":41.866389},{"id":2408358,"name":"isakovo","country":"ru","lat":55.9344,"lon":41.7799},{"id":2562467,"name":"yekaterinovka","country":"ru","lat":55.9185,"lon":41.9146},{"id":2479904,"name":"olkhovka","country":"ru","lat":55.5919,"lon":42.2139},{"id":2488569,"name":"petrovskaya","country":"ru","lat":55.9094,"lon":41.964},{"id":2377060,"name":"bolshoye","country":"ru","lat":56.492222,"lon":42.284444},{"id":2517946,"name":"sidorovo-sarancha","country":"ru","lat":56.015561,"lon":41.661738},{"id":2425950,"name":"koloshino","country":"ru","lat":56.198166,"lon":41.996813},{"id":2492740,"name":"pokrovskoye","country":"ru","lat":55.6077,"lon":42.1975},{"id":2399820,"name":"glinishchi","country":"ru","lat":56.146269,"lon":42.245043},{"id":2558527,"name":"vyazovka","country":"ru","lat":56.250494,"lon":41.861625},{"id":2431563,"name":"kozlovo","country":"ru","lat":56.328197,"lon":42.107349},{"id":2488046,"name":"pestrikovo","country":"ru","lat":56.283333,"lon":42.35},{"id":2501580,"name":"razyezd pyatnadtsatyy kilometr","country":"ru","lat":55.652,"lon":41.8761},{"id":2447498,"name":"luknovo","country":"ru","lat":56.180447,"lon":42.039867},{"id":2460489,"name":"moiseyevka","country":"ru","lat":55.9161,"lon":42.3134},{"id":2476671,"name":"novy potash","country":"ru","lat":55.9483,"lon":42.2481},{"id":2401884,"name":"goritsy","country":"ru","lat":55.984,"lon":41.8938},{"id":2443851,"name":"lesnikova","country":"ru","lat":55.6799,"lon":41.9366},{"id":2463913,"name":"myasnikovo","country":"ru","lat":56.02468,"lon":42.241743},{"id":2370391,"name":"belteyevka","country":"ru","lat":55.6012,"lon":42.3737},{"id":2500854,"name":"rasstrigino","country":"ru","lat":55.9834,"lon":42.4043},{"id":2471630,"name":"novaya penza","country":"ru","lat":55.792,"lon":42.0825},{"id":2503700,"name":"rotkovo","country":"ru","lat":56.002825,"lon":42.327888},{"id":2411999,"name":"kamenevo","country":"ru","lat":56.138316,"lon":42.276172},{"id":2435963,"name":"krutovka","country":"ru","lat":56.380516,"lon":41.880046},{"id":2360698,"name":"aleshkovo","country":"ru","lat":55.9835,"lon":41.9986},{"id":2463547,"name":"musino","country":"ru","lat":55.583333,"lon":41.666667},{"id":2561364,"name":"yartsevo","country":"ru","lat":55.5575,"lon":42.1481},{"id":2429275,"name":"korshunikha","country":"ru","lat":56.231138,"lon":41.961016},{"id":2385666,"name":"chernevo","country":"ru","lat":56.048056,"lon":41.846389},{"id":2484834,"name":"parshova","country":"ru","lat":55.8026,"lon":41.7873},{"id":2395311,"name":"edomskoye","country":"ru","lat":56.095782,"lon":41.757076},{"id":2475657,"name":"novovyazniki","country":"ru","lat":56.197498,"lon":42.171112},{"id":2406269,"name":"ignatyevo","country":"ru","lat":55.7674,"lon":41.862},{"id":2532437,"name":"tabukovo","country":"ru","lat":55.9333,"lon":42.0169},{"id":2456048,"name":"matveyevka","country":"ru","lat":55.9155,"lon":41.5964},{"id":2487961,"name":"pestenkino","country":"ru","lat":55.6109,"lon":41.8614},{"id":2372244,"name":"bezvernikovo","country":"ru","lat":55.583,"lon":42.3314},{"id":2401776,"name":"goremykino","country":"ru","lat":56.221643,"lon":42.356437},{"id":2514496,"name":"sheludkovo","country":"ru","lat":56.063335,"lon":41.736403},{"id":2560643,"name":"yamki","country":"ru","lat":56.16758,"lon":41.728573},{"id":2421409,"name":"kichigino","country":"ru","lat":55.7255,"lon":42.1211},{"id":2361644,"name":"ananino","country":"ru","lat":55.987,"lon":42.147},{"id":2365928,"name":"babukhino","country":"ru","lat":56.179784,"lon":42.106252},{"id":2445204,"name":"lipovskaya usadba","country":"ru","lat":56.248633,"lon":42.296134},{"id":2507829,"name":"sankhar","country":"ru","lat":56.399558,"lon":42.385538},{"id":2564230,"name":"yershovo","country":"ru","lat":55.8697,"lon":41.727},{"id":2406903,"name":"ilinskoye","country":"ru","lat":55.9875,"lon":41.7085},{"id":2380495,"name":"brodniki","country":"ru","lat":56.219245,"lon":41.969764},{"id":2506629,"name":"safonovo","country":"ru","lat":55.8307,"lon":42.3879},{"id":2560388,"name":"yakushikha","country":"ru","lat":56.295795,"lon":42.336945},{"id":2380101,"name":"boytsovo","country":"ru","lat":55.541,"lon":41.6372},{"id":2452193,"name":"maloye okulovo","country":"ru","lat":55.5774,"lon":42.1294},{"id":2497993,"name":"prosye","country":"ru","lat":56.004169,"lon":42.396886},{"id":2509872,"name":"selivanovo","country":"ru","lat":55.8895,"lon":41.7426},{"id":2361530,"name":"amosovo","country":"ru","lat":55.5505,"lon":41.7816},{"id":2360519,"name":"alekseyevskoye","country":"ru","lat":56.105985,"lon":41.557507},{"id":2532984,"name":"talyzino","country":"ru","lat":55.7756,"lon":41.8808},{"id":2423978,"name":"klyuchiki","country":"ru","lat":56.033333,"lon":41.683333},{"id":2466020,"name":"neklyudovo","country":"ru","lat":55.7399,"lon":41.5506},{"id":2515851,"name":"shirilikha","country":"ru","lat":56.464027,"lon":41.603013},{"id":2384390,"name":"chebyshevo","country":"ru","lat":55.5842,"lon":41.7347},{"id":2510051,"name":"seltso","country":"ru","lat":55.6968,"lon":41.8386},{"id":2531007,"name":"svarukha","country":"ru","lat":56.097746,"lon":41.643212},{"id":2482757,"name":"ovinishchi","country":"ru","lat":56.084583,"lon":41.6376},{"id":2505250,"name":"ryabinnitsy","country":"ru","lat":56.406349,"lon":41.685492},{"id":2527960,"name":"stepantsevo","country":"ru","lat":56.13143,"lon":41.703199},{"id":2476991,"name":"novyye kotlitsy","country":"ru","lat":55.6939,"lon":41.9059},{"id":2505874,"name":"rylo","country":"ru","lat":56.433333,"lon":42.016667},{"id":2402058,"name":"gorlovka","country":"ru","lat":55.9082,"lon":42.1871},{"id":2368050,"name":"basargino","country":"ru","lat":56.101667,"lon":41.71},{"id":2564869,"name":"yudikha","country":"ru","lat":56.489287,"lon":41.772677},{"id":2453559,"name":"malyy kholm","country":"ru","lat":56.215291,"lon":42.007281},{"id":2547910,"name":"valovo","country":"ru","lat":55.6257,"lon":41.8713},{"id":2432185,"name":"krasnaya griva","country":"ru","lat":56.466429,"lon":41.716406},{"id":2377162,"name":"bolshoye felisovo","country":"ru","lat":56.066543,"lon":42.081125},{"id":2409212,"name":"ivankova","country":"ru","lat":55.7329,"lon":41.7101},{"id":2427063,"name":"kondrakovo","country":"ru","lat":55.7373,"lon":42.2595},{"id":2518241,"name":"simantsevo","country":"ru","lat":56.233482,"lon":41.798739},{"id":2503313,"name":"romashevo","country":"ru","lat":56.11225,"lon":42.218507},{"id":2444732,"name":"likhaya pozhnya","country":"ru","lat":56.23685,"lon":41.945499},{"id":2360651,"name":"aleshinskaya","country":"ru","lat":56.089435,"lon":42.061421},{"id":2566366,"name":"zaborochye","country":"ru","lat":56.287212,"lon":42.211684},{"id":2445702,"name":"lobanovo","country":"ru","lat":55.7956,"lon":41.7558},{"id":2432064,"name":"kraskovo","country":"ru","lat":56.106818,"lon":42.47063},{"id":2455296,"name":"martynovo","country":"ru","lat":55.8076,"lon":42.3792},{"id":2498167,"name":"prudishchi","country":"ru","lat":55.7325,"lon":41.886},{"id":2374539,"name":"bolotnikovo","country":"ru","lat":55.7928,"lon":42.4598},{"id":2518635,"name":"sinyatkino","country":"ru","lat":56.154452,"lon":42.022379},{"id":2376451,"name":"bolshiye lipki","country":"ru","lat":56.252736,"lon":42.070654},{"id":2453217,"name":"malyye lipki","country":"ru","lat":56.260724,"lon":42.065364},{"id":2396215,"name":"fatyanovo","country":"ru","lat":56.433084,"lon":41.841604},{"id":2531723,"name":"svyato","country":"ru","lat":55.9161,"lon":42.2197},{"id":2397785,"name":"fronskaya","country":"ru","lat":56.016667,"lon":41.933333},{"id":2479767,"name":"olgino","country":"ru","lat":55.8638,"lon":42.0907},{"id":2485483,"name":"pavlovo","country":"ru","lat":56.379775,"lon":42.014825},{"id":2529180,"name":"stupiny-derevenki","country":"ru","lat":56.3004,"lon":42.111504},{"id":2367819,"name":"barskoye","country":"ru","lat":56.279841,"lon":41.944696},{"id":2403723,"name":"gribkovo","country":"ru","lat":55.5386,"lon":41.8502}]});