callback({"markets":[{"id":152306,"name":"bukkulla","country":"au","lat":-29.5,"lon":151.133333},{"id":154055,"name":"elsmore","country":"au","lat":-29.816667,"lon":151.266667},{"id":158198,"name":"nullamanna","country":"au","lat":-29.65,"lon":151.216667},{"id":152864,"name":"cherry tree hill","country":"au","lat":-29.533333,"lon":150.983333},{"id":151173,"name":"auburn vale","country":"au","lat":-29.833333,"lon":151.033333},{"id":155361,"name":"hurricane hill","country":"au","lat":-29.516667,"lon":151.383333},{"id":154948,"name":"gulf creek","country":"au","lat":-30.183333,"lon":150.7},{"id":155429,"name":"inverell","country":"au","lat":-29.774031,"lon":151.111664},{"id":154550,"name":"gineroi road","country":"au","lat":-29.766667,"lon":150.5},{"id":156449,"name":"little plain","country":"au","lat":-29.733333,"lon":150.966667},{"id":155750,"name":"keera","country":"au","lat":-29.983333,"lon":150.783333},{"id":159676,"name":"stanborough","country":"au","lat":-29.95,"lon":151.15},{"id":151670,"name":"beverley","country":"au","lat":-30.1,"lon":151.0},{"id":160805,"name":"wandera","country":"au","lat":-29.683333,"lon":151.166667},{"id":150895,"name":"abington","country":"au","lat":-30.283333,"lon":151.183333},{"id":152370,"name":"bundarra","country":"au","lat":-30.17211,"lon":151.076187},{"id":152518,"name":"byron","country":"au","lat":-29.683333,"lon":151.1},{"id":160073,"name":"tenterden","country":"au","lat":-30.133333,"lon":151.45},{"id":155875,"name":"kimberley","country":"au","lat":-29.933333,"lon":151.116667},{"id":161693,"name":"yarrowick","country":"au","lat":-30.466667,"lon":151.35},{"id":159367,"name":"sapphire","country":"au","lat":-29.7,"lon":151.333333},{"id":153714,"name":"dinoga","country":"au","lat":-29.966667,"lon":150.6},{"id":157551,"name":"mount russell","country":"au","lat":-29.683333,"lon":150.933333},{"id":153637,"name":"delungra","country":"au","lat":-29.654039,"lon":150.830048},{"id":151716,"name":"bingara","country":"au","lat":-29.86931,"lon":150.572037},{"id":160333,"name":"torryburn","country":"au","lat":-30.45,"lon":151.216667},{"id":157990,"name":"newstead","country":"au","lat":-29.833333,"lon":151.35},{"id":152182,"name":"brodies plains","country":"au","lat":-29.8,"lon":151.216667},{"id":155332,"name":"howell","country":"au","lat":-29.95,"lon":151.033333},{"id":159685,"name":"stannifer","country":"au","lat":-29.883333,"lon":151.216667},{"id":153230,"name":"copeton","country":"au","lat":-29.916667,"lon":151.016667},{"id":161420,"name":"woods reef","country":"au","lat":-30.383333,"lon":150.733333},{"id":158271,"name":"oakwood","country":"au","lat":-29.65,"lon":151.05},{"id":160871,"name":"warialda road","country":"au","lat":-29.716667,"lon":150.533333},{"id":159127,"name":"rockmore","country":"au","lat":-30.433333,"lon":150.666667},{"id":151261,"name":"baldersleigh","country":"au","lat":-30.266667,"lon":151.433333},{"id":153384,"name":"crow mountain","country":"au","lat":-30.466667,"lon":150.766667},{"id":160228,"name":"tingha","country":"au","lat":-29.955879,"lon":151.212463},{"id":151839,"name":"bobby whitlow","country":"au","lat":-29.85,"lon":150.633333},{"id":157730,"name":"myall creek station","country":"au","lat":-29.75,"lon":150.766667},{"id":155970,"name":"koloona","country":"au","lat":-29.633333,"lon":150.716667},{"id":160550,"name":"upper bingara","country":"au","lat":-30.05,"lon":150.65},{"id":159850,"name":"swan vale","country":"au","lat":-29.783333,"lon":151.433333},{"id":154529,"name":"gilgai","country":"au","lat":-29.852699,"lon":151.118057},{"id":151407,"name":"barraba","country":"au","lat":-30.385469,"lon":150.609009},{"id":159112,"name":"rob roy","country":"au","lat":-29.75,"lon":151.016667},{"id":153009,"name":"cobbadan","country":"au","lat":-30.216667,"lon":150.566667},{"id":151248,"name":"bakers creek","country":"au","lat":-30.266667,"lon":151.016667},{"id":156292,"name":"laura","country":"au","lat":-30.216667,"lon":151.133333},{"id":151355,"name":"bannockburn","country":"au","lat":-29.616667,"lon":151.033333},{"id":157207,"name":"molroy","country":"au","lat":-29.8,"lon":150.583333},{"id":160872,"name":"warialda","country":"au","lat":-29.543539,"lon":150.575424},{"id":158659,"name":"pindari","country":"au","lat":-29.516667,"lon":151.316667}]});