callback({"markets":[{"id":2549141,"name":"vatulinskaya","country":"ru","lat":63.166667,"lon":120.433333},{"id":2438331,"name":"kunu-berete","country":"ru","lat":63.316667,"lon":119.85},{"id":2438318,"name":"kunsk","country":"ru","lat":62.933333,"lon":119.816667},{"id":2550777,"name":"verkhnevilyuysk","country":"ru","lat":63.445278,"lon":120.316667},{"id":2395439,"name":"eleker","country":"ru","lat":62.566667,"lon":120.383333}]});