callback({"markets":[{"id":2113366,"name":"campomanes","country":"ph","lat":9.6304,"lon":122.4671},{"id":2121231,"name":"iba","country":"ph","lat":10.4467,"lon":121.9996},{"id":2104212,"name":"bacuyangan","country":"ph","lat":9.637,"lon":122.4721},{"id":2141304,"name":"san martin","country":"ph","lat":10.4757,"lon":122.0252},{"id":2143554,"name":"sinogbuhan","country":"ph","lat":10.4715,"lon":122.0265},{"id":2121376,"name":"igcado","country":"ph","lat":10.4915,"lon":122.0034},{"id":2121395,"name":"igdalagit","country":"ph","lat":10.4892,"lon":121.9227},{"id":2119522,"name":"ginarogan","country":"ph","lat":10.466667,"lon":121.966667},{"id":2139819,"name":"sagua","country":"ph","lat":10.4365,"lon":121.9222},{"id":2114760,"name":"casay","country":"ph","lat":10.4476,"lon":121.9874},{"id":2114123,"name":"canturay","country":"ph","lat":9.7937,"lon":122.4543},{"id":2110237,"name":"bulata","country":"ph","lat":9.8599,"lon":122.4016},{"id":2115325,"name":"cayhagan","country":"ph","lat":9.6783,"lon":122.4335},{"id":2131083,"name":"maricalom","country":"ph","lat":9.7049,"lon":122.4188},{"id":2125490,"name":"lavigan","country":"ph","lat":10.487,"lon":122.0354},{"id":2138248,"name":"po-oo","country":"ph","lat":9.5881,"lon":122.4728},{"id":2126425,"name":"lisub b","country":"ph","lat":10.4496,"lon":121.919},{"id":2147637,"name":"toptop","country":"ph","lat":10.4,"lon":122.2},{"id":2121434,"name":"igpalgo","country":"ph","lat":10.4615,"lon":121.9804},{"id":2149430,"name":"yao-yao","country":"ph","lat":9.9259,"lon":122.4531},{"id":2145989,"name":"tando","country":"ph","lat":10.4732,"lon":122.4931},{"id":2127919,"name":"mabuyong","country":"ph","lat":10.4402,"lon":121.98},{"id":2143631,"name":"sipalay","country":"ph","lat":9.7497,"lon":122.4043},{"id":2106892,"name":"bariri","country":"ph","lat":10.4354,"lon":121.9723},{"id":2115043,"name":"catigpan","country":"ph","lat":10.4941,"lon":122.0502},{"id":2121787,"name":"inayawan","country":"ph","lat":9.9005,"lon":122.434},{"id":2139910,"name":"salamague","country":"ph","lat":10.4798,"lon":122.0069},{"id":2122879,"name":"kaliling","country":"ph","lat":9.9804,"lon":122.4814},{"id":2102412,"name":"alingadyon","country":"ph","lat":9.6045,"lon":122.4943},{"id":2145484,"name":"talisayan","country":"ph","lat":10.4394,"lon":121.9214},{"id":2114683,"name":"cartagena","country":"ph","lat":9.8203,"lon":122.4004},{"id":2126200,"name":"linaon","country":"ph","lat":9.9499,"lon":122.4483},{"id":2117597,"name":"diclum","country":"ph","lat":10.4838,"lon":121.9241},{"id":2145581,"name":"talos","country":"ph","lat":10.4883,"lon":122.0467},{"id":2103147,"name":"aniniy town","country":"ph","lat":10.4312,"lon":121.927},{"id":2107725,"name":"bayo pequeno","country":"ph","lat":10.4606,"lon":121.9195},{"id":2112374,"name":"calangcang","country":"ph","lat":9.7099,"lon":122.3856},{"id":2121338,"name":"igbangcal c","country":"ph","lat":10.471,"lon":121.9451},{"id":2116907,"name":"danauan","country":"ph","lat":10.4834,"lon":121.9764},{"id":2101358,"name":"abaca","country":"ph","lat":10.4929,"lon":121.9568},{"id":2134852,"name":"padaraonan","country":"ph","lat":10.4919,"lon":122.4906},{"id":2112305,"name":"calamanda","country":"ph","lat":9.8877,"lon":122.4582},{"id":2121036,"name":"hinubaan","country":"ph","lat":9.6009,"lon":122.4684},{"id":2122907,"name":"kalogtangan","country":"ph","lat":10.4909,"lon":122.0414},{"id":2121337,"name":"igbangcal b","country":"ph","lat":10.4822,"lon":121.9522},{"id":2133713,"name":"nasuli-a","country":"ph","lat":10.4746,"lon":121.9895},{"id":2145795,"name":"tambu","country":"ph","lat":9.8822,"lon":122.4186},{"id":2115092,"name":"cato-ogan","country":"ph","lat":10.4997,"lon":121.9376},{"id":2121459,"name":"igtumaron","country":"ph","lat":10.4581,"lon":121.9581},{"id":2128423,"name":"magdalena","country":"ph","lat":10.4236,"lon":121.9751},{"id":2118791,"name":"fatima","country":"ph","lat":10.4756,"lon":121.9302},{"id":2140133,"name":"salvacion","country":"ph","lat":10.423,"lon":121.9581},{"id":2130539,"name":"manlucahoc","country":"ph","lat":9.7399,"lon":122.498},{"id":2133724,"name":"nasvli","country":"ph","lat":10.4599,"lon":121.9943},{"id":2133763,"name":"nato","country":"ph","lat":10.4295,"lon":121.9458},{"id":2126426,"name":"lisub","country":"ph","lat":10.4462,"lon":121.9197},{"id":2114766,"name":"casay viejo","country":"ph","lat":10.4499,"lon":121.9908},{"id":2113011,"name":"camandagan","country":"ph","lat":10.4697,"lon":121.9704},{"id":2107713,"name":"bayo grande","country":"ph","lat":10.4622,"lon":121.919},{"id":2118039,"name":"dolores","country":"ph","lat":10.4845,"lon":122.4798},{"id":2121336,"name":"igbangcal a","country":"ph","lat":10.4748,"lon":121.9575},{"id":2132444,"name":"mompeller","country":"ph","lat":9.683333,"lon":122.383333},{"id":2121343,"name":"igbarabatuan","country":"ph","lat":10.4529,"lon":121.9773},{"id":2144919,"name":"tagaytay","country":"ph","lat":10.4614,"lon":121.944},{"id":2118569,"name":"eliban","country":"ph","lat":9.8391,"lon":122.3919},{"id":2122113,"name":"jabulao","country":"ph","lat":9.6616,"lon":122.4577},{"id":2140736,"name":"san francisco town","country":"ph","lat":10.4634,"lon":122.0093},{"id":2141683,"name":"san roque","country":"ph","lat":10.4169,"lon":121.9635},{"id":2133800,"name":"nauhan","country":"ph","lat":9.6227,"lon":122.4666},{"id":2102385,"name":"alim","country":"ph","lat":9.5649,"lon":122.4876},{"id":2127889,"name":"mabunao","country":"ph","lat":9.583333,"lon":122.066667},{"id":2142474,"name":"santo tomas","country":"ph","lat":10.4914,"lon":121.9851},{"id":2133798,"name":"nauhang","country":"ph","lat":9.7697,"lon":122.4008},{"id":2111087,"name":"cabadiangan","country":"ph","lat":9.7534,"lon":122.4739},{"id":2141620,"name":"san ramon","country":"ph","lat":10.446,"lon":121.9508},{"id":2124516,"name":"lagob","country":"ph","lat":9.7743,"lon":122.3978},{"id":2110938,"name":"butuan","country":"ph","lat":10.4351,"lon":121.9332}]});