callback({"markets":[{"id":2575746,"name":"al faysaliyah","country":"sa","lat":30.979332,"lon":41.036584},{"id":2577178,"name":"as sulaymaniyah","country":"sa","lat":30.559132,"lon":41.149533},{"id":2578085,"name":"ibn su`ayyid","country":"sa","lat":31.068416,"lon":40.785686},{"id":2576840,"name":"`ar`ar","country":"sa","lat":30.97531,"lon":41.038079},{"id":2577349,"name":"badanah","country":"sa","lat":30.986449,"lon":41.018988},{"id":2579554,"name":"tal`at `ammar","country":"sa","lat":30.656754,"lon":40.561241},{"id":2576063,"name":"al judayyidah","country":"sa","lat":31.328264,"lon":41.443012}]});