callback({"markets":[{"id":2759962,"name":"cheleken","country":"tm","lat":39.4447222,"lon":53.115},{"id":2760968,"name":"ogurchinskiy","country":"tm","lat":39.0616667,"lon":53.0458333},{"id":2760699,"name":"koshkin","country":"tm","lat":39.45,"lon":53.15},{"id":2759998,"name":"dagadzhik","country":"tm","lat":39.4833333,"lon":53.2833333},{"id":2760967,"name":"ogomana","country":"tm","lat":39.3891667,"lon":53.2819444},{"id":2759647,"name":"aladzha","country":"tm","lat":39.3569444,"lon":53.2122222},{"id":2761042,"name":"qura gel","country":"tm","lat":39.3788889,"lon":53.1819444}]});