callback({"markets":[{"id":859837,"name":"campello","country":"es","lat":38.427997,"lon":-0.39871},{"id":880845,"name":"santa faz","country":"es","lat":38.388971,"lon":-0.450303},{"id":860942,"name":"casas de las canadas","country":"es","lat":38.482549,"lon":-0.342182},{"id":861614,"name":"caserio condomina","country":"es","lat":38.369535,"lon":-0.4217},{"id":860498,"name":"carrer del mar","country":"es","lat":38.425708,"lon":-0.39125},{"id":880126,"name":"san juan de alicante","country":"es","lat":38.39918,"lon":-0.433407},{"id":861014,"name":"casas de penacerrada","country":"es","lat":38.416667,"lon":-0.45},{"id":855271,"name":"aguas de busot","country":"es","lat":38.499244,"lon":-0.362809},{"id":858064,"name":"barrio vista harmosa","country":"es","lat":38.367718,"lon":-0.460401},{"id":857322,"name":"babel","country":"es","lat":38.333333,"lon":-0.05},{"id":859306,"name":"busot","country":"es","lat":38.482061,"lon":-0.419178},{"id":858161,"name":"beal","country":"es","lat":37.633333,"lon":-0.083333},{"id":875127,"name":"muchamiel","country":"es","lat":38.41523,"lon":-0.445667},{"id":862395,"name":"caserio la venteta","country":"es","lat":38.4,"lon":-0.4},{"id":858430,"name":"benimagrell","country":"es","lat":38.383333,"lon":-0.416667},{"id":855935,"name":"alicante","country":"es","lat":38.34619,"lon":-0.487722},{"id":863076,"name":"caserio tangel","country":"es","lat":38.40791,"lon":-0.471946},{"id":885017,"name":"villafranqueza","country":"es","lat":38.387701,"lon":-0.490645}]});