callback({"markets":[{"id":1651396,"name":"say-kuduk","country":"kz","lat":49.433333,"lon":52.916667},{"id":1644894,"name":"imeni kalinina","country":"kz","lat":48.95,"lon":52.566667},{"id":1646345,"name":"kerik","country":"kz","lat":49.166667,"lon":53.016667},{"id":1641699,"name":"arak","country":"kz","lat":48.533333,"lon":52.85},{"id":1642513,"name":"baymagambet","country":"kz","lat":48.7,"lon":52.733333},{"id":1649249,"name":"naurzali","country":"kz","lat":48.75,"lon":52.883333},{"id":1646984,"name":"konstanu","country":"kz","lat":48.8425,"lon":53.3325},{"id":1645658,"name":"karakamys","country":"kz","lat":49.291111,"lon":53.161389},{"id":1651335,"name":"sarzale","country":"kz","lat":48.8,"lon":52.766667},{"id":1647915,"name":"kuzdykarakol\u0027","country":"kz","lat":48.883333,"lon":53.266667},{"id":1644070,"name":"dosum","country":"kz","lat":48.916667,"lon":52.8},{"id":1647780,"name":"kurman-kuzha","country":"kz","lat":49.333333,"lon":53.366667},{"id":1649686,"name":"nurgali","country":"kz","lat":48.7,"lon":53.016667},{"id":1641704,"name":"aralbay","country":"kz","lat":49.266667,"lon":52.666667},{"id":1654873,"name":"zhamankuduk","country":"kz","lat":49.257778,"lon":52.612222},{"id":1651369,"name":"saule","country":"kz","lat":49.380833,"lon":53.195833},{"id":1645165,"name":"islam-kutyr\u0027","country":"kz","lat":48.933333,"lon":52.6},{"id":1650684,"name":"qorzhyn","country":"kz","lat":49.45,"lon":53.498889},{"id":1651606,"name":"shalabai","country":"kz","lat":49.2,"lon":52.833333},{"id":1647824,"name":"kusay","country":"kz","lat":48.85,"lon":52.8},{"id":1641862,"name":"ashchikesen","country":"kz","lat":48.7,"lon":53.116667},{"id":1648457,"name":"madaniyat","country":"kz","lat":48.65,"lon":52.666667},{"id":1655374,"name":"zhiskayrat","country":"kz","lat":48.933333,"lon":53.333333},{"id":1651707,"name":"shaygus","country":"kz","lat":48.75,"lon":53.133333},{"id":1641120,"name":"akmurza","country":"kz","lat":48.933333,"lon":52.933333},{"id":1653824,"name":"ushana","country":"kz","lat":49.450833,"lon":52.957222},{"id":1642227,"name":"balabeit","country":"kz","lat":48.85,"lon":53.4},{"id":1646162,"name":"kaysari","country":"kz","lat":49.366667,"lon":52.583333},{"id":1641228,"name":"aktau","country":"kz","lat":48.9,"lon":52.916667},{"id":1642822,"name":"besotar","country":"kz","lat":49.248611,"lon":52.96},{"id":1651783,"name":"sheten","country":"kz","lat":49.283333,"lon":52.8},{"id":1652491,"name":"sulu-kul\u0027","country":"kz","lat":49.416667,"lon":52.666667},{"id":1645905,"name":"karatobe","country":"kz","lat":48.833333,"lon":53.233333},{"id":1645697,"name":"karakol\u0027","country":"kz","lat":48.763056,"lon":52.890556},{"id":1641955,"name":"atinbay","country":"kz","lat":48.983333,"lon":53.366667},{"id":1642077,"name":"aygyrshagyl","country":"kz","lat":49.0,"lon":53.2},{"id":1650798,"name":"raygorodok","country":"kz","lat":48.7,"lon":52.883333},{"id":1655003,"name":"zhanatelek","country":"kz","lat":49.233333,"lon":53.066667},{"id":1652870,"name":"tasshagil","country":"kz","lat":48.867222,"lon":52.973056},{"id":1653775,"name":"urnek","country":"kz","lat":48.983333,"lon":53.333333},{"id":1642936,"name":"birsugur","country":"kz","lat":49.216667,"lon":53.483333},{"id":1646960,"name":"konkha","country":"kz","lat":49.233333,"lon":53.366667},{"id":1653682,"name":"ul\u0027ken-gurt","country":"kz","lat":49.466667,"lon":52.9},{"id":1653225,"name":"tolen","country":"kz","lat":49.4625,"lon":52.6925},{"id":1647561,"name":"kubakol\u0027","country":"kz","lat":48.9,"lon":53.233333}]});