callback({"markets":[{"id":2048840,"name":"kyeburn","country":"nz","lat":-45.15,"lon":170.25},{"id":2048839,"name":"kyeburn diggings","country":"nz","lat":-45.0,"lon":170.283333},{"id":2049169,"name":"morrisons","country":"nz","lat":-45.25,"lon":170.483333},{"id":2048204,"name":"cambrian","country":"nz","lat":-44.9,"lon":169.75},{"id":2049382,"name":"ophir","country":"nz","lat":-45.116667,"lon":169.6},{"id":2050500,"name":"wedderburn","country":"nz","lat":-45.033333,"lon":170.016667},{"id":2050397,"name":"waipiata","country":"nz","lat":-45.183333,"lon":170.166667},{"id":2048838,"name":"kurow","country":"nz","lat":-44.733333,"lon":170.466667},{"id":2049870,"name":"saint bathans","country":"nz","lat":-44.866667,"lon":169.816667},{"id":2048321,"name":"drybread","country":"nz","lat":-44.983333,"lon":169.616667},{"id":2049165,"name":"moonlight","country":"nz","lat":-45.416667,"lon":170.333333},{"id":2049247,"name":"ngapuna","country":"nz","lat":-45.45,"lon":170.166667},{"id":2049457,"name":"oturehua","country":"nz","lat":-45.0,"lon":169.916667},{"id":2048618,"name":"hyde","country":"nz","lat":-45.3,"lon":170.25},{"id":2048874,"name":"lindis pass","country":"nz","lat":-44.7,"lon":169.5},{"id":2048134,"name":"becks","country":"nz","lat":-45.0,"lon":169.733333},{"id":2048163,"name":"blackstone hill","country":"nz","lat":-44.95,"lon":169.916667},{"id":2049444,"name":"otematata","country":"nz","lat":-44.616667,"lon":170.266667},{"id":2049742,"name":"ranfurly","country":"nz","lat":-45.133333,"lon":170.1},{"id":2050572,"name":"wharekuri","country":"nz","lat":-44.7,"lon":170.433333},{"id":2049555,"name":"patearoa","country":"nz","lat":-45.266667,"lon":170.05},{"id":2049397,"name":"orangapai","country":"nz","lat":-45.233333,"lon":170.133333},{"id":2049138,"name":"moa creek","country":"nz","lat":-45.2,"lon":169.65},{"id":2048233,"name":"chatto creek","country":"nz","lat":-45.133333,"lon":169.516667},{"id":2048856,"name":"lauder","country":"nz","lat":-45.05,"lon":169.666667},{"id":2048149,"name":"berwen","country":"nz","lat":-44.533333,"lon":169.866667},{"id":2049621,"name":"poolburn","country":"nz","lat":-45.15,"lon":169.666667},{"id":2048801,"name":"kokonga","country":"nz","lat":-45.216667,"lon":170.25},{"id":2048928,"name":"macraes","country":"nz","lat":-45.383333,"lon":170.433333},{"id":2048405,"name":"gimmerburn","country":"nz","lat":-45.166667,"lon":170.0},{"id":2048620,"name":"ida valley","country":"nz","lat":-45.033333,"lon":169.833333},{"id":2048471,"name":"hakataramea","country":"nz","lat":-44.733333,"lon":170.483333},{"id":2049819,"name":"rock and pillar","country":"nz","lat":-45.4,"lon":170.183333},{"id":2048170,"name":"bog roy","country":"nz","lat":-44.566667,"lon":170.1},{"id":2049067,"name":"matakanui","country":"nz","lat":-45.016667,"lon":169.566667},{"id":2049477,"name":"paerau","country":"nz","lat":-45.416667,"lon":169.95},{"id":2049347,"name":"omakau","country":"nz","lat":-45.083333,"lon":169.6}]});