callback({"markets":[{"id":427041,"name":"bayan bulag","country":"cn","lat":44.233333,"lon":115.95},{"id":455390,"name":"delger sum","country":"cn","lat":43.558333,"lon":115.711389},{"id":629114,"name":"xiritala jiedao","country":"cn","lat":43.938889,"lon":116.070209},{"id":553169,"name":"peitzumiao","country":"cn","lat":43.966667,"lon":116.033333},{"id":498046,"name":"huntiwusu","country":"cn","lat":43.733056,"lon":115.553611},{"id":582022,"name":"shi zhengfu muchang","country":"cn","lat":43.878889,"lon":115.954444}]});