callback({"markets":[{"id":1511471,"name":"giarratana","country":"it","lat":37.05,"lon":14.8},{"id":1507040,"name":"casale modica","country":"it","lat":36.8,"lon":14.983333},{"id":1520819,"name":"savarino","country":"it","lat":36.883333,"lon":14.966667},{"id":1506878,"name":"casa frassino","country":"it","lat":37.2,"lon":14.9},{"id":1508309,"name":"cava d\u0027aliga","country":"it","lat":36.716667,"lon":14.683333},{"id":1507804,"name":"cassibile","country":"it","lat":36.966667,"lon":15.183333},{"id":1513649,"name":"margherito sottano","country":"it","lat":37.383333,"lon":14.616667},{"id":1519889,"name":"san pietro clarenza","country":"it","lat":37.1,"lon":14.5},{"id":1504292,"name":"augusta","country":"it","lat":37.216667,"lon":15.216667},{"id":1515966,"name":"palagonia","country":"it","lat":37.316667,"lon":14.75},{"id":1507365,"name":"casa schifazzo","country":"it","lat":37.333333,"lon":14.933333},{"id":1516501,"name":"petracca","country":"it","lat":36.983333,"lon":15.033333},{"id":1520860,"name":"scala greca","country":"it","lat":37.116667,"lon":15.266667},{"id":1521867,"name":"syrakus","country":"it","lat":37.066667,"lon":15.3},{"id":1522088,"name":"terra nobile","country":"it","lat":36.683333,"lon":15.133333},{"id":1511015,"name":"francofonte","country":"it","lat":37.233333,"lon":14.883333},{"id":1516114,"name":"pantalica","country":"it","lat":37.133333,"lon":15.016667},{"id":1520954,"name":"scicli","country":"it","lat":36.783333,"lon":14.7},{"id":1523862,"name":"vizzini","country":"it","lat":37.166667,"lon":14.75},{"id":1505186,"name":"bonivini","country":"it","lat":36.766667,"lon":15.016667},{"id":1519216,"name":"san cusumano","country":"it","lat":37.183333,"lon":15.166667},{"id":1506601,"name":"carlentini","country":"it","lat":37.266667,"lon":15.016667},{"id":1509924,"name":"cuccumella","country":"it","lat":37.366667,"lon":14.933333},{"id":1506853,"name":"casa fassio di sopra","country":"it","lat":36.95,"lon":15.133333},{"id":1518718,"name":"rosolini","country":"it","lat":36.816667,"lon":14.95},{"id":1513936,"name":"masseria serravalle","country":"it","lat":37.35,"lon":14.8},{"id":1519193,"name":"san corrado di fuori","country":"it","lat":36.933333,"lon":15.066667},{"id":1505303,"name":"borgo lupo","country":"it","lat":37.333333,"lon":14.616667},{"id":1521002,"name":"scuola","country":"it","lat":36.866667,"lon":14.633333},{"id":1506922,"name":"casa la ciura","country":"it","lat":36.75,"lon":14.983333},{"id":1511688,"name":"grammichele","country":"it","lat":37.216667,"lon":14.633333},{"id":1512902,"name":"lido di noto","country":"it","lat":36.85,"lon":15.116667},{"id":1506917,"name":"casa iroldo","country":"it","lat":37.3,"lon":14.9},{"id":1521401,"name":"solarino","country":"it","lat":37.1,"lon":15.116667},{"id":1506838,"name":"casa di natale","country":"it","lat":36.716667,"lon":15.0},{"id":1505999,"name":"camemi","country":"it","lat":36.816667,"lon":14.566667},{"id":1520190,"name":"santa lucia","country":"it","lat":37.083333,"lon":15.266667},{"id":1523726,"name":"villa targia","country":"it","lat":36.983333,"lon":15.233333},{"id":1511396,"name":"gerbini","country":"it","lat":37.466667,"lon":14.833333},{"id":1523717,"name":"villasmundo","country":"it","lat":37.25,"lon":15.083333},{"id":1522139,"name":"testa dell\u0027acqua","country":"it","lat":36.966667,"lon":14.966667},{"id":1512269,"name":"la banca","country":"it","lat":36.8,"lon":15.1},{"id":1523970,"name":"zappulla","country":"it","lat":36.766667,"lon":14.8},{"id":1514930,"name":"monterosso almo","country":"it","lat":37.083333,"lon":14.766667},{"id":1506730,"name":"casa benarifi","country":"it","lat":36.733333,"lon":14.8},{"id":1504933,"name":"bertuccia","country":"it","lat":37.366667,"lon":15.05},{"id":1518276,"name":"riola","country":"it","lat":36.766667,"lon":14.733333},{"id":1507947,"name":"castellana","country":"it","lat":37.35,"lon":14.883333},{"id":1504852,"name":"belmontino soprano","country":"it","lat":37.416667,"lon":14.55},{"id":1513244,"name":"maccari","country":"it","lat":36.766667,"lon":15.066667},{"id":1505718,"name":"burgio","country":"it","lat":36.733333,"lon":15.033333},{"id":1513931,"name":"masseria san biagio","country":"it","lat":37.25,"lon":14.816667},{"id":1507507,"name":"case casulle","country":"it","lat":37.2,"lon":14.716667},{"id":1520098,"name":"santa croce camerina","country":"it","lat":36.833333,"lon":14.516667},{"id":1514261,"name":"militello in val di catania","country":"it","lat":37.266667,"lon":14.8},{"id":1507240,"name":"casa parisi","country":"it","lat":37.45,"lon":14.7},{"id":1507677,"name":"case san leo","country":"it","lat":37.25,"lon":14.85},{"id":1514270,"name":"mineo","country":"it","lat":37.266667,"lon":14.7},{"id":1507193,"name":"casa modica","country":"it","lat":36.783333,"lon":15.05},{"id":1520243,"name":"santa maria di gesu","country":"it","lat":37.233333,"lon":14.516667},{"id":1506662,"name":"carpinteri","country":"it","lat":36.983333,"lon":14.966667},{"id":1512291,"name":"la callura","country":"it","lat":37.366667,"lon":14.816667},{"id":1517614,"name":"pozzallo","country":"it","lat":36.716667,"lon":14.85},{"id":1506332,"name":"cantera","country":"it","lat":37.183333,"lon":15.2},{"id":1506271,"name":"canicattini","country":"it","lat":37.033333,"lon":15.066667},{"id":1514361,"name":"modica","country":"it","lat":36.866667,"lon":14.766667},{"id":1518009,"name":"raddusa","country":"it","lat":37.466667,"lon":14.533333},{"id":1509437,"name":"comiso","country":"it","lat":36.933333,"lon":14.6},{"id":1517629,"name":"pozzo cocuzza","country":"it","lat":37.133333,"lon":14.733333},{"id":1505852,"name":"calabernardo","country":"it","lat":36.866667,"lon":15.133333},{"id":1513811,"name":"marzamemi","country":"it","lat":36.733333,"lon":15.1},{"id":1513909,"name":"masseria fovate","country":"it","lat":37.433333,"lon":14.633333},{"id":1515944,"name":"pagliarazzi","country":"it","lat":36.9,"lon":14.916667},{"id":1515891,"name":"pachino","country":"it","lat":36.716667,"lon":15.083333},{"id":1522814,"name":"vaccaro","country":"it","lat":37.183333,"lon":14.516667},{"id":1523450,"name":"villa barco","country":"it","lat":36.95,"lon":14.8},{"id":1518030,"name":"ramacca","country":"it","lat":37.383333,"lon":14.7},{"id":1510712,"name":"floridia","country":"it","lat":37.083333,"lon":15.15},{"id":1521551,"name":"spaccaforno","country":"it","lat":36.783333,"lon":14.916667},{"id":1513937,"name":"masseria sollima","country":"it","lat":37.433333,"lon":14.516667},{"id":1520165,"name":"sant\u0027alfano","country":"it","lat":37.05,"lon":15.05},{"id":1505618,"name":"brucoli","country":"it","lat":37.283333,"lon":15.183333},{"id":1522604,"name":"tresauro","country":"it","lat":36.916667,"lon":14.633333},{"id":1507288,"name":"casa raccalta","country":"it","lat":37.133333,"lon":14.9},{"id":1512783,"name":"lentini","country":"it","lat":37.283333,"lon":15.0},{"id":1505733,"name":"buscemi","country":"it","lat":37.083333,"lon":14.883333},{"id":1506708,"name":"casa alfieri","country":"it","lat":37.083333,"lon":14.55},{"id":1520436,"name":"santa panagia","country":"it","lat":37.1,"lon":15.266667},{"id":1511564,"name":"giumarra","country":"it","lat":37.483333,"lon":14.65},{"id":1510461,"name":"fattoria feudonuovo","country":"it","lat":37.416667,"lon":14.5},{"id":1521938,"name":"targia","country":"it","lat":37.1,"lon":15.233333},{"id":1513703,"name":"marina di ragusa","country":"it","lat":36.783333,"lon":14.55},{"id":1510149,"name":"donnafugata","country":"it","lat":36.883333,"lon":14.566667},{"id":1515400,"name":"nicchiara","country":"it","lat":37.266667,"lon":14.75},{"id":1506813,"name":"casa criscione","country":"it","lat":36.983333,"lon":14.533333},{"id":1523843,"name":"vittoria","country":"it","lat":36.95,"lon":14.533333},{"id":1520456,"name":"santa rosalia","country":"it","lat":36.966667,"lon":14.75},{"id":1508767,"name":"chiaramonte gulfi","country":"it","lat":37.033333,"lon":14.7},{"id":1515485,"name":"noto","country":"it","lat":36.883333,"lon":15.066667},{"id":1510530,"name":"ferla","country":"it","lat":37.116667,"lon":14.933333},{"id":1521511,"name":"sortino","country":"it","lat":37.15,"lon":15.033333},{"id":1518023,"name":"ragusa","country":"it","lat":36.916667,"lon":14.733333},{"id":1513668,"name":"marina d\u0027avola","country":"it","lat":36.9,"lon":15.133333},{"id":1519045,"name":"sampieri","country":"it","lat":36.716667,"lon":14.733333},{"id":1508037,"name":"castelluccio","country":"it","lat":36.95,"lon":14.933333},{"id":1518245,"name":"rigolizia","country":"it","lat":36.983333,"lon":14.933333},{"id":1515993,"name":"palazzolo acreide","country":"it","lat":37.066667,"lon":14.9},{"id":1507345,"name":"casa san paolo","country":"it","lat":36.833333,"lon":15.033333},{"id":1506823,"name":"casa della contessa","country":"it","lat":36.983333,"lon":15.116667},{"id":1504867,"name":"belvedere di siracusa","country":"it","lat":37.1,"lon":15.216667},{"id":1516312,"name":"pedagaggi","country":"it","lat":37.2,"lon":14.95},{"id":1514065,"name":"mellili","country":"it","lat":37.183333,"lon":15.116667},{"id":1513926,"name":"masseria reitano","country":"it","lat":37.4,"lon":15.066667},{"id":1510150,"name":"donnalucata","country":"it","lat":36.75,"lon":14.633333},{"id":1520987,"name":"scordia","country":"it","lat":37.3,"lon":14.85},{"id":1515417,"name":"niscima","country":"it","lat":37.283333,"lon":14.65},{"id":1509951,"name":"cuppodia","country":"it","lat":37.216667,"lon":14.983333},{"id":1507541,"name":"case frasca","country":"it","lat":37.316667,"lon":14.516667},{"id":1507577,"name":"case marineo","country":"it","lat":37.216667,"lon":14.683333},{"id":1513900,"name":"masseria comunelli","country":"it","lat":37.45,"lon":14.683333},{"id":1517830,"name":"priolo gargallo","country":"it","lat":37.15,"lon":15.183333},{"id":1507073,"name":"casale savarino","country":"it","lat":36.816667,"lon":14.983333},{"id":1507405,"name":"casa tommasi","country":"it","lat":36.883333,"lon":14.516667},{"id":1504556,"name":"balata di modica","country":"it","lat":36.966667,"lon":14.8},{"id":1506826,"name":"casa della sarculla","country":"it","lat":36.933333,"lon":14.966667},{"id":1512890,"name":"licodia eubea","country":"it","lat":37.15,"lon":14.7},{"id":1505661,"name":"buccheri","country":"it","lat":37.133333,"lon":14.85}]});