callback({"markets":[{"id":2024659,"name":"san esteban","country":"ni","lat":12.1333333,"lon":-85.4666667},{"id":2022583,"name":"cerritos","country":"ni","lat":11.6833333,"lon":-84.95},{"id":2023854,"name":"las nocas","country":"ni","lat":11.8666667,"lon":-85.2666667},{"id":2022346,"name":"bartola","country":"ni","lat":12.1,"lon":-85.2166667},{"id":2024944,"name":"santa julia","country":"ni","lat":12.3833333,"lon":-84.8166667},{"id":2022361,"name":"betulia","country":"ni","lat":12.3,"lon":-85.1833333},{"id":2024466,"name":"puertas de paris","country":"ni","lat":12.1333333,"lon":-85.1666667},{"id":2022293,"name":"auxiliadora","country":"ni","lat":12.0,"lon":-85.3666667},{"id":2023716,"name":"la pila del guasimo","country":"ni","lat":11.85,"lon":-85.2833333},{"id":2023029,"name":"el naranjal","country":"ni","lat":12.1833333,"lon":-85.25},{"id":2024590,"name":"salto grande","country":"ni","lat":12.0666667,"lon":-84.6},{"id":2024791,"name":"san manuel","country":"ni","lat":11.9,"lon":-85.4333333},{"id":2022766,"name":"el acetuna","country":"ni","lat":11.8833333,"lon":-85.3666667},{"id":2024512,"name":"quimichapa","country":"ni","lat":11.8166667,"lon":-84.9333333},{"id":2023612,"name":"la fruita de pan","country":"ni","lat":12.2833333,"lon":-85.0166667},{"id":2023604,"name":"la estrella","country":"ni","lat":12.05,"lon":-84.6666667},{"id":2022428,"name":"bulun","country":"ni","lat":12.2,"lon":-84.9},{"id":2024609,"name":"san antonio","country":"ni","lat":12.4833333,"lon":-85.15},{"id":2022597,"name":"chilamate","country":"ni","lat":12.0,"lon":-84.7333333},{"id":2024662,"name":"san felipe","country":"ni","lat":11.85,"lon":-85.1666667},{"id":2023736,"name":"la puerta","country":"ni","lat":12.1833333,"lon":-85.3166667},{"id":2023525,"name":"la calera","country":"ni","lat":11.9333333,"lon":-85.2833333},{"id":2023885,"name":"las puertas","country":"ni","lat":11.8333333,"lon":-85.25},{"id":2024449,"name":"poza redonda","country":"ni","lat":12.4833333,"lon":-84.5333333},{"id":2023685,"name":"la montanita","country":"ni","lat":12.25,"lon":-85.0666667},{"id":2024084,"name":"los tacanistes","country":"ni","lat":11.8666667,"lon":-84.5166667},{"id":2023975,"name":"llano grande","country":"ni","lat":12.2166667,"lon":-85.4166667},{"id":2022790,"name":"el ayote","country":"ni","lat":12.1833333,"lon":-85.2833333},{"id":2022939,"name":"el espavel","country":"ni","lat":12.0,"lon":-84.6666667},{"id":2024327,"name":"palmira","country":"ni","lat":12.4,"lon":-85.0166667},{"id":2022947,"name":"el gallo","country":"ni","lat":11.9333333,"lon":-85.4166667},{"id":2023695,"name":"la palma","country":"ni","lat":12.0333333,"lon":-85.2666667},{"id":2024354,"name":"paso de lajas","country":"ni","lat":12.1333333,"lon":-85.35},{"id":2024442,"name":"potrero grande","country":"ni","lat":11.9833333,"lon":-85.4333333},{"id":2024227,"name":"muelle de los bueyes","country":"ni","lat":12.0666667,"lon":-84.5333333},{"id":2024039,"name":"los limones","country":"ni","lat":12.2833333,"lon":-84.5333333},{"id":2023340,"name":"hamacas","country":"ni","lat":12.0166667,"lon":-84.95},{"id":2023017,"name":"el matadero","country":"ni","lat":11.9,"lon":-85.25},{"id":2023290,"name":"gregorio","country":"ni","lat":12.2833333,"lon":-85.0833333},{"id":2024815,"name":"san nicolas","country":"ni","lat":12.35,"lon":-84.55},{"id":2024918,"name":"santa fe","country":"ni","lat":12.35,"lon":-85.25},{"id":2023818,"name":"las lajitas","country":"ni","lat":12.1333333,"lon":-85.4166667},{"id":2023026,"name":"el morrito","country":"ni","lat":11.6166667,"lon":-85.0833333},{"id":2024046,"name":"los millones","country":"ni","lat":11.9833333,"lon":-84.8166667},{"id":2024783,"name":"san lucas","country":"ni","lat":11.9666667,"lon":-85.1166667},{"id":2025007,"name":"santa tomas","country":"ni","lat":12.0666667,"lon":-85.0833333},{"id":2024958,"name":"santa maria","country":"ni","lat":11.7666667,"lon":-85.1833333},{"id":2024513,"name":"quinama","country":"ni","lat":12.0,"lon":-84.9333333},{"id":2022890,"name":"el coquital","country":"ni","lat":11.9333333,"lon":-85.2},{"id":2024964,"name":"santa marta","country":"ni","lat":11.8,"lon":-85.1833333},{"id":2024489,"name":"punta de suela","country":"ni","lat":11.9666667,"lon":-85.1833333},{"id":2024337,"name":"palo verde","country":"ni","lat":11.5166667,"lon":-84.85},{"id":2022620,"name":"coapa","country":"ni","lat":12.2666667,"lon":-85.3833333},{"id":2023024,"name":"el moran","country":"ni","lat":11.9666667,"lon":-85.4833333},{"id":2023510,"name":"la batea","country":"ni","lat":12.05,"lon":-84.6166667},{"id":2024035,"name":"los lajos","country":"ni","lat":12.4666667,"lon":-85.4333333},{"id":2024974,"name":"santa rita","country":"ni","lat":12.2333333,"lon":-85.1166667},{"id":2024905,"name":"santa domingo","country":"ni","lat":12.2666667,"lon":-85.0833333},{"id":2022821,"name":"el cacao","country":"ni","lat":12.0,"lon":-84.7},{"id":2024612,"name":"san antonio","country":"ni","lat":11.95,"lon":-85.2166667},{"id":2023439,"name":"kamusasca","country":"ni","lat":12.2166667,"lon":-84.75},{"id":2024712,"name":"san jeronimo","country":"ni","lat":11.85,"lon":-85.2166667},{"id":2022878,"name":"el cilindro","country":"ni","lat":12.3,"lon":-85.0833333},{"id":2025212,"name":"tuncar","country":"ni","lat":12.4166667,"lon":-85.4333333},{"id":2023559,"name":"la cicaya","country":"ni","lat":11.9833333,"lon":-85.4666667},{"id":2023813,"name":"las labores","country":"ni","lat":12.1666667,"lon":-85.0666667},{"id":2023396,"name":"jacote","country":"ni","lat":12.25,"lon":-85.4666667},{"id":2022816,"name":"el buey negro","country":"ni","lat":11.9333333,"lon":-85.3333333},{"id":2023644,"name":"la horqueta","country":"ni","lat":11.7333333,"lon":-85.1833333},{"id":2023069,"name":"el paraiso","country":"ni","lat":12.15,"lon":-84.65},{"id":687521,"name":"rio negro","country":"cr","lat":11.883333,"lon":-84.916667},{"id":2023622,"name":"la gorra","country":"ni","lat":12.0166667,"lon":-84.65},{"id":2024835,"name":"san pedro","country":"ni","lat":11.9166667,"lon":-85.35},{"id":2023946,"name":"libertad","country":"ni","lat":12.2166667,"lon":-85.1666667},{"id":2024754,"name":"san juan de dios","country":"ni","lat":11.8,"lon":-85.1666667},{"id":2024048,"name":"los morenos","country":"ni","lat":12.1666667,"lon":-84.9833333},{"id":2022213,"name":"aguas calientes","country":"ni","lat":12.15,"lon":-85.3833333},{"id":2024095,"name":"lovago","country":"ni","lat":12.0,"lon":-85.1666667},{"id":2024822,"name":"san pancho","country":"ni","lat":11.8,"lon":-85.2333333},{"id":2022971,"name":"el hatillo","country":"ni","lat":11.95,"lon":-85.3666667},{"id":2024415,"name":"planta electrica","country":"ni","lat":12.4,"lon":-84.8833333},{"id":2022222,"name":"almendro","country":"ni","lat":11.6833333,"lon":-84.7},{"id":2023239,"name":"escandalo","country":"ni","lat":12.2833333,"lon":-85.1166667},{"id":2025022,"name":"san ubaldo","country":"ni","lat":11.85,"lon":-85.3333333},{"id":2023935,"name":"la yunga","country":"ni","lat":11.8666667,"lon":-84.8166667},{"id":2024231,"name":"muhan","country":"ni","lat":11.9833333,"lon":-84.8666667},{"id":2023609,"name":"la flor","country":"ni","lat":11.5666667,"lon":-85.0333333},{"id":2022198,"name":"acoyapa","country":"ni","lat":11.9666667,"lon":-85.1666667},{"id":2023102,"name":"el porvenir","country":"ni","lat":11.8833333,"lon":-85.1833333},{"id":2023146,"name":"el salto","country":"ni","lat":12.1166667,"lon":-85.3833333},{"id":2023620,"name":"la gateada","country":"ni","lat":12.0,"lon":-84.7833333},{"id":2024830,"name":"san pedro de lovago","country":"ni","lat":12.1333333,"lon":-85.1166667},{"id":2023430,"name":"juigalpa","country":"ni","lat":12.0833333,"lon":-85.4},{"id":2023117,"name":"el rayo","country":"ni","lat":11.9833333,"lon":-85.35},{"id":2022475,"name":"canas gordas","country":"ni","lat":11.8833333,"lon":-85.4},{"id":2024743,"name":"san jose","country":"ni","lat":11.8833333,"lon":-85.3},{"id":2023918,"name":"la vainilla","country":"ni","lat":12.0166667,"lon":-85.25},{"id":2024786,"name":"san luis","country":"ni","lat":11.9833333,"lon":-85.2},{"id":2023883,"name":"las pozas","country":"ni","lat":11.9833333,"lon":-85.3},{"id":2024004,"name":"los bueyes","country":"ni","lat":11.85,"lon":-85.15},{"id":2022684,"name":"corozo","country":"ni","lat":12.1,"lon":-84.9},{"id":2025320,"name":"villa somoza","country":"ni","lat":12.05,"lon":-84.9833333},{"id":2023522,"name":"la calamidad","country":"ni","lat":12.4666667,"lon":-85.3333333},{"id":2022875,"name":"el chile","country":"ni","lat":11.9666667,"lon":-84.6166667},{"id":2023199,"name":"el tule","country":"ni","lat":12.2333333,"lon":-85.45},{"id":2024514,"name":"quintana","country":"ni","lat":11.9666667,"lon":-85.3333333},{"id":2024016,"name":"los cerritos","country":"ni","lat":11.7666667,"lon":-85.25}]});