callback({"markets":[{"id":1174988,"name":"dusundanau","country":"id","lat":-1.616667,"lon":102.2},{"id":1231703,"name":"muaragobah","country":"id","lat":-1.933333,"lon":102.033333},{"id":1262550,"name":"rantaudukuh","country":"id","lat":-1.616667,"lon":101.983333},{"id":1259001,"name":"pulaudaro","country":"id","lat":-1.833333,"lon":102.3},{"id":1251818,"name":"penetay","country":"id","lat":-2.133333,"lon":101.783333},{"id":1255556,"name":"poelaurengas","country":"id","lat":-2.1,"lon":102.216667},{"id":1262552,"name":"rantaugadang","country":"id","lat":-2.266667,"lon":102.466667},{"id":1199768,"name":"kasiro","country":"id","lat":-2.466667,"lon":102.316667},{"id":1231746,"name":"muaraklulup","country":"id","lat":-2.35,"lon":102.033333},{"id":1230232,"name":"moearasian","country":"id","lat":-2.3,"lon":102.1},{"id":1190541,"name":"jujun","country":"id","lat":-2.183333,"lon":101.5},{"id":1238528,"name":"oelakmakam","country":"id","lat":-1.766667,"lon":102.4},{"id":1185548,"name":"hulusenemat","country":"id","lat":-1.733333,"lon":101.933333},{"id":1231751,"name":"muarakumang","country":"id","lat":-1.583333,"lon":102.266667},{"id":1262581,"name":"rantaupandan","country":"id","lat":-2.216667,"lon":101.566667},{"id":1287012,"name":"tanahrenah","country":"id","lat":-2.116667,"lon":102.033333},{"id":1262514,"name":"rantaualai","country":"id","lat":-2.083333,"lon":102.2},{"id":1230211,"name":"moearapemoeat","country":"id","lat":-2.433333,"lon":102.2},{"id":1140746,"name":"bangko","country":"id","lat":-2.083333,"lon":102.283333},{"id":1221873,"name":"lubuktjempedak","country":"id","lat":-2.1,"lon":101.933333},{"id":1292126,"name":"temiaj","country":"id","lat":-2.183333,"lon":101.633333},{"id":1217874,"name":"lempahung","country":"id","lat":-2.266667,"lon":101.6},{"id":1251490,"name":"pemunyin","country":"id","lat":-1.616667,"lon":101.666667},{"id":1175279,"name":"dusunpelumpat","country":"id","lat":-1.933333,"lon":102.0},{"id":1207436,"name":"klumpang","country":"id","lat":-2.116667,"lon":102.0},{"id":1283872,"name":"sungaiulak","country":"id","lat":-2.033333,"lon":102.283333},{"id":1209529,"name":"kotorayo","country":"id","lat":-1.8,"lon":102.25},{"id":1195579,"name":"kampungbukit","country":"id","lat":-2.15,"lon":101.9},{"id":1231876,"name":"muarasungaipinang","country":"id","lat":-2.416667,"lon":102.266667},{"id":1133168,"name":"airliki","country":"id","lat":-1.95,"lon":101.766667},{"id":1172721,"name":"doesoenbaroenalo","country":"id","lat":-2.016667,"lon":102.083333},{"id":1262606,"name":"rantaupanjang","country":"id","lat":-1.85,"lon":102.316667},{"id":1135972,"name":"aurbeduri","country":"id","lat":-2.016667,"lon":102.2},{"id":1209526,"name":"kotorami","country":"id","lat":-2.366667,"lon":101.95},{"id":1264176,"name":"renahpisanglidi","country":"id","lat":-2.4,"lon":102.266667},{"id":1287595,"name":"tandjungdalem","country":"id","lat":-2.416667,"lon":102.016667},{"id":1172720,"name":"doesoenbaroe","country":"id","lat":-1.5,"lon":101.733333},{"id":1231719,"name":"muarajernih","country":"id","lat":-1.95,"lon":102.15},{"id":1220464,"name":"loeboekgaoeng","country":"id","lat":-2.066667,"lon":102.216667},{"id":1182747,"name":"guguk","country":"id","lat":-2.166667,"lon":102.05},{"id":1259122,"name":"pulausangkar","country":"id","lat":-2.166667,"lon":101.583333},{"id":1172738,"name":"doesoenrantaukelajang","country":"id","lat":-1.733333,"lon":102.133333},{"id":1174443,"name":"durianrambun","country":"id","lat":-2.3,"lon":101.95},{"id":1146910,"name":"bedaro","country":"id","lat":-1.55,"lon":102.0},{"id":1219687,"name":"limboer","country":"id","lat":-2.05,"lon":102.433333},{"id":1287717,"name":"tandjungputus","country":"id","lat":-1.95,"lon":102.1},{"id":1264177,"name":"renahsoengaiipoeh","country":"id","lat":-1.566667,"lon":101.666667},{"id":1221701,"name":"lubukberingin","country":"id","lat":-2.233333,"lon":102.033333},{"id":1264173,"name":"renahkemoemoe","country":"id","lat":-2.433333,"lon":101.65},{"id":1185299,"name":"hoeloeboengo","country":"id","lat":-1.666667,"lon":101.75},{"id":1147642,"name":"belukarpandjang","country":"id","lat":-1.866667,"lon":102.033333},{"id":1262575,"name":"rantaulimaukapas","country":"id","lat":-2.3,"lon":102.316667},{"id":1220896,"name":"lologedang","country":"id","lat":-2.233333,"lon":101.533333},{"id":1172751,"name":"doesoentoeo","country":"id","lat":-2.366667,"lon":101.9},{"id":1275533,"name":"sikantjing","country":"id","lat":-2.25,"lon":102.183333},{"id":1283848,"name":"sungaitelang","country":"id","lat":-1.7,"lon":101.783333},{"id":1147674,"name":"belurpandjang","country":"id","lat":-1.8,"lon":102.383333},{"id":1221799,"name":"lubukmengkuang","country":"id","lat":-1.5,"lon":101.766667},{"id":1268159,"name":"sanggaragung","country":"id","lat":-2.133333,"lon":101.516667},{"id":1271352,"name":"seling","country":"id","lat":-1.85,"lon":102.25},{"id":1221708,"name":"lubukbirah","country":"id","lat":-2.266667,"lon":102.0},{"id":1155643,"name":"bukitluntjung","country":"id","lat":-1.733333,"lon":102.2},{"id":1197606,"name":"karangberahi","country":"id","lat":-2.05,"lon":102.466667},{"id":1221836,"name":"lubukresam","country":"id","lat":-1.85,"lon":101.933333},{"id":1175237,"name":"dusungenting","country":"id","lat":-1.95,"lon":101.75},{"id":1231634,"name":"muarabantan","country":"id","lat":-2.116667,"lon":102.083333},{"id":1272529,"name":"senemat","country":"id","lat":-1.633333,"lon":102.15},{"id":1279211,"name":"soengei manau","country":"id","lat":-2.133333,"lon":101.983333},{"id":1221703,"name":"lubuk-besar","country":"id","lat":-1.5,"lon":101.583333},{"id":1217942,"name":"lempur-tengah","country":"id","lat":-2.25,"lon":101.533333},{"id":1288887,"name":"tanjungputih","country":"id","lat":-2.4,"lon":101.85},{"id":1197145,"name":"kapuk","country":"id","lat":-1.933333,"lon":102.233333},{"id":1195133,"name":"kampoengbaroe","country":"id","lat":-1.533333,"lon":102.3},{"id":1146808,"name":"bebeko","country":"id","lat":-1.5,"lon":102.2},{"id":1231651,"name":"muarabuat","country":"id","lat":-1.666667,"lon":101.866667},{"id":1196538,"name":"kandang","country":"id","lat":-1.816667,"lon":102.233333},{"id":1273301,"name":"serikbelarik","country":"id","lat":-1.9,"lon":101.733333},{"id":1235236,"name":"ngaol","country":"id","lat":-1.95,"lon":101.866667},{"id":1230253,"name":"moearatebo","country":"id","lat":-1.5,"lon":102.433333},{"id":1259034,"name":"pulaukrakap","country":"id","lat":-1.5,"lon":101.866667}]});