callback({"markets":[{"id":2478216,"name":"obdorsr","country":"ru","lat":66.53,"lon":66.601944},{"id":2479418,"name":"oktyabrskiy","country":"ru","lat":66.695556,"lon":66.568056},{"id":2558757,"name":"vylposya","country":"ru","lat":66.645556,"lon":67.265278},{"id":2565928,"name":"yushlekh","country":"ru","lat":66.526944,"lon":67.048333},{"id":2402129,"name":"gornoknyazevsk","country":"ru","lat":66.590556,"lon":66.863611},{"id":2419980,"name":"kho-saim","country":"ru","lat":66.597222,"lon":67.286111},{"id":2412271,"name":"kamennyy","country":"ru","lat":66.516667,"lon":67.216667}]});