callback({"markets":[{"id":3137450,"name":"chikowula","country":"zm","lat":-13.4,"lon":30.3333333},{"id":3140576,"name":"kapidigiza","country":"zm","lat":-12.7166667,"lon":30.0166667},{"id":3138849,"name":"fise chisenga","country":"zm","lat":-13.4333333,"lon":30.2666667},{"id":3149039,"name":"stephan katubwa","country":"zm","lat":-12.75,"lon":30.3166667},{"id":3138505,"name":"chiwele","country":"zm","lat":-12.7166667,"lon":30.4666667},{"id":3146110,"name":"nandolesha","country":"zm","lat":-12.7333333,"lon":30.4166667},{"id":3147538,"name":"sande mulungwe","country":"zm","lat":-12.8833333,"lon":30.3166667},{"id":3138818,"name":"esau mwape","country":"zm","lat":-12.5666667,"lon":30.3833333},{"id":3139275,"name":"julai mwape","country":"zm","lat":-12.9833333,"lon":30.3666667},{"id":3143169,"name":"matebele","country":"zm","lat":-12.9666667,"lon":29.9833333},{"id":3139252,"name":"joni telesha","country":"zm","lat":-12.5666667,"lon":30.4},{"id":3141651,"name":"landani chimukumbi","country":"zm","lat":-12.7666667,"lon":30.4166667},{"id":3138237,"name":"chisebwa","country":"zm","lat":-13.2166667,"lon":29.9166667},{"id":3136676,"name":"anueli luawa","country":"zm","lat":-12.9333333,"lon":30.4333333},{"id":3146920,"name":"oka chabala","country":"zm","lat":-12.8666667,"lon":30.3666667},{"id":3146385,"name":"ngulube","country":"zm","lat":-13.05,"lon":30.0333333},{"id":3137240,"name":"chibuye kashishi","country":"zm","lat":-12.95,"lon":30.1666667},{"id":3145980,"name":"namambwe kandu","country":"zm","lat":-12.5333333,"lon":30.4},{"id":3166398,"name":"mutatu","country":"zr","lat":-13.1333333,"lon":29.75},{"id":3145844,"name":"nacha tioka","country":"zm","lat":-12.9833333,"lon":30.4},{"id":3137430,"name":"chikonika","country":"zm","lat":-12.5333333,"lon":30.1},{"id":3138788,"name":"elimya malikebo","country":"zm","lat":-13.0,"lon":30.45},{"id":3144099,"name":"muchinda","country":"zm","lat":-12.9833333,"lon":30.1833333},{"id":3149222,"name":"timeo lyambwesha","country":"zm","lat":-12.9666667,"lon":30.3833333},{"id":3138932,"name":"goliati tabanya","country":"zm","lat":-12.7,"lon":30.3833333},{"id":3147822,"name":"shanga","country":"zm","lat":-12.9833333,"lon":29.85},{"id":3143586,"name":"miselo luanshika","country":"zm","lat":-12.8,"lon":30.45},{"id":3168483,"name":"pensulu","country":"zr","lat":-12.5333333,"lon":29.5333333},{"id":3149030,"name":"spaita lukaki","country":"zm","lat":-13.4666667,"lon":30.3},{"id":3140055,"name":"kamena tayali","country":"zm","lat":-13.4666667,"lon":30.4},{"id":3139759,"name":"kaliaba shamboko","country":"zm","lat":-12.85,"lon":30.4},{"id":3139255,"name":"jose mwape","country":"zm","lat":-12.9666667,"lon":30.4333333},{"id":3143505,"name":"meselofunga","country":"zm","lat":-13.0166667,"lon":30.4},{"id":3141553,"name":"kunda mushili","country":"zm","lat":-12.6833333,"lon":30.0166667},{"id":3137058,"name":"chapalabwi","country":"zm","lat":-12.9333333,"lon":29.9833333},{"id":3149532,"name":"zakeyo","country":"zm","lat":-13.4333333,"lon":30.1},{"id":3141194,"name":"kawamba camp","country":"zm","lat":-13.05,"lon":30.2166667},{"id":3149437,"name":"wingie","country":"zm","lat":-12.9333333,"lon":29.9},{"id":367982,"name":"mukoshia","country":"cd","lat":-12.733333,"lon":29.583333},{"id":3137242,"name":"chibuye lisandi","country":"zm","lat":-12.8666667,"lon":30.2833333},{"id":3159789,"name":"kimeko","country":"zr","lat":-12.5666667,"lon":29.6333333},{"id":3147656,"name":"sekayo","country":"zm","lat":-13.0166667,"lon":30.3833333},{"id":3160367,"name":"kipushia","country":"zr","lat":-12.9666667,"lon":29.5},{"id":3146374,"name":"ngosa muchinka","country":"zm","lat":-12.8666667,"lon":30.4666667},{"id":3145552,"name":"mwandu","country":"zm","lat":-12.8,"lon":30.35},{"id":3139146,"name":"james machisa","country":"zm","lat":-12.55,"lon":30.4833333},{"id":3146138,"name":"nanpeleo mambwe","country":"zm","lat":-12.8333333,"lon":30.4333333},{"id":3143572,"name":"minko","country":"zm","lat":-13.1,"lon":29.8166667},{"id":3141121,"name":"katuwaula","country":"zm","lat":-12.5166667,"lon":30.4166667},{"id":3137315,"name":"chifutwilo","country":"zm","lat":-12.75,"lon":30.05},{"id":3149125,"name":"tambala","country":"zm","lat":-12.8833333,"lon":29.9166667},{"id":3141456,"name":"komeshia","country":"zm","lat":-13.2,"lon":29.9166667},{"id":364975,"name":"lumbesa","country":"cd","lat":-12.633333,"lon":29.55},{"id":3140228,"name":"kanchule senga lumbwe","country":"zm","lat":-12.7333333,"lon":30.3166667},{"id":3141650,"name":"landa","country":"zm","lat":-12.85,"lon":29.8333333},{"id":3149474,"name":"yatoula","country":"zm","lat":-13.0166667,"lon":29.85},{"id":3140253,"name":"kandu mubwela","country":"zm","lat":-12.9,"lon":30.4},{"id":3142465,"name":"mabalika","country":"zm","lat":-13.4833333,"lon":30.1166667},{"id":3145902,"name":"nakosa","country":"zm","lat":-13.3833333,"lon":30.3666667},{"id":3138816,"name":"esau mofia","country":"zm","lat":-12.9166667,"lon":30.4166667},{"id":3142958,"name":"manjolo","country":"zm","lat":-13.25,"lon":30.1},{"id":3138786,"name":"egesi chimanisha","country":"zm","lat":-12.85,"lon":30.35},{"id":3142340,"name":"lupiya","country":"zm","lat":-13.0333333,"lon":30.1333333},{"id":3145110,"name":"mutale","country":"zm","lat":-12.8666667,"lon":30.1166667},{"id":3137245,"name":"chibuye mwando","country":"zm","lat":-12.8666667,"lon":30.2666667},{"id":3149555,"name":"zeblon kanche","country":"zm","lat":-12.9666667,"lon":30.4833333},{"id":3140774,"name":"kaseba chibundama","country":"zm","lat":-12.6666667,"lon":30.3833333},{"id":3139787,"name":"kalilike","country":"zm","lat":-13.0,"lon":29.8833333},{"id":3144787,"name":"munguoila","country":"zm","lat":-13.15,"lon":29.9166667},{"id":3139308,"name":"kabamba","country":"zm","lat":-13.1833333,"lon":30.3666667},{"id":3138730,"name":"dauti mumba","country":"zm","lat":-12.9833333,"lon":30.4333333},{"id":3149359,"name":"waiti chitukuta","country":"zm","lat":-12.9,"lon":30.3333333},{"id":3142947,"name":"mangwai","country":"zm","lat":-12.7833333,"lon":30.2666667},{"id":3146634,"name":"nsunga","country":"zm","lat":-12.8166667,"lon":30.35},{"id":3137802,"name":"chimupati","country":"zm","lat":-13.2833333,"lon":30.1333333},{"id":3146101,"name":"namwelwa yotam","country":"zm","lat":-12.6833333,"lon":30.3666667},{"id":3137036,"name":"changwe lisamona","country":"zm","lat":-13.4,"lon":30.2333333},{"id":3142855,"name":"malupande","country":"zm","lat":-12.6166667,"lon":30.4666667},{"id":3136620,"name":"alan chibuya","country":"zm","lat":-12.7833333,"lon":30.3833333},{"id":3147401,"name":"samba","country":"zm","lat":-12.8833333,"lon":29.95},{"id":3145896,"name":"nakatontoka","country":"zm","lat":-12.8333333,"lon":30.2666667},{"id":3148988,"name":"sokota","country":"zm","lat":-12.7,"lon":30.1666667},{"id":3141548,"name":"kunda","country":"zm","lat":-12.6166667,"lon":29.9833333},{"id":3136919,"name":"chakansa","country":"zm","lat":-13.1333333,"lon":30.3833333},{"id":3146459,"name":"njoni kapema","country":"zm","lat":-12.7833333,"lon":30.4333333},{"id":368661,"name":"mutatu","country":"cd","lat":-13.133333,"lon":29.75},{"id":3146612,"name":"nshila","country":"zm","lat":-12.8666667,"lon":30.0166667},{"id":3149045,"name":"sula musonda mulu","country":"zm","lat":-12.85,"lon":30.2666667},{"id":3139254,"name":"jose musaka","country":"zm","lat":-12.7666667,"lon":30.3166667},{"id":3138729,"name":"dauti kafinda","country":"zm","lat":-12.6333333,"lon":30.4333333},{"id":3146371,"name":"ngorsalulamba","country":"zm","lat":-13.2,"lon":30.2},{"id":3137745,"name":"chimomba","country":"zm","lat":-12.8166667,"lon":30.05},{"id":3146921,"name":"oka kamwendo","country":"zm","lat":-12.6666667,"lon":30.4},{"id":3142975,"name":"mansaswi","country":"zm","lat":-13.2,"lon":30.1666667},{"id":3141681,"name":"lembera","country":"zm","lat":-13.35,"lon":30.0833333},{"id":3140097,"name":"kamoyo","country":"zm","lat":-12.9333333,"lon":30.3},{"id":369281,"name":"nampula","country":"cd","lat":-12.85,"lon":29.666667},{"id":3136650,"name":"amos mwelwa","country":"zm","lat":-12.9333333,"lon":30.4},{"id":3139150,"name":"james mukobeka","country":"zm","lat":-12.9,"lon":30.35},{"id":3147230,"name":"saioni mabuluchi","country":"zm","lat":-12.8666667,"lon":30.3},{"id":367583,"name":"mpandala","country":"cd","lat":-12.666667,"lon":29.616667},{"id":3147557,"name":"sangwi","country":"zm","lat":-12.8333333,"lon":29.8833333},{"id":3137831,"name":"china","country":"zm","lat":-12.8666667,"lon":30.4},{"id":3141660,"name":"lasoa musonda","country":"zm","lat":-12.7,"lon":30.3666667},{"id":3149494,"name":"yolam nkomesha","country":"zm","lat":-13.2333333,"lon":30.05},{"id":3149233,"name":"tishota chibuye","country":"zm","lat":-12.7833333,"lon":30.3333333},{"id":3142928,"name":"mangaila","country":"zm","lat":-12.5166667,"lon":30.2833333},{"id":3144283,"name":"mukoloso","country":"zm","lat":-12.95,"lon":30.05},{"id":3145548,"name":"mwando chipewa","country":"zm","lat":-12.7333333,"lon":29.95},{"id":3147016,"name":"pensulo","country":"zm","lat":-13.0333333,"lon":30.4333333},{"id":3136840,"name":"bwale","country":"zm","lat":-13.05,"lon":30.0166667},{"id":3143591,"name":"mishek mwanje","country":"zm","lat":-12.9833333,"lon":30.4666667},{"id":3138805,"name":"enos chisenga","country":"zm","lat":-12.85,"lon":30.3666667},{"id":3143046,"name":"martin nandu","country":"zm","lat":-12.8333333,"lon":30.4666667},{"id":3141659,"name":"lasengo","country":"zm","lat":-13.1666667,"lon":29.9333333},{"id":3149033,"name":"spashia musonko","country":"zm","lat":-12.7333333,"lon":30.4},{"id":3140207,"name":"kanakila","country":"zm","lat":-12.6833333,"lon":29.9833333},{"id":3137160,"name":"chesenga kasoma","country":"zm","lat":-13.2,"lon":30.4333333},{"id":3143806,"name":"mosi chingamba","country":"zm","lat":-12.5666667,"lon":30.4166667},{"id":3149446,"name":"wungwe","country":"zm","lat":-13.4166667,"lon":30.1666667},{"id":3139157,"name":"jamse","country":"zm","lat":-13.15,"lon":30.3666667},{"id":3146327,"name":"nganswa","country":"zm","lat":-13.1166667,"lon":30.25},{"id":3146048,"name":"namokula","country":"zm","lat":-12.75,"lon":29.85},{"id":3142491,"name":"machamanda milukutu","country":"zm","lat":-12.9,"lon":30.4333333},{"id":3142131,"name":"luangaba","country":"zm","lat":-12.9333333,"lon":30.0833333},{"id":3148644,"name":"simioni muchinga","country":"zm","lat":-12.8833333,"lon":30.4333333},{"id":3145978,"name":"namaluba","country":"zm","lat":-12.65,"lon":30.0166667},{"id":3140046,"name":"kambwiri","country":"zm","lat":-12.8333333,"lon":30.05},{"id":3139501,"name":"kafinda","country":"zm","lat":-12.6333333,"lon":30.4666667},{"id":3147712,"name":"serenje","country":"zm","lat":-13.2333333,"lon":30.2333333},{"id":3145600,"name":"mwape mapulanga","country":"zm","lat":-12.85,"lon":30.2833333},{"id":3137239,"name":"chibuye chikwate","country":"zm","lat":-12.8833333,"lon":30.4666667},{"id":3143147,"name":"mataka","country":"zm","lat":-12.9166667,"lon":30.2833333},{"id":3146163,"name":"nasikelo","country":"zm","lat":-12.7666667,"lon":30.4333333},{"id":3149227,"name":"timoti mumba","country":"zm","lat":-12.5,"lon":30.4833333},{"id":3146055,"name":"nampundwi","country":"zm","lat":-12.5666667,"lon":29.9666667},{"id":3137246,"name":"chibuye robert","country":"zm","lat":-12.8166667,"lon":30.2666667},{"id":365640,"name":"makoti","country":"cd","lat":-13.3,"lon":29.8},{"id":3165320,"name":"mpandala","country":"zr","lat":-12.6666667,"lon":29.6166667},{"id":3139391,"name":"kabula chisonpola","country":"zm","lat":-12.75,"lon":30.4666667},{"id":3149501,"name":"yoram mwanje","country":"zm","lat":-12.8,"lon":30.3333333},{"id":3138941,"name":"grinini ndashi","country":"zm","lat":-13.0,"lon":30.4},{"id":3145777,"name":"mwishiki chabala","country":"zm","lat":-12.9833333,"lon":30.4833333},{"id":3146083,"name":"namushasal","country":"zm","lat":-12.9,"lon":30.2833333},{"id":3142882,"name":"mambwe chisenda","country":"zm","lat":-12.8833333,"lon":30.2833333},{"id":3166358,"name":"muswafia","country":"zr","lat":-12.9333333,"lon":29.6833333},{"id":3136588,"name":"abelo","country":"zm","lat":-12.7166667,"lon":30.45},{"id":3145052,"name":"musolela","country":"zm","lat":-13.0833333,"lon":30.2833333},{"id":3139934,"name":"kalwa farm","country":"zm","lat":-13.2333333,"lon":30.3666667},{"id":3139154,"name":"jameson musonda","country":"zm","lat":-12.9166667,"lon":30.4333333},{"id":3138797,"name":"enala kasakila","country":"zm","lat":-12.8833333,"lon":30.3833333},{"id":3140425,"name":"kanyemba kamfwa","country":"zm","lat":-12.9,"lon":30.3833333},{"id":3146176,"name":"natan kalunga","country":"zm","lat":-12.8333333,"lon":30.35},{"id":3144954,"name":"musela","country":"zm","lat":-12.5833333,"lon":30.0666667},{"id":3136787,"name":"bokoshi kalunga","country":"zm","lat":-12.9,"lon":30.4666667},{"id":3141411,"name":"kinkululu","country":"zm","lat":-12.7,"lon":29.9333333},{"id":3146034,"name":"namelika","country":"zm","lat":-12.8666667,"lon":30.3166667},{"id":3136781,"name":"black kamsembe","country":"zm","lat":-12.7166667,"lon":30.4833333},{"id":3145207,"name":"mutoweka","country":"zm","lat":-13.2833333,"lon":30.3166667},{"id":3149423,"name":"wile kapepele","country":"zm","lat":-12.8666667,"lon":30.3833333},{"id":3142655,"name":"makoshya","country":"zm","lat":-12.7333333,"lon":29.9},{"id":3142281,"name":"lumekansie","country":"zm","lat":-13.1833333,"lon":30.3833333},{"id":3149206,"name":"thomas ilonjeka","country":"zm","lat":-12.8166667,"lon":30.3333333},{"id":3144904,"name":"musa chilegwa","country":"zm","lat":-12.7666667,"lon":30.45},{"id":3144553,"name":"mulinda","country":"zm","lat":-12.7333333,"lon":30.4833333},{"id":3149452,"name":"yakobe mutenta","country":"zm","lat":-12.9333333,"lon":30.45},{"id":3138986,"name":"ibolelo","country":"zm","lat":-13.2333333,"lon":30.2666667},{"id":3136872,"name":"cementi luanshika","country":"zm","lat":-12.95,"lon":30.45},{"id":3167018,"name":"nampula","country":"zr","lat":-12.85,"lon":29.6666667},{"id":3162712,"name":"lumbesa","country":"zr","lat":-12.6333333,"lon":29.55},{"id":3139872,"name":"kaluani","country":"zm","lat":-13.4666667,"lon":30.35},{"id":3141366,"name":"kebobo","country":"zm","lat":-12.8666667,"lon":29.9833333},{"id":3147741,"name":"shaemu mwape","country":"zm","lat":-12.6,"lon":30.4166667},{"id":3147578,"name":"santanini","country":"zm","lat":-12.5166667,"lon":29.85},{"id":3146160,"name":"nashoni chikwaba","country":"zm","lat":-12.6,"lon":30.4},{"id":3144609,"name":"mulota mwape","country":"zm","lat":-13.1166667,"lon":29.8333333},{"id":357281,"name":"galande","country":"cd","lat":-13.35,"lon":29.733333},{"id":3144479,"name":"mulela","country":"zm","lat":-12.8,"lon":30.1166667},{"id":3165719,"name":"mukoshia","country":"zr","lat":-12.7333333,"lon":29.5833333},{"id":3149398,"name":"wangwa","country":"zm","lat":-12.8166667,"lon":29.8833333},{"id":3142361,"name":"lusengo","country":"zm","lat":-13.1833333,"lon":29.9333333},{"id":3145734,"name":"mwilanshimona","country":"zm","lat":-13.3833333,"lon":30.1833333},{"id":3139321,"name":"kabango chibuyame","country":"zm","lat":-12.8833333,"lon":30.3666667},{"id":3138005,"name":"chinyeno","country":"zm","lat":-13.3166667,"lon":30.1666667},{"id":3142088,"name":"lobemba","country":"zm","lat":-13.15,"lon":30.4333333},{"id":3147537,"name":"sande mulilima","country":"zm","lat":-13.3333333,"lon":30.0},{"id":3147522,"name":"samwell luba","country":"zm","lat":-12.7666667,"lon":30.3333333},{"id":3143017,"name":"mapepela","country":"zm","lat":-12.7,"lon":30.1333333},{"id":3144528,"name":"mulikita","country":"zm","lat":-13.1333333,"lon":29.8333333},{"id":3144471,"name":"mulaya","country":"zm","lat":-13.1333333,"lon":30.1166667},{"id":3149116,"name":"takasia","country":"zm","lat":-12.8666667,"lon":29.8666667},{"id":3144372,"name":"mukunku","country":"zm","lat":-12.6166667,"lon":30.1333333},{"id":3146944,"name":"pachemba","country":"zm","lat":-13.15,"lon":29.9},{"id":3149433,"name":"wilson kachenjela","country":"zm","lat":-12.7833333,"lon":30.3166667},{"id":3139091,"name":"isake chimbwi","country":"zm","lat":-12.9166667,"lon":30.4},{"id":3145841,"name":"nacemente bwale","country":"zm","lat":-12.7,"lon":30.4},{"id":3146966,"name":"panga","country":"zm","lat":-12.7333333,"lon":30.4666667},{"id":3142110,"name":"lota nakatabaila","country":"zm","lat":-12.9166667,"lon":30.35},{"id":3142362,"name":"lusenso","country":"zm","lat":-13.3833333,"lon":29.85},{"id":3155018,"name":"galande","country":"zr","lat":-13.35,"lon":29.7333333},{"id":3137106,"name":"chauluka chabala","country":"zm","lat":-12.6166667,"lon":30.4333333},{"id":3145885,"name":"nakapapa","country":"zm","lat":-12.8833333,"lon":30.3},{"id":3136764,"name":"bidima","country":"zm","lat":-12.8833333,"lon":30.0},{"id":3145924,"name":"nalongo","country":"zm","lat":-13.3833333,"lon":29.9666667},{"id":3137938,"name":"chinkulu","country":"zm","lat":-12.6833333,"lon":29.9666667},{"id":3138690,"name":"chuwye mondo","country":"zm","lat":-12.8833333,"lon":30.3333333},{"id":3147229,"name":"saioni chaia","country":"zm","lat":-12.8833333,"lon":30.4},{"id":362179,"name":"kindalo","country":"cd","lat":-13.25,"lon":29.75},{"id":3143887,"name":"mpika","country":"zm","lat":-13.1,"lon":30.1166667},{"id":3142170,"name":"lubosa","country":"zm","lat":-13.4333333,"lon":30.4666667},{"id":3147013,"name":"peni lumwanshya","country":"zm","lat":-12.7333333,"lon":30.3333333},{"id":3144510,"name":"mulengo","country":"zm","lat":-12.5333333,"lon":30.4833333},{"id":368621,"name":"muswafia","country":"cd","lat":-12.933333,"lon":29.683333},{"id":3144810,"name":"munkunku","country":"zm","lat":-12.6333333,"lon":30.1},{"id":3145604,"name":"mwapi mulamuna","country":"zm","lat":-13.1666667,"lon":30.4333333},{"id":3145601,"name":"mwape mbusha","country":"zm","lat":-12.8333333,"lon":30.2833333},{"id":3140845,"name":"kashishi","country":"zm","lat":-13.0166667,"lon":30.2333333},{"id":3136596,"name":"adamson kulubale","country":"zm","lat":-12.5833333,"lon":30.45},{"id":3136841,"name":"bwale nyambesha","country":"zm","lat":-12.9833333,"lon":30.45},{"id":3142497,"name":"macheliwa mambwe","country":"zm","lat":-12.8,"lon":30.3666667},{"id":3138531,"name":"chiwuye","country":"zm","lat":-12.9666667,"lon":30.0166667},{"id":3143174,"name":"matempa samwa mutakasha","country":"zm","lat":-12.7166667,"lon":30.35},{"id":3142350,"name":"luputa","country":"zm","lat":-13.2833333,"lon":30.1166667},{"id":3143904,"name":"mpoka","country":"zm","lat":-12.7833333,"lon":30.45},{"id":3145833,"name":"na akim","country":"zm","lat":-12.8333333,"lon":30.3},{"id":3136648,"name":"amos kalunga","country":"zm","lat":-12.8833333,"lon":30.2666667},{"id":3138875,"name":"fulbek mulenga","country":"zm","lat":-12.6833333,"lon":30.3833333},{"id":3142825,"name":"maloni chimulasa","country":"zm","lat":-12.9333333,"lon":30.4166667},{"id":3138101,"name":"chipi chiposa","country":"zm","lat":-12.75,"lon":30.45},{"id":3139158,"name":"jamu kasamika","country":"zm","lat":-12.8,"lon":30.2666667},{"id":3146219,"name":"ndabala","country":"zm","lat":-13.3666667,"lon":29.95},{"id":362630,"name":"kipushia","country":"cd","lat":-12.966667,"lon":29.5},{"id":3137161,"name":"chesengkiepate","country":"zm","lat":-13.1,"lon":30.2666667},{"id":3143119,"name":"masola","country":"zm","lat":-13.4833333,"lon":30.4166667},{"id":3137969,"name":"chintankwa","country":"zm","lat":-13.3666667,"lon":30.4666667},{"id":370746,"name":"pensulu","country":"cd","lat":-12.533333,"lon":29.533333},{"id":3147057,"name":"pita mulongoti","country":"zm","lat":-12.5333333,"lon":30.3833333},{"id":362052,"name":"kimeko","country":"cd","lat":-12.566667,"lon":29.633333},{"id":3138781,"name":"edward manta","country":"zm","lat":-12.6333333,"lon":30.4166667}]});