callback({"markets":[{"id":1997873,"name":"iposanyi","country":"ng","lat":6.745304,"lon":3.567399},{"id":1985991,"name":"bota","country":"ng","lat":7.339167,"lon":3.850556},{"id":2009971,"name":"okiti","country":"ng","lat":7.280833,"lon":3.9575},{"id":1997836,"name":"iperu","country":"ng","lat":6.91002,"lon":3.665572},{"id":2010647,"name":"ologan","country":"ng","lat":7.309444,"lon":3.939167},{"id":2000991,"name":"kebo","country":"ng","lat":7.183333,"lon":3.516667},{"id":1983107,"name":"ase","country":"ng","lat":7.315556,"lon":3.847222},{"id":2009875,"name":"oke-ogbe","country":"ng","lat":6.966262,"lon":3.823984},{"id":1992416,"name":"gbegunde","country":"ng","lat":7.233333,"lon":4.233333},{"id":1995711,"name":"idowa","country":"ng","lat":6.769677,"lon":3.870619},{"id":2009481,"name":"oguru","country":"ng","lat":6.707109,"lon":4.137577},{"id":1996181,"name":"igidu","country":"ng","lat":7.416667,"lon":4.316667},{"id":1981701,"name":"alo","country":"ng","lat":6.548568,"lon":4.268625},{"id":2006395,"name":"mokore","country":"ng","lat":7.15,"lon":4.35},{"id":2005698,"name":"maya","country":"ng","lat":6.790439,"lon":3.645625},{"id":1983930,"name":"baba agba","country":"ng","lat":7.381389,"lon":3.786944},{"id":1990387,"name":"erunmu","country":"ng","lat":7.423056,"lon":3.996389},{"id":1983688,"name":"awshaw","country":"ng","lat":7.333333,"lon":3.716667},{"id":1983075,"name":"asanle","country":"ng","lat":6.9,"lon":3.516667},{"id":2021579,"name":"yinmi","country":"ng","lat":7.166667,"lon":4.483333},{"id":2018173,"name":"umanyure","country":"ng","lat":6.585714,"lon":3.850525},{"id":2011179,"name":"onigbo","country":"ng","lat":7.033333,"lon":3.983333},{"id":2010639,"name":"olofa","country":"ng","lat":7.333333,"lon":4.083333},{"id":2020615,"name":"wonu","country":"ng","lat":7.283333,"lon":4.066667},{"id":2013904,"name":"salabaw","country":"ng","lat":6.666667,"lon":3.633333},{"id":1982893,"name":"arinokuta","country":"ng","lat":7.316667,"lon":4.066667},{"id":2010915,"name":"olukami","country":"ng","lat":7.372222,"lon":3.777222},{"id":2001506,"name":"kogbo","country":"ng","lat":7.307778,"lon":3.813611},{"id":2008687,"name":"odeda","country":"ng","lat":7.216667,"lon":3.516667},{"id":1996445,"name":"ijebu-ode","country":"ng","lat":6.816093,"lon":3.915877},{"id":2010939,"name":"olunloyo","country":"ng","lat":7.348889,"lon":3.9475},{"id":1982460,"name":"anisere","country":"ng","lat":7.374722,"lon":3.751389},{"id":1981921,"name":"amao","country":"ng","lat":7.271944,"lon":3.789722},{"id":2008877,"name":"odosimadegun","country":"ng","lat":6.883333,"lon":4.05},{"id":2020488,"name":"wasimi","country":"ng","lat":7.433333,"lon":4.266667},{"id":1992344,"name":"gbalede","country":"ng","lat":7.416667,"lon":3.616667},{"id":1995478,"name":"idagolu","country":"ng","lat":7.233333,"lon":3.6},{"id":2012257,"name":"owu","country":"ng","lat":7.233333,"lon":3.7},{"id":1997429,"name":"iletitun","country":"ng","lat":7.4,"lon":4.016667},{"id":1995336,"name":"ibijuwon","country":"ng","lat":7.216667,"lon":4.066667},{"id":1997823,"name":"ipeja","country":"ng","lat":6.92147,"lon":4.01217},{"id":1992292,"name":"gbada","country":"ng","lat":7.3,"lon":4.066667},{"id":2014439,"name":"seriki","country":"ng","lat":6.990947,"lon":3.618646},{"id":1982900,"name":"ariye","country":"ng","lat":7.083333,"lon":3.883333},{"id":2000958,"name":"kayode","country":"ng","lat":7.233333,"lon":3.533333},{"id":2010933,"name":"olumelo","country":"ng","lat":7.216667,"lon":4.216667},{"id":2002188,"name":"kugbo","country":"ng","lat":7.35,"lon":3.6},{"id":2011018,"name":"omiyolo","country":"ng","lat":7.35,"lon":3.7},{"id":1996385,"name":"ijagun","country":"ng","lat":6.784051,"lon":3.925745},{"id":2015806,"name":"tejehun","country":"ng","lat":7.333333,"lon":3.533333},{"id":1992356,"name":"gbangboye","country":"ng","lat":7.2,"lon":3.733333},{"id":2011611,"name":"orita","country":"ng","lat":6.60758,"lon":3.873131},{"id":2008727,"name":"odetola","country":"ng","lat":7.45,"lon":3.716667},{"id":1982182,"name":"amuloko","country":"ng","lat":7.335556,"lon":3.977778},{"id":2009892,"name":"oke oloku","country":"ng","lat":6.584393,"lon":3.622787},{"id":1982715,"name":"apoje","country":"ng","lat":6.964377,"lon":4.106363},{"id":2008850,"name":"odo ogun","country":"ng","lat":7.301111,"lon":3.843889},{"id":1990642,"name":"ewu ebi","country":"ng","lat":6.55,"lon":3.516667},{"id":1995884,"name":"igbaga","country":"ng","lat":6.671543,"lon":3.58016},{"id":2011737,"name":"orunwa","country":"ng","lat":6.843535,"lon":4.066153},{"id":2004170,"name":"luwako","country":"ng","lat":6.600765,"lon":4.179345},{"id":1997304,"name":"ilado","country":"ng","lat":6.727292,"lon":3.81737},{"id":1990654,"name":"ewu-lema","country":"ng","lat":6.71567,"lon":3.652452},{"id":1978802,"name":"abire","country":"ng","lat":7.466667,"lon":3.516667},{"id":1990181,"name":"emuren","country":"ng","lat":6.698135,"lon":3.615713},{"id":2002029,"name":"krobo","country":"ng","lat":7.485556,"lon":3.978889},{"id":1990790,"name":"fadare","country":"ng","lat":7.333333,"lon":4.416667},{"id":1981485,"name":"alarupo","country":"ng","lat":7.450556,"lon":3.951389},{"id":1992310,"name":"gbagi","country":"ng","lat":7.460556,"lon":3.955},{"id":2014907,"name":"siba","country":"ng","lat":7.376389,"lon":3.783611},{"id":2006021,"name":"mebisere","country":"ng","lat":6.70026,"lon":3.510835},{"id":1983951,"name":"baba ilugun","country":"ng","lat":7.260833,"lon":3.750278},{"id":1984908,"name":"bare","country":"ng","lat":7.268056,"lon":3.821667},{"id":1991080,"name":"fidiwo","country":"ng","lat":7.066667,"lon":3.683333},{"id":2015119,"name":"sotubo","country":"ng","lat":6.806104,"lon":3.587693},{"id":1981535,"name":"alayo","country":"ng","lat":7.283333,"lon":4.316667},{"id":1982801,"name":"araromi okeodo","country":"ng","lat":7.15,"lon":4.45},{"id":2010903,"name":"olugboji","country":"ng","lat":7.489444,"lon":3.933056},{"id":1990376,"name":"erugbin","country":"ng","lat":6.816667,"lon":3.583333},{"id":1995988,"name":"igbin","country":"ng","lat":6.560574,"lon":3.603003},{"id":2012294,"name":"oyelakun","country":"ng","lat":7.329167,"lon":3.828889},{"id":2015021,"name":"sodina","country":"ng","lat":7.083333,"lon":3.966667},{"id":2012526,"name":"parafa","country":"ng","lat":6.633333,"lon":3.55},{"id":2011563,"name":"origele","country":"ng","lat":6.565964,"lon":4.119379},{"id":2010034,"name":"oko ito","country":"ng","lat":6.616667,"lon":3.666667},{"id":1983679,"name":"awowo","country":"ng","lat":7.383333,"lon":4.066667},{"id":1982643,"name":"aparun","country":"ng","lat":7.116667,"lon":3.65},{"id":1982180,"name":"amula","country":"ng","lat":7.083333,"lon":4.0},{"id":1981325,"name":"aladorin","country":"ng","lat":7.258056,"lon":3.853889},{"id":1998165,"name":"isire","country":"ng","lat":6.826156,"lon":4.020945},{"id":1995262,"name":"ibefon","country":"ng","lat":6.711137,"lon":3.796457},{"id":1982798,"name":"araromi-obu","country":"ng","lat":6.597182,"lon":4.491986},{"id":1989339,"name":"efunwole","country":"ng","lat":7.433333,"lon":4.05},{"id":1979922,"name":"ageri","country":"ng","lat":7.316667,"lon":3.616667},{"id":1980186,"name":"agunboye","country":"ng","lat":6.9325,"lon":4.020556},{"id":2010103,"name":"oko","country":"ng","lat":7.474444,"lon":3.7875},{"id":1978722,"name":"aberu agba","country":"ng","lat":7.133333,"lon":3.533333},{"id":2011830,"name":"osin","country":"ng","lat":7.333333,"lon":4.0},{"id":2011280,"name":"oniyangi","country":"ng","lat":6.980118,"lon":3.795731},{"id":1990997,"name":"fasumi","country":"ng","lat":7.2,"lon":3.916667},{"id":2013812,"name":"sagba","country":"ng","lat":7.333333,"lon":4.3},{"id":1981399,"name":"alaka","country":"ng","lat":7.390833,"lon":3.973611},{"id":1984537,"name":"baloguh","country":"ng","lat":7.456389,"lon":3.950556},{"id":2001301,"name":"kinkinginun","country":"ng","lat":7.333333,"lon":4.4},{"id":1981465,"name":"alapo","country":"ng","lat":7.268611,"lon":3.794722},{"id":2009401,"name":"ogundele","country":"ng","lat":7.374444,"lon":3.990278},{"id":2001136,"name":"kesinro","country":"ng","lat":7.283333,"lon":3.616667},{"id":2020600,"name":"womonle","country":"ng","lat":7.25,"lon":4.383333},{"id":2011571,"name":"orile aro","country":"ng","lat":7.464167,"lon":3.895278},{"id":1997552,"name":"imala","country":"ng","lat":7.3,"lon":3.516667},{"id":1980893,"name":"akinbode","country":"ng","lat":7.166667,"lon":3.966667},{"id":2015938,"name":"tiluba","country":"ng","lat":6.942909,"lon":4.101609},{"id":1978848,"name":"abomiti","country":"ng","lat":6.513227,"lon":4.09479},{"id":1998282,"name":"italiwo","country":"ng","lat":7.0,"lon":4.05},{"id":2015334,"name":"tade","country":"ng","lat":7.420278,"lon":3.752222},{"id":2008774,"name":"odo-ayandelu","country":"ng","lat":6.678446,"lon":3.711052},{"id":1998244,"name":"ita-arapa","country":"ng","lat":6.960591,"lon":3.846069},{"id":1998448,"name":"iwaya","country":"ng","lat":6.76197,"lon":4.03005},{"id":2009739,"name":"okan ide","country":"ng","lat":7.1,"lon":3.966667},{"id":1979245,"name":"adelokun","country":"ng","lat":7.15,"lon":3.516667},{"id":2009451,"name":"ogunsipe","country":"ng","lat":7.266667,"lon":4.483333},{"id":1989589,"name":"ejesi ii","country":"ng","lat":7.366667,"lon":4.483333},{"id":1995934,"name":"igbedu","country":"ng","lat":7.15,"lon":3.616667},{"id":1990274,"name":"eraye-ok","country":"ng","lat":6.6,"lon":4.0},{"id":1997985,"name":"isagunsen","country":"ng","lat":6.790226,"lon":4.018369},{"id":1979165,"name":"adawo","country":"ng","lat":7.333333,"lon":3.566667},{"id":1984882,"name":"barawo","country":"ng","lat":7.216667,"lon":4.316667},{"id":1981459,"name":"alape","country":"ng","lat":7.35,"lon":4.433333},{"id":2008708,"name":"ode","country":"ng","lat":6.964595,"lon":3.681557},{"id":2006401,"name":"molaja","country":"ng","lat":7.3,"lon":4.316667},{"id":1980116,"name":"agoro","country":"ng","lat":7.474722,"lon":3.964722},{"id":2009843,"name":"okelisa","country":"ng","lat":6.7241,"lon":3.937053},{"id":1982120,"name":"amoje","country":"ng","lat":7.295,"lon":3.792222},{"id":2011091,"name":"omu","country":"ng","lat":6.691745,"lon":3.863031},{"id":2010720,"name":"oloko","country":"ng","lat":7.25,"lon":4.483333},{"id":2001158,"name":"ketu","country":"ng","lat":6.634832,"lon":3.880523},{"id":1991184,"name":"fowoseje","country":"ng","lat":6.65763,"lon":4.179662},{"id":2006507,"name":"mosimi","country":"ng","lat":6.755072,"lon":3.551493},{"id":1990002,"name":"eleru","country":"ng","lat":7.116667,"lon":3.55},{"id":1989352,"name":"egan-elegbewa","country":"ng","lat":6.937319,"lon":4.042224},{"id":1980155,"name":"agudu","country":"ng","lat":7.366667,"lon":4.05},{"id":1990391,"name":"erunwon","country":"ng","lat":7.25,"lon":3.683333},{"id":2011128,"name":"onibepe","country":"ng","lat":7.266667,"lon":4.4},{"id":2011998,"name":"otta","country":"ng","lat":6.666667,"lon":3.733333},{"id":1978767,"name":"abidemi","country":"ng","lat":7.266667,"lon":4.2},{"id":1998309,"name":"itasin","country":"ng","lat":6.590225,"lon":4.109614},{"id":1996129,"name":"igboro","country":"ng","lat":7.25,"lon":3.6},{"id":1995325,"name":"ibido","country":"ng","lat":6.75,"lon":3.916667},{"id":1980364,"name":"aiyede","country":"ng","lat":7.45,"lon":4.083333},{"id":2006047,"name":"meki","country":"ng","lat":6.516667,"lon":3.95},{"id":2009994,"name":"okodowo","country":"ng","lat":7.183333,"lon":4.25},{"id":1996021,"name":"igbodi","country":"ng","lat":7.406389,"lon":3.768611},{"id":2010165,"name":"okoyogun","country":"ng","lat":6.513857,"lon":3.892835},{"id":2003379,"name":"laduntan","country":"ng","lat":7.266667,"lon":4.1},{"id":2003646,"name":"laogun","country":"ng","lat":7.266667,"lon":4.0},{"id":2011955,"name":"oteya","country":"ng","lat":7.328333,"lon":3.8125},{"id":1983808,"name":"ayigoro","country":"ng","lat":7.4775,"lon":3.813611},{"id":1982446,"name":"animu","country":"ng","lat":7.45,"lon":4.316667},{"id":2003925,"name":"likosi","country":"ng","lat":6.761319,"lon":3.534301},{"id":1998446,"name":"iwata","country":"ng","lat":7.4,"lon":4.283333},{"id":1988073,"name":"dawodu","country":"ng","lat":7.333333,"lon":3.65},{"id":2010826,"name":"olota","country":"ng","lat":7.433333,"lon":4.166667},{"id":1982779,"name":"araromi aperin","country":"ng","lat":7.166667,"lon":4.033333},{"id":1997567,"name":"imayan","country":"ng","lat":6.719334,"lon":4.206597},{"id":2010767,"name":"olomu","country":"ng","lat":7.2,"lon":4.466667},{"id":2008888,"name":"odoye","country":"ng","lat":6.991577,"lon":3.794597},{"id":2011713,"name":"orugba","country":"ng","lat":6.633333,"lon":3.766667},{"id":1980191,"name":"agunfoye","country":"ng","lat":6.566667,"lon":3.55},{"id":1979210,"name":"adegbayi","country":"ng","lat":7.382778,"lon":3.986667},{"id":1983941,"name":"baba egbe","country":"ng","lat":7.066667,"lon":3.966667},{"id":1980356,"name":"aiye","country":"ng","lat":6.75,"lon":4.283333},{"id":2008704,"name":"ode-lemo","country":"ng","lat":6.74269,"lon":3.664492},{"id":1996097,"name":"igbona","country":"ng","lat":7.489722,"lon":3.773333},{"id":1981442,"name":"alapake","country":"ng","lat":7.466667,"lon":4.116667},{"id":1996598,"name":"iken","country":"ng","lat":6.75684,"lon":3.892966},{"id":1980759,"name":"akanran","country":"ng","lat":7.283333,"lon":4.033333},{"id":2005678,"name":"maweje","country":"ng","lat":6.7669,"lon":3.924316},{"id":1987576,"name":"dandola","country":"ng","lat":7.05,"lon":4.183333},{"id":2011199,"name":"onikete timi","country":"ng","lat":7.233333,"lon":4.133333},{"id":1989509,"name":"egundugbo","country":"ng","lat":6.984887,"lon":3.856084},{"id":1979179,"name":"ade agbo","country":"ng","lat":7.483333,"lon":3.5},{"id":1981434,"name":"alao","country":"ng","lat":7.409167,"lon":3.788889},{"id":1996601,"name":"ikeran","country":"ng","lat":6.547714,"lon":4.101407},{"id":1996107,"name":"igbo-olo","country":"ng","lat":6.746047,"lon":3.628992},{"id":2006314,"name":"mobalufon","country":"ng","lat":6.799842,"lon":3.902307},{"id":1980618,"name":"ajilonla","country":"ng","lat":7.433333,"lon":4.233333},{"id":2001777,"name":"kopolu","country":"ng","lat":7.250556,"lon":3.935556},{"id":1990656,"name":"ewu-ode","country":"ng","lat":6.847635,"lon":3.572377},{"id":1987923,"name":"daramola","country":"ng","lat":7.133333,"lon":4.05},{"id":2013070,"name":"ricket","country":"ng","lat":7.15,"lon":4.033333},{"id":1995276,"name":"ibelu","country":"ng","lat":6.794048,"lon":4.03735},{"id":2009082,"name":"ogbegunmo","country":"ng","lat":7.4,"lon":4.483333},{"id":2012966,"name":"raka","country":"ng","lat":7.333333,"lon":3.55},{"id":2005212,"name":"mami","country":"ng","lat":7.266667,"lon":3.516667},{"id":1997302,"name":"ilade","country":"ng","lat":6.566667,"lon":3.533333},{"id":1982709,"name":"apitipiti","country":"ng","lat":7.333333,"lon":3.633333},{"id":2002568,"name":"kure","country":"ng","lat":7.3,"lon":4.033333},{"id":1998261,"name":"ita","country":"ng","lat":6.644192,"lon":3.620104},{"id":2009429,"name":"ogunlola","country":"ng","lat":7.366667,"lon":3.516667},{"id":1980958,"name":"akiriboto","country":"ng","lat":7.466667,"lon":4.316667},{"id":1996626,"name":"ikire","country":"ng","lat":7.35,"lon":4.183333},{"id":2009895,"name":"oke-olowu","country":"ng","lat":6.862807,"lon":3.991289},{"id":2009314,"name":"ogoji","country":"ng","lat":6.807269,"lon":3.774166},{"id":1983712,"name":"awuro oyo i","country":"ng","lat":7.35,"lon":4.466667},{"id":1996680,"name":"ikosi","country":"ng","lat":6.611705,"lon":3.705668},{"id":1995866,"name":"iganran","country":"ng","lat":6.916667,"lon":3.95},{"id":1983706,"name":"awulogun","country":"ng","lat":7.216667,"lon":3.783333},{"id":1996428,"name":"ijari","country":"ng","lat":6.849337,"lon":3.944322},{"id":2009402,"name":"ogunde","country":"ng","lat":7.483333,"lon":3.516667},{"id":1984612,"name":"bamisinde","country":"ng","lat":7.3,"lon":4.1},{"id":2014153,"name":"sanni","country":"ng","lat":7.183333,"lon":4.316667},{"id":2016025,"name":"toba","country":"ng","lat":7.183333,"lon":3.6},{"id":1978490,"name":"abailenla","country":"ng","lat":7.258333,"lon":3.891944},{"id":2009104,"name":"ogbere","country":"ng","lat":7.308889,"lon":3.927222},{"id":1979628,"name":"agaloke","country":"ng","lat":7.374722,"lon":3.801111},{"id":1990322,"name":"erikekere","country":"ng","lat":6.970596,"lon":4.065242},{"id":1996003,"name":"igbo-apawa","country":"ng","lat":6.503272,"lon":4.065912},{"id":1997621,"name":"imope","country":"ng","lat":6.616055,"lon":3.746228},{"id":2006384,"name":"mojoda","country":"ng","lat":6.678671,"lon":3.982398},{"id":1980952,"name":"akiode","country":"ng","lat":7.1,"lon":3.683333},{"id":1982771,"name":"arapagi","country":"ng","lat":6.508149,"lon":3.779311},{"id":1979259,"name":"adenu","country":"ng","lat":7.05,"lon":3.533333},{"id":1981031,"name":"akoto","country":"ng","lat":7.342222,"lon":3.763889},{"id":1996138,"name":"igbosuru","country":"ng","lat":6.699607,"lon":3.553009},{"id":2004032,"name":"longe","country":"ng","lat":7.183333,"lon":3.9},{"id":1981692,"name":"alli oge","country":"ng","lat":7.116667,"lon":3.783333},{"id":1983366,"name":"atilerin","country":"ng","lat":7.3,"lon":3.65},{"id":2009780,"name":"oke-ate","country":"ng","lat":6.832654,"lon":3.542971},{"id":1995940,"name":"igbe","country":"ng","lat":6.583333,"lon":3.566667},{"id":1984503,"name":"balefun","country":"ng","lat":6.816297,"lon":3.64124},{"id":2008887,"name":"odoyanta","country":"ng","lat":6.866667,"lon":3.916667},{"id":1980743,"name":"akande","country":"ng","lat":7.316667,"lon":4.4},{"id":2011614,"name":"oriwu","country":"ng","lat":6.892089,"lon":4.032041},{"id":1998780,"name":"jago","country":"ng","lat":7.316667,"lon":4.1},{"id":1995619,"name":"idiope","country":"ng","lat":7.433333,"lon":3.5},{"id":2001445,"name":"kobiowo","country":"ng","lat":7.341389,"lon":3.983889},{"id":1989887,"name":"eleba","country":"ng","lat":7.353056,"lon":3.824444},{"id":1981195,"name":"akunfori","country":"ng","lat":7.066667,"lon":3.583333},{"id":1989918,"name":"elegun","country":"ng","lat":7.317222,"lon":3.930556},{"id":2010921,"name":"olukogbe","country":"ng","lat":6.552011,"lon":4.358722},{"id":2003712,"name":"latoro","country":"ng","lat":6.75,"lon":3.6},{"id":1981564,"name":"aleri","country":"ng","lat":7.480833,"lon":3.973889},{"id":2009461,"name":"ogunti","country":"ng","lat":7.05,"lon":3.733333},{"id":1990319,"name":"erigboro","country":"ng","lat":7.066667,"lon":4.1},{"id":1980251,"name":"aha","country":"ng","lat":6.96307,"lon":3.940352},{"id":1997840,"name":"ipesu","country":"ng","lat":6.515262,"lon":3.657727},{"id":2003579,"name":"lamiro","country":"ng","lat":6.559882,"lon":4.487682},{"id":2009592,"name":"ojagemaw","country":"ng","lat":6.572,"lon":3.661254},{"id":2001888,"name":"kotiegba","country":"ng","lat":7.281111,"lon":3.927222},{"id":1978526,"name":"aba-kuye","country":"ng","lat":7.266667,"lon":4.033333},{"id":1981457,"name":"alapata","country":"ng","lat":7.353333,"lon":3.974444},{"id":1980878,"name":"akilapa","country":"ng","lat":7.264722,"lon":3.824444},{"id":2009125,"name":"ogbirigbiri","country":"ng","lat":7.016667,"lon":4.016667},{"id":1990345,"name":"erinmi","country":"ng","lat":7.366667,"lon":4.116667},{"id":2011185,"name":"onijawajawa","country":"ng","lat":6.595205,"lon":3.795397},{"id":2003665,"name":"lapon","country":"ng","lat":7.4775,"lon":3.950833},{"id":1997805,"name":"ipakan","country":"ng","lat":6.566667,"lon":3.616667},{"id":2009786,"name":"oke aye","country":"ng","lat":6.90825,"lon":4.029326},{"id":1997897,"name":"iraw","country":"ng","lat":6.723259,"lon":4.035655},{"id":2012249,"name":"owu-ikija","country":"ng","lat":6.814785,"lon":4.033691},{"id":2015883,"name":"tibade","country":"ng","lat":6.541306,"lon":4.358092},{"id":1996183,"name":"igikola","country":"ng","lat":7.183333,"lon":4.033333},{"id":2016048,"name":"togunberu","country":"ng","lat":7.05,"lon":4.1},{"id":2013740,"name":"sabo","country":"ng","lat":6.966667,"lon":3.9},{"id":1998824,"name":"jaka","country":"ng","lat":7.433333,"lon":3.716667},{"id":2020630,"name":"woye","country":"ng","lat":7.233333,"lon":4.166667},{"id":1990313,"name":"eridu","country":"ng","lat":6.750051,"lon":4.145317},{"id":1985583,"name":"bioku","country":"ng","lat":7.316667,"lon":4.083333},{"id":1989292,"name":"edun","country":"ng","lat":7.366667,"lon":4.033333},{"id":1990389,"name":"erunwan","country":"ng","lat":7.2,"lon":3.633333},{"id":1991134,"name":"foke","country":"ng","lat":7.483333,"lon":4.266667},{"id":1992453,"name":"gberegbe","country":"ng","lat":6.598591,"lon":3.620362},{"id":2006403,"name":"molarere","country":"ng","lat":7.383333,"lon":4.266667},{"id":2009616,"name":"ojebode","country":"ng","lat":7.25,"lon":4.033333},{"id":1997622,"name":"imope","country":"ng","lat":6.899516,"lon":3.97054},{"id":1982198,"name":"amusan","country":"ng","lat":7.466667,"lon":4.033333},{"id":1991172,"name":"fotedo","country":"ng","lat":6.63066,"lon":4.1632},{"id":1980931,"name":"akinsipe","country":"ng","lat":7.267778,"lon":3.840278},{"id":2015833,"name":"temidire","country":"ng","lat":7.307778,"lon":3.970278},{"id":2009806,"name":"oke-eri","country":"ng","lat":6.869837,"lon":3.945775},{"id":2011253,"name":"onisade","country":"ng","lat":7.383333,"lon":4.033333},{"id":1980532,"name":"ajegbenwa","country":"ng","lat":6.521146,"lon":3.813282},{"id":2008832,"name":"odo-mola","country":"ng","lat":6.607127,"lon":3.985546},{"id":1996075,"name":"igbokin","country":"ng","lat":6.586562,"lon":3.563916},{"id":1989999,"name":"elerin","country":"ng","lat":7.15,"lon":3.966667},{"id":2010833,"name":"olowa","country":"ng","lat":7.15,"lon":3.883333},{"id":2011853,"name":"osonde","country":"ng","lat":7.183333,"lon":3.933333},{"id":2011591,"name":"ori oke","country":"ng","lat":7.4,"lon":4.3},{"id":1992493,"name":"gbogiri","country":"ng","lat":7.016667,"lon":3.983333},{"id":1979814,"name":"agbile","country":"ng","lat":6.719651,"lon":3.86671},{"id":1989917,"name":"elegunde","country":"ng","lat":7.480278,"lon":3.810278},{"id":1980905,"name":"akingbogun","country":"ng","lat":7.2,"lon":3.716667},{"id":1996068,"name":"igbo ilo","country":"ng","lat":7.066667,"lon":3.516667},{"id":2010949,"name":"olurinde","country":"ng","lat":7.319167,"lon":3.924722},{"id":2012194,"name":"owode-bale","country":"ng","lat":6.94454,"lon":3.837105},{"id":1995410,"name":"ibopa","country":"ng","lat":6.546079,"lon":3.519204},{"id":2012775,"name":"poso","country":"ng","lat":7.3,"lon":4.483333},{"id":1998827,"name":"jakankan","country":"ng","lat":7.266667,"lon":4.316667},{"id":1996448,"name":"ijede","country":"ng","lat":6.566763,"lon":3.588433},{"id":2010962,"name":"oluwa","country":"ng","lat":7.066667,"lon":3.733333},{"id":2010862,"name":"oloyo","country":"ng","lat":7.333333,"lon":3.733333},{"id":1990873,"name":"falade","country":"ng","lat":7.489444,"lon":3.784722},{"id":1989610,"name":"ejoekun","country":"ng","lat":7.296944,"lon":3.819722},{"id":1980482,"name":"ajao","country":"ng","lat":7.25,"lon":4.05},{"id":2012209,"name":"owojaw","country":"ng","lat":7.116667,"lon":3.683333},{"id":2009404,"name":"ogundijo","country":"ng","lat":7.383333,"lon":4.4},{"id":1985578,"name":"biobale","country":"ng","lat":6.95,"lon":3.833333},{"id":2012612,"name":"peiye","country":"ng","lat":7.466667,"lon":4.016667},{"id":2004149,"name":"lumogo","country":"ng","lat":6.71349,"lon":4.278089},{"id":2009432,"name":"ogunmakin","country":"ng","lat":7.15,"lon":3.8},{"id":2003448,"name":"lagunju","country":"ng","lat":7.15,"lon":3.9},{"id":2001732,"name":"konigbagbe","country":"ng","lat":6.792887,"lon":3.572013},{"id":1978616,"name":"abatan","country":"ng","lat":7.083333,"lon":3.683333},{"id":2010824,"name":"olosun","country":"ng","lat":7.15,"lon":3.7},{"id":2003595,"name":"lamuregun","country":"ng","lat":7.4,"lon":4.033333},{"id":2006540,"name":"mowo oba","country":"ng","lat":7.233333,"lon":4.216667},{"id":1983643,"name":"awo","country":"ng","lat":6.905397,"lon":3.545095},{"id":1998379,"name":"itori","country":"ng","lat":7.306389,"lon":3.75},{"id":1980943,"name":"akinwande","country":"ng","lat":7.3,"lon":4.116667},{"id":1989919,"name":"elegunmesan","country":"ng","lat":7.016667,"lon":3.85},{"id":1978766,"name":"abidagba","country":"ng","lat":6.73326,"lon":4.011035},{"id":2011603,"name":"orisha","country":"ng","lat":6.583333,"lon":3.933333},{"id":1978730,"name":"abeta","country":"ng","lat":7.45,"lon":3.516667},{"id":2004047,"name":"losi","country":"ng","lat":6.669762,"lon":3.51266},{"id":2011080,"name":"omu moringbere","country":"ng","lat":7.3,"lon":4.333333},{"id":2011610,"name":"orita-odo","country":"ng","lat":6.758141,"lon":3.643702},{"id":2011264,"name":"oniti","country":"ng","lat":6.727634,"lon":4.424274},{"id":1982677,"name":"apena","country":"ng","lat":6.815245,"lon":3.584097},{"id":2008232,"name":"obale jugbe","country":"ng","lat":7.433333,"lon":4.466667},{"id":1998202,"name":"isonyin","country":"ng","lat":6.833333,"lon":3.983333},{"id":1995436,"name":"ibu lawe","country":"ng","lat":7.083333,"lon":3.533333},{"id":1995696,"name":"idomogu","country":"ng","lat":6.713262,"lon":3.505206},{"id":1984599,"name":"bamgbose","country":"ng","lat":7.3,"lon":3.566667},{"id":1992408,"name":"gbedun","country":"ng","lat":7.233333,"lon":4.033333},{"id":2011118,"name":"ondunjo","country":"ng","lat":7.254167,"lon":3.938889},{"id":1981424,"name":"alaluko","country":"ng","lat":6.737858,"lon":4.16045},{"id":2008893,"name":"oduatayo","country":"ng","lat":6.949477,"lon":3.574704},{"id":1979411,"name":"adugan","country":"ng","lat":7.266667,"lon":3.616667},{"id":1982843,"name":"aredi","country":"ng","lat":7.066667,"lon":3.916667},{"id":2009143,"name":"ogbogbo","country":"ng","lat":6.848719,"lon":3.960112},{"id":2011214,"name":"onilearo","country":"ng","lat":7.366667,"lon":4.383333},{"id":1990768,"name":"fada","country":"ng","lat":7.25,"lon":4.066667},{"id":1983545,"name":"awala","country":"ng","lat":7.25,"lon":4.25},{"id":1979291,"name":"adewunmi","country":"ng","lat":7.15,"lon":4.483333},{"id":1979776,"name":"agbegi","country":"ng","lat":7.316667,"lon":4.333333},{"id":2003361,"name":"ladega","country":"ng","lat":6.520501,"lon":3.677652},{"id":2012300,"name":"oyere adedire","country":"ng","lat":7.2,"lon":4.383333},{"id":2011487,"name":"oranran market","country":"ng","lat":7.233333,"lon":4.183333},{"id":1992480,"name":"gbodo","country":"ng","lat":7.216667,"lon":3.716667},{"id":2015086,"name":"somo","country":"ng","lat":6.840892,"lon":3.515072},{"id":1997573,"name":"imegun","country":"ng","lat":6.696456,"lon":4.061564},{"id":2014438,"name":"seriki okusan","country":"ng","lat":7.033333,"lon":3.633333},{"id":2004002,"name":"loke","country":"ng","lat":7.489722,"lon":3.990556},{"id":2009766,"name":"oke akuko","country":"ng","lat":6.766667,"lon":3.616667},{"id":2011567,"name":"orija","country":"ng","lat":7.3,"lon":3.716667},{"id":1991021,"name":"fayomi","country":"ng","lat":7.416667,"lon":4.116667},{"id":2006380,"name":"mohun","country":"ng","lat":7.311944,"lon":3.9425},{"id":2008853,"name":"odo ona","country":"ng","lat":7.293889,"lon":3.867222},{"id":2015808,"name":"tejuosho","country":"ng","lat":7.1,"lon":3.6},{"id":1987334,"name":"dalley","country":"ng","lat":7.116667,"lon":3.9},{"id":2009842,"name":"oke-lisa","country":"ng","lat":6.597889,"lon":3.660261},{"id":2015000,"name":"sobande","country":"ng","lat":7.033333,"lon":3.566667},{"id":1996194,"name":"igode","country":"ng","lat":6.7,"lon":3.583333},{"id":1998255,"name":"ita-ereke","country":"ng","lat":6.96447,"lon":3.894436},{"id":2007394,"name":"neye","country":"ng","lat":7.45,"lon":4.216667},{"id":2003978,"name":"lodo","country":"ng","lat":7.116667,"lon":3.5},{"id":1980212,"name":"agura","country":"ng","lat":6.572818,"lon":3.62824},{"id":1992342,"name":"gbaleasun","country":"ng","lat":7.116667,"lon":3.6},{"id":1996462,"name":"ijemo","country":"ng","lat":6.876381,"lon":3.534802},{"id":1990380,"name":"erumu","country":"ng","lat":7.45,"lon":4.066667},{"id":1998288,"name":"itamoga","country":"ng","lat":6.631181,"lon":3.532817},{"id":2001796,"name":"korede","country":"ng","lat":7.15,"lon":3.566667},{"id":2009707,"name":"ojuolokun","country":"ng","lat":6.568728,"lon":3.963388},{"id":1984208,"name":"bagbagbelu","country":"ng","lat":6.660915,"lon":3.554962},{"id":1980904,"name":"akingbile","country":"ng","lat":7.216667,"lon":3.75},{"id":1983676,"name":"awotan","country":"ng","lat":7.443056,"lon":3.861944},{"id":1978575,"name":"aba-onigbagbo","country":"ng","lat":6.500111,"lon":4.091013},{"id":2010732,"name":"oloku","country":"ng","lat":7.016667,"lon":3.55},{"id":1981446,"name":"alapala","country":"ng","lat":7.35,"lon":4.483333},{"id":1982729,"name":"apoyin","country":"ng","lat":7.405833,"lon":3.752778},{"id":1985858,"name":"bola","country":"ng","lat":7.357222,"lon":3.796667},{"id":2009278,"name":"ogigo","country":"ng","lat":6.695513,"lon":3.511682},{"id":1980923,"name":"akinode","country":"ng","lat":7.265833,"lon":3.834167},{"id":1982106,"name":"amo","country":"ng","lat":7.25,"lon":4.45},{"id":2012517,"name":"papa malu","country":"ng","lat":7.493889,"lon":3.887222},{"id":2010966,"name":"oluwo ake","country":"ng","lat":7.05,"lon":3.983333},{"id":2006621,"name":"mujo","country":"ng","lat":7.25,"lon":3.583333},{"id":2012302,"name":"oyere fadehan","country":"ng","lat":7.216667,"lon":4.4},{"id":2015913,"name":"tijani","country":"ng","lat":7.310833,"lon":3.770833},{"id":1981706,"name":"alobaloke","country":"ng","lat":7.083333,"lon":4.15},{"id":1979961,"name":"agiri emu","country":"ng","lat":7.216667,"lon":4.3},{"id":1984704,"name":"banigbe","country":"ng","lat":7.366667,"lon":3.533333},{"id":1990009,"name":"elese erin","country":"ng","lat":7.216667,"lon":4.0},{"id":1980989,"name":"akogun","country":"ng","lat":7.216667,"lon":3.65},{"id":2003363,"name":"ladekin","country":"ng","lat":6.653357,"lon":3.921879},{"id":1982892,"name":"arinkinkin","country":"ng","lat":7.216667,"lon":4.2},{"id":1992373,"name":"gbara bagbimo","country":"ng","lat":6.908489,"lon":3.567164},{"id":2009396,"name":"ogunda","country":"ng","lat":7.15,"lon":3.533333},{"id":2011242,"name":"oniparaga","country":"ng","lat":6.721211,"lon":4.452862},{"id":2011234,"name":"oni","country":"ng","lat":6.529563,"lon":4.236876},{"id":2015075,"name":"solo","country":"ng","lat":7.0,"lon":3.583333},{"id":1980536,"name":"ajegunle","country":"ng","lat":7.15,"lon":4.333333},{"id":1998370,"name":"itoko","country":"ng","lat":7.15,"lon":3.683333},{"id":2008845,"name":"odo","country":"ng","lat":6.643869,"lon":3.770227},{"id":1996633,"name":"ikise","country":"ng","lat":6.725419,"lon":3.853746},{"id":1979244,"name":"adeleye","country":"ng","lat":7.45,"lon":4.033333},{"id":2011391,"name":"opebi","country":"ng","lat":7.1,"lon":3.916667},{"id":1981035,"name":"akowide","country":"ng","lat":7.433333,"lon":4.316667},{"id":1990265,"name":"epo","country":"ng","lat":7.298333,"lon":3.925},{"id":1979707,"name":"agbaju","country":"ng","lat":7.316667,"lon":3.533333},{"id":1995945,"name":"igbein","country":"ng","lat":6.87163,"lon":3.513121},{"id":2014362,"name":"sedu","country":"ng","lat":6.566667,"lon":3.833333},{"id":2008258,"name":"oba","country":"ng","lat":7.283333,"lon":4.35},{"id":1979177,"name":"ade","country":"ng","lat":7.283333,"lon":3.533333},{"id":1989383,"name":"egbeda tuba","country":"ng","lat":7.276667,"lon":3.995556},{"id":1982237,"name":"anaye","country":"ng","lat":7.259444,"lon":3.966667},{"id":1997657,"name":"imuwen","country":"ng","lat":6.760972,"lon":4.022437},{"id":1989397,"name":"egbe","country":"ng","lat":7.283333,"lon":3.716667},{"id":1998569,"name":"iyalode","country":"ng","lat":7.216667,"lon":3.95},{"id":1985844,"name":"boko","country":"ng","lat":7.412778,"lon":3.784722},{"id":1978696,"name":"abeku","country":"ng","lat":7.083333,"lon":4.05},{"id":2010603,"name":"oligbo","country":"ng","lat":7.1,"lon":4.016667},{"id":2009774,"name":"oke-arobi","country":"ng","lat":6.687126,"lon":3.601963},{"id":1982647,"name":"apata","country":"ng","lat":6.570572,"lon":4.350303},{"id":1992521,"name":"gbongan","country":"ng","lat":7.466667,"lon":4.35},{"id":1983554,"name":"awanibaku","country":"ng","lat":7.366944,"lon":3.953333},{"id":1989382,"name":"egbeda oko","country":"ng","lat":7.2,"lon":4.266667},{"id":2015038,"name":"sogbodun","country":"ng","lat":6.733333,"lon":3.616667},{"id":2011184,"name":"onijapa","country":"ng","lat":7.016667,"lon":3.616667},{"id":2012730,"name":"poka","country":"ng","lat":6.617374,"lon":3.983543},{"id":2009767,"name":"okealafia","country":"ng","lat":6.727634,"lon":4.444928},{"id":1995365,"name":"ibiyade","country":"ng","lat":6.536476,"lon":4.333726},{"id":1983213,"name":"ason","country":"ng","lat":6.572202,"lon":3.518424},{"id":1997533,"name":"ilusin","country":"ng","lat":6.523448,"lon":4.388441},{"id":1979342,"name":"adio station","country":"ng","lat":7.393889,"lon":3.753611},{"id":1980915,"name":"akinlalu","country":"ng","lat":7.466667,"lon":4.416667},{"id":1997971,"name":"isade","country":"ng","lat":6.80866,"lon":3.970346},{"id":1979878,"name":"agbowa","country":"ng","lat":6.643289,"lon":3.712314},{"id":1980439,"name":"ajagi","country":"ng","lat":7.283333,"lon":3.683333},{"id":2015907,"name":"tigbori","country":"ng","lat":6.752822,"lon":4.131841},{"id":1998789,"name":"jagun","country":"ng","lat":7.260556,"lon":3.926667},{"id":2010805,"name":"olorunda","country":"ng","lat":7.216667,"lon":3.85},{"id":1980597,"name":"ajiboye","country":"ng","lat":7.4,"lon":4.433333},{"id":2014109,"name":"sangode","country":"ng","lat":7.166667,"lon":4.066667},{"id":2008535,"name":"obospkoto","country":"ng","lat":7.311389,"lon":3.760556},{"id":2012501,"name":"panu","country":"ng","lat":7.083333,"lon":3.866667},{"id":1999069,"name":"jatina","country":"ng","lat":7.383333,"lon":4.416667},{"id":1982789,"name":"araromi balogun","country":"ng","lat":7.05,"lon":4.216667},{"id":1978814,"name":"aboba","country":"ng","lat":7.433333,"lon":4.216667},{"id":2014555,"name":"shala","country":"ng","lat":6.620977,"lon":3.913669},{"id":2000686,"name":"kasela","country":"ng","lat":7.475556,"lon":3.956111},{"id":2015892,"name":"tidenuren","country":"ng","lat":6.644357,"lon":4.164215},{"id":1983113,"name":"asehan","country":"ng","lat":6.99209,"lon":3.578559},{"id":2008709,"name":"ode","country":"ng","lat":7.482778,"lon":3.995556},{"id":1990682,"name":"eyinwa","country":"ng","lat":6.748405,"lon":3.787365},{"id":2011858,"name":"ososa","country":"ng","lat":6.794565,"lon":3.855986},{"id":2011017,"name":"omiyale","country":"ng","lat":7.346667,"lon":3.925833},{"id":1983671,"name":"awori","country":"ng","lat":7.0,"lon":3.85},{"id":2010707,"name":"olokofefe","country":"ng","lat":7.307222,"lon":3.836389},{"id":1990278,"name":"eredo","country":"ng","lat":6.708363,"lon":3.913656},{"id":1997983,"name":"isagolu","country":"ng","lat":7.1,"lon":3.666667},{"id":1997604,"name":"imobi junction","country":"ng","lat":6.733805,"lon":4.213954},{"id":1995702,"name":"idono","country":"ng","lat":6.787579,"lon":3.978954},{"id":1997068,"name":"ikoto","country":"ng","lat":6.799344,"lon":3.941858},{"id":2010694,"name":"olojo","country":"ng","lat":6.956731,"lon":3.586168},{"id":1979711,"name":"agbaku","country":"ng","lat":6.65,"lon":3.583333},{"id":2011306,"name":"ononsenlu-alako","country":"ng","lat":6.85,"lon":4.0},{"id":1980959,"name":"akiriboto elede","country":"ng","lat":7.45,"lon":4.35},{"id":1996440,"name":"ijebu-ife","country":"ng","lat":6.778366,"lon":4.033863},{"id":1983921,"name":"baase iporo","country":"ng","lat":7.183333,"lon":3.616667},{"id":1998171,"name":"isiwo","country":"ng","lat":6.70654,"lon":3.959954},{"id":1997385,"name":"ile igbon","country":"ng","lat":7.483333,"lon":4.083333},{"id":1992436,"name":"gbeleyi","country":"ng","lat":7.316667,"lon":4.033333},{"id":2010909,"name":"olugbo","country":"ng","lat":7.216667,"lon":3.616667},{"id":2009868,"name":"oke-odo","country":"ng","lat":6.641341,"lon":3.755405},{"id":1982960,"name":"arowojede","country":"ng","lat":7.250278,"lon":3.880278},{"id":1998197,"name":"isomu","country":"ng","lat":6.839777,"lon":4.040202},{"id":1979266,"name":"adeoye","country":"ng","lat":7.434444,"lon":3.949722},{"id":1997641,"name":"imowo","country":"ng","lat":6.877151,"lon":4.059738},{"id":1997337,"name":"ilaporu","country":"ng","lat":6.954632,"lon":3.941441},{"id":1997842,"name":"ipetoro","country":"ng","lat":6.741733,"lon":3.524175},{"id":1995827,"name":"ifodo","country":"ng","lat":6.853046,"lon":4.056172},{"id":1981383,"name":"alaha","country":"ng","lat":7.283333,"lon":4.366667},{"id":1990850,"name":"fajege","country":"ng","lat":6.767356,"lon":3.60539},{"id":1980382,"name":"aiyegun nla","country":"ng","lat":7.433333,"lon":4.183333},{"id":1990987,"name":"fasan","country":"ng","lat":7.483333,"lon":3.716667},{"id":1988109,"name":"deboro","country":"ng","lat":7.033333,"lon":3.516667},{"id":2008839,"name":"odo oba","country":"ng","lat":7.466667,"lon":4.133333},{"id":2008376,"name":"obideyi","country":"ng","lat":7.183333,"lon":4.05},{"id":2010973,"name":"oluwo","country":"ng","lat":7.216667,"lon":3.766667},{"id":1980936,"name":"akintobi","country":"ng","lat":7.316667,"lon":3.55},{"id":1995613,"name":"idiogun","country":"ng","lat":7.266667,"lon":4.016667},{"id":2009754,"name":"okasha","country":"ng","lat":7.166667,"lon":3.683333},{"id":2003737,"name":"lawgbara","country":"ng","lat":6.916667,"lon":3.566667},{"id":1998315,"name":"itawkaw","country":"ng","lat":7.316667,"lon":3.683333},{"id":1978710,"name":"aberebi","country":"ng","lat":6.790418,"lon":3.528071},{"id":1995477,"name":"idagbo","country":"ng","lat":6.747737,"lon":3.934853},{"id":2011262,"name":"onisopi","country":"ng","lat":6.834635,"lon":3.575194},{"id":2016017,"name":"tiyanbaki","country":"ng","lat":6.966389,"lon":4.090131},{"id":2010803,"name":"olorunda","country":"ng","lat":6.642779,"lon":3.582889},{"id":1980647,"name":"ajiwogbo","country":"ng","lat":7.483333,"lon":4.05},{"id":2006363,"name":"moga","country":"ng","lat":7.344167,"lon":3.956667},{"id":2009763,"name":"oke agbo","country":"ng","lat":6.6,"lon":3.65},{"id":1988679,"name":"doya","country":"ng","lat":7.45,"lon":4.483333},{"id":2010148,"name":"okose","country":"ng","lat":7.45,"lon":3.7},{"id":1999025,"name":"jaranso","country":"ng","lat":7.35,"lon":4.35},{"id":2010930,"name":"olukunle","country":"ng","lat":7.383333,"lon":4.35},{"id":2010892,"name":"olugbemi","country":"ng","lat":7.320278,"lon":3.791389},{"id":1981463,"name":"alapinni","country":"ng","lat":7.116667,"lon":4.066667},{"id":2010790,"name":"olori","country":"ng","lat":7.216667,"lon":3.55},{"id":2021462,"name":"yegunda","country":"ng","lat":6.506294,"lon":4.023974},{"id":1980588,"name":"ajibo","country":"ng","lat":7.466667,"lon":4.283333},{"id":2015115,"name":"soso","country":"ng","lat":7.441389,"lon":3.800278},{"id":1980935,"name":"akintayo","country":"ng","lat":7.383333,"lon":4.016667},{"id":2010768,"name":"olonde","country":"ng","lat":7.1,"lon":3.933333},{"id":1992517,"name":"gbomo","country":"ng","lat":6.793106,"lon":3.597377},{"id":1980524,"name":"ajebandele","country":"ng","lat":6.73458,"lon":4.39954},{"id":1995944,"name":"igbein","country":"ng","lat":6.676992,"lon":3.72857},{"id":2006455,"name":"mopenifa","country":"ng","lat":6.683333,"lon":3.6},{"id":2011566,"name":"ori-ita","country":"ng","lat":6.547765,"lon":4.079401},{"id":1980811,"name":"ake","country":"ng","lat":7.260833,"lon":3.767778},{"id":1981291,"name":"alabakan amututu","country":"ng","lat":7.233333,"lon":4.483333},{"id":2008874,"name":"odo-senlu","country":"ng","lat":6.706268,"lon":3.7148},{"id":2008875,"name":"odosenlu","country":"ng","lat":6.990008,"lon":3.837799},{"id":1982894,"name":"arinola","country":"ng","lat":7.416667,"lon":4.416667},{"id":2012309,"name":"oyewo","country":"ng","lat":6.566667,"lon":3.6},{"id":2006508,"name":"mosinmi","country":"ng","lat":7.083333,"lon":4.083333},{"id":1983331,"name":"atare","country":"ng","lat":7.45,"lon":4.05},{"id":1990866,"name":"fakorede","country":"ng","lat":7.345833,"lon":3.989444},{"id":2008868,"name":"odoroga","country":"ng","lat":6.749649,"lon":4.010261},{"id":1979945,"name":"agidi","country":"ng","lat":7.383333,"lon":4.45},{"id":1998287,"name":"itamerio","country":"ng","lat":6.749215,"lon":3.598333},{"id":1979905,"name":"agelu","country":"ng","lat":7.410278,"lon":3.833889},{"id":1995408,"name":"ibonwon","country":"ng","lat":6.671786,"lon":3.996217},{"id":1979066,"name":"adabiaran","country":"ng","lat":7.266667,"lon":4.166667},{"id":2022034,"name":"zion","country":"ng","lat":6.533875,"lon":4.398015},{"id":1978880,"name":"abosioto","country":"ng","lat":6.520458,"lon":4.09248},{"id":1983666,"name":"awon","country":"ng","lat":7.083333,"lon":3.833333},{"id":1980187,"name":"agunboye imoru","country":"ng","lat":6.933333,"lon":4.016667},{"id":2011810,"name":"oshun budepo","country":"ng","lat":7.033333,"lon":4.066667},{"id":2010871,"name":"olube","country":"ng","lat":7.166667,"lon":3.983333},{"id":1990982,"name":"faru bale","country":"ng","lat":7.266667,"lon":4.283333},{"id":1990986,"name":"faruku","country":"ng","lat":7.281389,"lon":3.887222},{"id":1983219,"name":"asoro","country":"ng","lat":7.406667,"lon":3.849722},{"id":2009765,"name":"oke-ako","country":"ng","lat":6.747662,"lon":3.981481},{"id":1997440,"name":"ilishan","country":"ng","lat":6.895082,"lon":3.714246},{"id":2010690,"name":"oloje","country":"ng","lat":7.233333,"lon":3.966667},{"id":2009462,"name":"oguntoye","country":"ng","lat":6.633333,"lon":3.6},{"id":2010628,"name":"olode ayope","country":"ng","lat":7.216667,"lon":4.266667},{"id":2001155,"name":"ketesan","country":"ng","lat":7.266667,"lon":4.25},{"id":1978700,"name":"abemaw","country":"ng","lat":7.483333,"lon":3.566667},{"id":1981027,"name":"akoso","country":"ng","lat":7.366667,"lon":3.566667},{"id":2009900,"name":"oke oran","country":"ng","lat":7.2,"lon":4.25},{"id":2011202,"name":"onikoko","country":"ng","lat":7.283333,"lon":3.6},{"id":2008915,"name":"odunbaku","country":"ng","lat":7.283333,"lon":3.5},{"id":1995663,"name":"idofe","country":"ng","lat":6.783333,"lon":4.033333},{"id":2001621,"name":"koku","country":"ng","lat":7.2,"lon":3.616667},{"id":1979545,"name":"afolu ibadan","country":"ng","lat":7.25,"lon":4.216667},{"id":1979845,"name":"agbon","country":"ng","lat":7.424444,"lon":3.973056},{"id":2011561,"name":"origbe","country":"ng","lat":6.615736,"lon":4.445243},{"id":1990351,"name":"eri oburo","country":"ng","lat":6.866667,"lon":4.05},{"id":1979280,"name":"adesina","country":"ng","lat":7.346389,"lon":3.962778},{"id":1978611,"name":"abata","country":"ng","lat":7.016667,"lon":3.883333},{"id":2010535,"name":"olaoye","country":"ng","lat":7.276111,"lon":3.799444},{"id":1980675,"name":"ajura","country":"ng","lat":6.960172,"lon":3.606745},{"id":2014961,"name":"sinko","country":"ng","lat":7.435,"lon":3.751667},{"id":2003431,"name":"lagbaja","country":"ng","lat":7.183333,"lon":4.283333},{"id":2015831,"name":"temidire","country":"ng","lat":6.71781,"lon":4.252366},{"id":2011281,"name":"oniyangi","country":"ng","lat":7.273611,"lon":3.781667},{"id":2008729,"name":"odewunmi","country":"ng","lat":7.458611,"lon":3.774444},{"id":1979290,"name":"adewumi","country":"ng","lat":7.35,"lon":4.05},{"id":1997939,"name":"iro","country":"ng","lat":6.663782,"lon":4.119373},{"id":1996665,"name":"ikongba","country":"ng","lat":6.70814,"lon":3.810413},{"id":1991623,"name":"gande","country":"ng","lat":7.116667,"lon":3.966667},{"id":1980900,"name":"akinfenwa","country":"ng","lat":7.381111,"lon":3.956667},{"id":1998190,"name":"isoku","country":"ng","lat":6.887538,"lon":3.519189},{"id":1992309,"name":"gbagidan","country":"ng","lat":6.6,"lon":3.616667},{"id":2012269,"name":"oyadina","country":"ng","lat":7.416667,"lon":3.7},{"id":2013780,"name":"sadu","country":"ng","lat":7.25,"lon":3.566667},{"id":2003686,"name":"lasegbe","country":"ng","lat":7.250833,"lon":3.965},{"id":2010660,"name":"ologbun","country":"ng","lat":6.762717,"lon":3.50868},{"id":2003767,"name":"ledaba","country":"ng","lat":6.514801,"lon":3.713586},{"id":2016084,"name":"tomoba","country":"ng","lat":6.689474,"lon":4.060685},{"id":1996593,"name":"ikene","country":"ng","lat":6.865789,"lon":3.715179},{"id":2012513,"name":"papa bale","country":"ng","lat":7.05,"lon":4.05},{"id":1983953,"name":"babajebu","country":"ng","lat":7.116667,"lon":4.033333},{"id":1984729,"name":"bankole","country":"ng","lat":7.2,"lon":3.766667},{"id":1983293,"name":"atalapa","country":"ng","lat":7.418056,"lon":3.800833},{"id":2016076,"name":"tololu","country":"ng","lat":6.898764,"lon":4.086692},{"id":2008811,"name":"odo-gbuwa","country":"ng","lat":6.782309,"lon":3.769505},{"id":1983399,"name":"atowo","country":"ng","lat":7.266667,"lon":4.45},{"id":1995639,"name":"idiroko","country":"ng","lat":7.475833,"lon":3.925278},{"id":2003381,"name":"lafalu","country":"ng","lat":6.929447,"lon":3.506998},{"id":1979100,"name":"adakorigbo","country":"ng","lat":7.166667,"lon":3.5},{"id":1981725,"name":"alomaja","country":"ng","lat":7.2675,"lon":3.857778},{"id":1981384,"name":"alaho","country":"ng","lat":7.166667,"lon":3.8},{"id":2011221,"name":"onileowo","country":"ng","lat":7.399722,"lon":3.989167},{"id":2000498,"name":"karangbada","country":"ng","lat":7.166667,"lon":3.9},{"id":1997948,"name":"irolu","country":"ng","lat":6.903246,"lon":3.741701},{"id":1995990,"name":"igbin","country":"ng","lat":7.166667,"lon":3.6},{"id":1981549,"name":"alegongo","country":"ng","lat":7.441944,"lon":3.953611},{"id":1980977,"name":"akobo","country":"ng","lat":7.43,"lon":3.938889},{"id":1981381,"name":"alagutan","country":"ng","lat":7.15,"lon":4.15},{"id":1983536,"name":"awaiye","country":"ng","lat":7.166667,"lon":4.35},{"id":2003598,"name":"lana egun","country":"ng","lat":7.15,"lon":4.05},{"id":1985977,"name":"boru","country":"ng","lat":7.1,"lon":3.516667},{"id":1984135,"name":"badiru nuga","country":"ng","lat":7.0,"lon":3.8},{"id":1992508,"name":"gbokutaru sewu","country":"ng","lat":7.05,"lon":4.15},{"id":1979688,"name":"agbada","country":"ng","lat":7.348611,"lon":3.785556},{"id":2015022,"name":"sodipe","country":"ng","lat":7.0,"lon":3.5},{"id":1989992,"name":"elepo","country":"ng","lat":7.3,"lon":4.083333},{"id":2011883,"name":"osun aro","country":"ng","lat":7.25,"lon":3.983333},{"id":1980479,"name":"ajanla","country":"ng","lat":7.233333,"lon":3.816667},{"id":1979838,"name":"agbole","country":"ng","lat":6.660286,"lon":3.737205},{"id":1997654,"name":"imushin","country":"ng","lat":6.8,"lon":4.0},{"id":1979234,"name":"adekola","country":"ng","lat":7.383333,"lon":4.05},{"id":1981771,"name":"alwo-esin","country":"ng","lat":7.416667,"lon":3.733333},{"id":1995885,"name":"igbaga","country":"ng","lat":6.76881,"lon":3.981232},{"id":1996474,"name":"ijesha","country":"ng","lat":6.90974,"lon":3.770914},{"id":1982807,"name":"araromi owu","country":"ng","lat":7.166667,"lon":4.366667},{"id":1989266,"name":"edina","country":"ng","lat":6.772077,"lon":3.590261},{"id":1995626,"name":"idi orogbo","country":"ng","lat":6.983333,"lon":3.533333},{"id":1982641,"name":"aparaki","country":"ng","lat":6.909648,"lon":3.97704},{"id":1996618,"name":"iki","country":"ng","lat":6.71943,"lon":3.606256},{"id":1984509,"name":"bale oja","country":"ng","lat":7.283333,"lon":4.283333},{"id":2020484,"name":"wasimi ijemo","country":"ng","lat":7.233333,"lon":3.683333},{"id":1982613,"name":"apabiekun","country":"ng","lat":7.233333,"lon":4.016667},{"id":1997902,"name":"iraye","country":"ng","lat":6.725332,"lon":3.591105},{"id":2003494,"name":"lakehinde","country":"ng","lat":7.15,"lon":3.65},{"id":2011486,"name":"oran","country":"ng","lat":7.2,"lon":4.216667},{"id":1980918,"name":"akinlolu","country":"ng","lat":7.25,"lon":3.716667},{"id":2006480,"name":"moro","country":"ng","lat":6.739732,"lon":3.581185},{"id":2009423,"name":"ogunleye","country":"ng","lat":7.066667,"lon":3.716667},{"id":1980891,"name":"akinbo ade","country":"ng","lat":7.383333,"lon":4.466667},{"id":2006055,"name":"mekun","country":"ng","lat":7.351111,"lon":3.790556},{"id":1978488,"name":"aba ige","country":"ng","lat":7.265556,"lon":3.898333},{"id":1979313,"name":"adie","country":"ng","lat":7.316667,"lon":4.283333},{"id":1982551,"name":"anwo","country":"ng","lat":7.315833,"lon":3.94},{"id":1996384,"name":"ijagon","country":"ng","lat":6.810643,"lon":3.540079},{"id":1989138,"name":"ebinpejo","country":"ng","lat":7.116667,"lon":3.666667},{"id":1979895,"name":"agbure","country":"ng","lat":6.553396,"lon":4.402675},{"id":2011578,"name":"orile-makun","country":"ng","lat":6.854495,"lon":3.627241},{"id":2011224,"name":"onilu","country":"ng","lat":7.25,"lon":4.083333},{"id":2010683,"name":"ologun","country":"ng","lat":7.379167,"lon":3.815278},{"id":2003650,"name":"lapade","country":"ng","lat":7.473611,"lon":3.818056},{"id":2008785,"name":"ododeyo","country":"ng","lat":6.899402,"lon":4.06718},{"id":1990880,"name":"falana","country":"ng","lat":6.571044,"lon":3.529281},{"id":2008736,"name":"odi aperin","country":"ng","lat":7.315,"lon":3.995},{"id":2009800,"name":"oke-eki","country":"ng","lat":6.861853,"lon":4.053706},{"id":1982839,"name":"are","country":"ng","lat":7.1,"lon":3.566667},{"id":1979265,"name":"adeoti","country":"ng","lat":7.166667,"lon":4.45},{"id":1997924,"name":"irewon","country":"ng","lat":6.848395,"lon":3.919672},{"id":1989912,"name":"elegbeje","country":"ng","lat":7.166667,"lon":4.333333},{"id":1982174,"name":"amukegun ibadan","country":"ng","lat":7.283333,"lon":4.466667},{"id":2015896,"name":"tidowo","country":"ng","lat":6.896002,"lon":4.098886},{"id":2010599,"name":"oleyo market","country":"ng","lat":7.316667,"lon":3.8},{"id":2012035,"name":"otunbakoga","country":"ng","lat":6.833333,"lon":3.55},{"id":2006501,"name":"mosero","country":"ng","lat":7.316667,"lon":3.5},{"id":2007345,"name":"nene","country":"ng","lat":6.972253,"lon":3.873965},{"id":2021049,"name":"yabiye","country":"ng","lat":7.352222,"lon":3.846667},{"id":2015460,"name":"take","country":"ng","lat":6.536091,"lon":4.084225},{"id":1990466,"name":"esure","country":"ng","lat":6.783333,"lon":4.0},{"id":2003433,"name":"lagbarun","country":"ng","lat":6.700837,"lon":3.908236},{"id":1989453,"name":"ege","country":"ng","lat":7.403056,"lon":3.767222},{"id":1979856,"name":"agbontu","country":"ng","lat":7.2,"lon":3.516667},{"id":2015073,"name":"sola","country":"ng","lat":7.433333,"lon":4.116667},{"id":1979300,"name":"adeyokun","country":"ng","lat":6.978322,"lon":3.521814},{"id":1996073,"name":"igboke","country":"ng","lat":6.683861,"lon":3.637264},{"id":1982691,"name":"apete","country":"ng","lat":7.449167,"lon":3.872222},{"id":1981736,"name":"alowo","country":"ng","lat":7.466667,"lon":3.733333},{"id":2001022,"name":"keita","country":"ng","lat":7.1,"lon":3.65},{"id":1998285,"name":"itamarun","country":"ng","lat":6.847645,"lon":4.008263},{"id":1995568,"name":"idi-egun","country":"ng","lat":6.988957,"lon":3.966584},{"id":2001641,"name":"kole","country":"ng","lat":7.283333,"lon":3.583333},{"id":2012042,"name":"otun","country":"ng","lat":7.2,"lon":3.883333},{"id":1979293,"name":"adeyadi","country":"ng","lat":7.416667,"lon":4.1},{"id":2008790,"name":"odo ekerin","country":"ng","lat":6.966667,"lon":3.883333},{"id":1980726,"name":"akaka","country":"ng","lat":6.963114,"lon":3.724747},{"id":1981445,"name":"alapako","country":"ng","lat":7.15,"lon":3.75},{"id":2011600,"name":"orisa","country":"ng","lat":7.416667,"lon":4.4},{"id":1978800,"name":"abiono","country":"ng","lat":7.336944,"lon":3.764722},{"id":1980456,"name":"ajala","country":"ng","lat":7.166667,"lon":3.633333},{"id":1980196,"name":"agunlodo","country":"ng","lat":7.35,"lon":4.1},{"id":1984007,"name":"baba sango","country":"ng","lat":7.233333,"lon":4.3},{"id":1997474,"name":"ilodo","country":"ng","lat":6.818688,"lon":4.006531},{"id":1997508,"name":"iloti","country":"ng","lat":6.72362,"lon":4.003393},{"id":2014114,"name":"sango","country":"ng","lat":7.4275,"lon":3.880278},{"id":1980358,"name":"aiye","country":"ng","lat":7.366667,"lon":4.333333},{"id":1995608,"name":"idiobi","country":"ng","lat":7.216667,"lon":3.583333},{"id":1980610,"name":"ajikosun","country":"ng","lat":7.416667,"lon":4.283333},{"id":2011562,"name":"origbo","country":"ng","lat":7.216667,"lon":4.366667},{"id":2008768,"name":"odo-ajatun","country":"ng","lat":6.737575,"lon":3.955767},{"id":1982808,"name":"araromi tawpe","country":"ng","lat":6.509857,"lon":3.789521},{"id":2011582,"name":"orile owu","country":"ng","lat":7.25,"lon":4.333333},{"id":1984109,"name":"badawre","country":"ng","lat":6.5,"lon":3.616667},{"id":1992370,"name":"gbaoda","country":"ng","lat":7.483611,"lon":3.926111},{"id":1995219,"name":"ibadan","country":"ng","lat":7.387778,"lon":3.896389},{"id":1979214,"name":"adegbo","country":"ng","lat":7.183333,"lon":3.65},{"id":1995659,"name":"idode","country":"ng","lat":6.875329,"lon":4.06986},{"id":1991051,"name":"fenwa","country":"ng","lat":7.454444,"lon":3.787778},{"id":1982185,"name":"amunigun","country":"ng","lat":7.3975,"lon":3.774167},{"id":1982614,"name":"apadi","country":"ng","lat":7.233333,"lon":3.933333},{"id":2021514,"name":"yemoji","country":"ng","lat":6.766667,"lon":3.966667},{"id":1991183,"name":"fowosed","country":"ng","lat":6.618126,"lon":4.048626},{"id":1979879,"name":"agbowa","country":"ng","lat":6.823841,"lon":3.990672},{"id":2011518,"name":"orepete","country":"ng","lat":6.577017,"lon":3.762661},{"id":1983996,"name":"babapupa","country":"ng","lat":7.083333,"lon":3.816667},{"id":1998314,"name":"itawikin","country":"ng","lat":6.656277,"lon":3.795316},{"id":1978471,"name":"aba epo","country":"ng","lat":7.495,"lon":3.791389},{"id":1995405,"name":"ibon","country":"ng","lat":6.545505,"lon":3.742043},{"id":2001249,"name":"kilibi","country":"ng","lat":7.283333,"lon":4.433333},{"id":1996094,"name":"igbomowo","country":"ng","lat":6.720497,"lon":3.820876},{"id":1997606,"name":"imodi-ijasi","country":"ng","lat":6.739652,"lon":3.82941},{"id":2010818,"name":"olosa","country":"ng","lat":7.301667,"lon":3.8275},{"id":2016050,"name":"togusilu","country":"ng","lat":6.649047,"lon":4.20136},{"id":1990551,"name":"euni","country":"ng","lat":6.614232,"lon":3.900188},{"id":1980030,"name":"agogoro","country":"ng","lat":7.25,"lon":4.3},{"id":2011173,"name":"onigbodogi","country":"ng","lat":7.183333,"lon":3.75},{"id":1984539,"name":"balogun apomu","country":"ng","lat":7.216667,"lon":4.283333},{"id":2006607,"name":"mugo","country":"ng","lat":7.25,"lon":4.2},{"id":1978521,"name":"abaku","country":"ng","lat":7.266667,"lon":3.7},{"id":1990658,"name":"ewu-oliwo","country":"ng","lat":6.724182,"lon":3.653684},{"id":1989568,"name":"eiyentale","country":"ng","lat":7.416667,"lon":4.383333},{"id":2012780,"name":"potoki","country":"ng","lat":6.916667,"lon":3.533333},{"id":1992486,"name":"gbogbo","country":"ng","lat":6.590183,"lon":3.515708},{"id":2012527,"name":"paraga","country":"ng","lat":7.016667,"lon":3.633333},{"id":1980520,"name":"ajebamidele","country":"ng","lat":7.066667,"lon":4.166667},{"id":1989926,"name":"eleiyele","country":"ng","lat":7.033333,"lon":3.583333},{"id":1992407,"name":"gbedeogun","country":"ng","lat":7.299722,"lon":3.9925},{"id":1982110,"name":"amodu","country":"ng","lat":7.2,"lon":4.033333},{"id":2011855,"name":"oso","country":"ng","lat":6.70833,"lon":4.309889},{"id":1979531,"name":"afo","country":"ng","lat":7.216667,"lon":3.666667},{"id":1979651,"name":"aganrigan","country":"ng","lat":7.083333,"lon":3.5},{"id":1980295,"name":"ahoro","country":"ng","lat":7.278889,"lon":3.769167},{"id":2005692,"name":"mayaka","country":"ng","lat":6.91603,"lon":3.509937},{"id":1987994,"name":"daso","country":"ng","lat":7.25,"lon":3.533333},{"id":1989399,"name":"egbeji","country":"ng","lat":7.083333,"lon":3.633333},{"id":1997409,"name":"ile olu","country":"ng","lat":7.25,"lon":3.633333},{"id":1978872,"name":"aborisade","country":"ng","lat":7.25,"lon":4.416667},{"id":1995667,"name":"idofin isale","country":"ng","lat":6.933333,"lon":3.566667},{"id":2008686,"name":"odebo","country":"ng","lat":7.3,"lon":3.666667},{"id":2012198,"name":"owode","country":"ng","lat":7.133333,"lon":4.383333},{"id":2009190,"name":"ogbo","country":"ng","lat":6.775307,"lon":3.923634},{"id":1980437,"name":"ajagbega","country":"ng","lat":7.295,"lon":3.765556},{"id":2013804,"name":"saga","country":"ng","lat":6.555537,"lon":4.086062},{"id":2011808,"name":"oshotan","country":"ng","lat":7.45,"lon":4.016667},{"id":2015044,"name":"sogoye","country":"ng","lat":6.944017,"lon":3.519277},{"id":2010662,"name":"ologede","country":"ng","lat":7.216667,"lon":4.466667},{"id":1979178,"name":"adeaga","country":"ng","lat":7.383333,"lon":3.683333},{"id":1980528,"name":"ajebo","country":"ng","lat":6.533333,"lon":3.533333},{"id":1997627,"name":"imoru","country":"ng","lat":6.617555,"lon":3.852961},{"id":1995628,"name":"idioro","country":"ng","lat":7.332778,"lon":3.855},{"id":1998368,"name":"itoko","country":"ng","lat":7.15,"lon":3.583333},{"id":2008767,"name":"odo-agboju","country":"ng","lat":6.692037,"lon":3.981741},{"id":2006400,"name":"molade","country":"ng","lat":7.333333,"lon":3.7},{"id":1996424,"name":"ijara","country":"ng","lat":7.474444,"lon":3.971667},{"id":1998299,"name":"ita-otu","country":"ng","lat":6.525385,"lon":4.352547},{"id":1982851,"name":"aremu","country":"ng","lat":7.333333,"lon":3.5},{"id":1980951,"name":"akio","country":"ng","lat":6.70148,"lon":3.736226},{"id":1983176,"name":"asi","country":"ng","lat":7.426389,"lon":3.931944},{"id":1979872,"name":"agboro","country":"ng","lat":7.266667,"lon":4.433333},{"id":1990773,"name":"fadaka","country":"ng","lat":7.15,"lon":4.466667},{"id":1989335,"name":"efon","country":"ng","lat":7.366667,"lon":3.633333},{"id":1982117,"name":"amogun","country":"ng","lat":7.298611,"lon":3.942222},{"id":2010741,"name":"ololo","country":"ng","lat":7.3,"lon":4.383333},{"id":1984120,"name":"badeku","country":"ng","lat":7.35,"lon":4.066667},{"id":2017603,"name":"uba","country":"ng","lat":6.628955,"lon":4.152667},{"id":2011576,"name":"orile_imo","country":"ng","lat":6.922943,"lon":3.560253},{"id":2010932,"name":"olukuta","country":"ng","lat":7.15,"lon":3.816667},{"id":1981441,"name":"alapadi","country":"ng","lat":6.641461,"lon":3.540757},{"id":1981479,"name":"alaro","country":"ng","lat":7.316667,"lon":4.383333},{"id":1997585,"name":"imewuro","country":"ng","lat":6.907813,"lon":4.064198},{"id":1982813,"name":"arawa","country":"ng","lat":7.05,"lon":3.9},{"id":1990822,"name":"fagbesa","country":"ng","lat":7.233333,"lon":4.466667},{"id":2000021,"name":"kaka","country":"ng","lat":7.05,"lon":3.8},{"id":1979863,"name":"agboran","country":"ng","lat":7.083333,"lon":3.583333},{"id":2009620,"name":"ojeke","country":"ng","lat":7.133333,"lon":3.5},{"id":2011545,"name":"oriba","country":"ng","lat":6.6,"lon":3.8},{"id":1985788,"name":"bodude","country":"ng","lat":7.233333,"lon":4.25},{"id":1989200,"name":"ebute oni","country":"ng","lat":6.534885,"lon":4.22313},{"id":1997807,"name":"ipakodo","country":"ng","lat":7.05,"lon":4.033333},{"id":1989928,"name":"eleiye oke","country":"ng","lat":7.333333,"lon":4.35},{"id":1982797,"name":"araromi logi","country":"ng","lat":7.016667,"lon":3.916667},{"id":2011157,"name":"onigambari","country":"ng","lat":7.133333,"lon":3.9},{"id":1978552,"name":"abanla","country":"ng","lat":7.216667,"lon":3.833333},{"id":2006406,"name":"molekere","country":"ng","lat":6.724091,"lon":3.534404},{"id":1997521,"name":"ilugun","country":"ng","lat":7.383333,"lon":3.666667},{"id":1996441,"name":"ijebu-igbo","country":"ng","lat":6.954813,"lon":4.004739},{"id":2008731,"name":"odeyinka","country":"ng","lat":7.316667,"lon":4.366667},{"id":2010882,"name":"olude araromi","country":"ng","lat":7.483056,"lon":3.838333},{"id":2010710,"name":"olokoko","country":"ng","lat":7.35,"lon":4.316667},{"id":2009873,"name":"oke odun","country":"ng","lat":6.716667,"lon":3.883333},{"id":1992448,"name":"gbenku","country":"ng","lat":7.433333,"lon":4.016667},{"id":2009818,"name":"oke igbala","country":"ng","lat":7.066667,"lon":3.633333},{"id":1990907,"name":"famia","country":"ng","lat":7.416667,"lon":4.433333},{"id":1988226,"name":"deyiola","country":"ng","lat":7.2,"lon":3.783333},{"id":2006546,"name":"moyopa","country":"ng","lat":6.557753,"lon":3.751428},{"id":2004158,"name":"lupaye","country":"ng","lat":6.572791,"lon":4.1314},{"id":2015869,"name":"tewon","country":"ng","lat":6.602061,"lon":3.943919},{"id":2011607,"name":"orita-atoyo","country":"ng","lat":6.805875,"lon":3.642582},{"id":2010769,"name":"olonde","country":"ng","lat":7.183333,"lon":3.816667},{"id":2008197,"name":"oba ado","country":"ng","lat":7.26,"lon":3.9325},{"id":1979213,"name":"adegbite","country":"ng","lat":7.360833,"lon":3.854722},{"id":2011204,"name":"onikokoro","country":"ng","lat":7.455556,"lon":3.962778},{"id":1980890,"name":"akinbiyi","country":"ng","lat":7.483333,"lon":3.733333},{"id":1980651,"name":"ajo","country":"ng","lat":7.4,"lon":4.333333},{"id":2002140,"name":"kudoro","country":"ng","lat":6.98086,"lon":3.582118},{"id":1998405,"name":"iturin","country":"ng","lat":6.808626,"lon":3.879991},{"id":2014845,"name":"shiwun","country":"ng","lat":6.95,"lon":3.533333},{"id":2003655,"name":"lapanpa","country":"ng","lat":7.233333,"lon":4.05},{"id":2011738,"name":"oru","country":"ng","lat":6.949516,"lon":3.943949},{"id":1979547,"name":"afolu oba","country":"ng","lat":7.266667,"lon":4.233333},{"id":1984132,"name":"badipe","country":"ng","lat":7.366667,"lon":3.733333},{"id":1996672,"name":"ikorodu","country":"ng","lat":6.615483,"lon":3.508673},{"id":1995698,"name":"idona","country":"ng","lat":6.88751,"lon":4.004564},{"id":2016024,"name":"toba","country":"ng","lat":7.066667,"lon":3.5},{"id":2009826,"name":"oke ijebu","country":"ng","lat":7.066667,"lon":3.7},{"id":2011014,"name":"omirin","country":"ng","lat":7.2,"lon":4.316667},{"id":1999003,"name":"janoke","country":"ng","lat":6.676875,"lon":3.620332},{"id":2010905,"name":"olugboka","country":"ng","lat":7.366667,"lon":3.666667},{"id":1998247,"name":"ita church","country":"ng","lat":7.066667,"lon":3.8},{"id":1995506,"name":"iddo","country":"ng","lat":7.471667,"lon":3.761667},{"id":1980930,"name":"akinsawe","country":"ng","lat":7.483333,"lon":4.1},{"id":1991107,"name":"fiowo","country":"ng","lat":7.483333,"lon":4.2},{"id":1989565,"name":"eiye alada","country":"ng","lat":7.366667,"lon":4.3},{"id":1984549,"name":"balogun itesi","country":"ng","lat":7.183333,"lon":3.583333},{"id":2011968,"name":"otogun","country":"ng","lat":6.596489,"lon":4.302274},{"id":1990253,"name":"epeh","country":"ng","lat":6.583333,"lon":3.983333},{"id":1983997,"name":"babapupa","country":"ng","lat":7.283333,"lon":3.666667},{"id":2004200,"name":"mabon","country":"ng","lat":7.116667,"lon":3.566667},{"id":2011013,"name":"omi onigbagbo","country":"ng","lat":7.383333,"lon":3.733333},{"id":2004061,"name":"lubawrawgi","country":"ng","lat":7.033333,"lon":3.866667},{"id":1996028,"name":"igbodu","country":"ng","lat":6.647277,"lon":3.912206},{"id":2008265,"name":"oba-oyinbo","country":"ng","lat":6.50705,"lon":4.093239},{"id":1981582,"name":"alhaji","country":"ng","lat":6.9296,"lon":3.532926},{"id":2009664,"name":"ojo egba","country":"ng","lat":7.3,"lon":3.733333},{"id":1980911,"name":"akinkemi","country":"ng","lat":7.216667,"lon":4.016667},{"id":1990140,"name":"emina","country":"ng","lat":6.55,"lon":4.083333},{"id":2009457,"name":"oguntedo","country":"ng","lat":7.183333,"lon":4.266667},{"id":1990180,"name":"emuren","country":"ng","lat":6.659812,"lon":3.518237},{"id":1997630,"name":"imosan","country":"ng","lat":6.863849,"lon":3.894007},{"id":1980409,"name":"aiyetoro","country":"ng","lat":7.301389,"lon":3.87},{"id":1992389,"name":"gbasemo-iye-fsulu","country":"ng","lat":7.033333,"lon":3.65},{"id":1996123,"name":"igbore","country":"ng","lat":6.553679,"lon":3.541062},{"id":2011677,"name":"orowe","country":"ng","lat":7.266667,"lon":4.183333},{"id":1998922,"name":"jamoje","country":"ng","lat":7.477778,"lon":3.899444},{"id":1990285,"name":"ere-ise","country":"ng","lat":6.566242,"lon":4.026996},{"id":1995860,"name":"iganmeji","country":"ng","lat":6.834141,"lon":4.010377},{"id":1982654,"name":"apatanganya","country":"ng","lat":7.384722,"lon":3.826111},{"id":1979971,"name":"ago","country":"ng","lat":6.936204,"lon":3.921992},{"id":1990485,"name":"etebu","country":"ng","lat":6.885258,"lon":4.053533},{"id":2013915,"name":"salami","country":"ng","lat":7.3,"lon":4.45},{"id":1980612,"name":"ajila","country":"ng","lat":7.233333,"lon":3.866667},{"id":1998787,"name":"jagun elesin","country":"ng","lat":7.354722,"lon":3.983333},{"id":1980914,"name":"akinlade","country":"ng","lat":7.183333,"lon":4.0},{"id":1998004,"name":"isamuro","country":"ng","lat":6.972163,"lon":3.832376},{"id":2006091,"name":"merinso","country":"ng","lat":7.166667,"lon":4.316667},{"id":1984359,"name":"bakatari","country":"ng","lat":7.4,"lon":3.7},{"id":1985585,"name":"biolorunpelu","country":"ng","lat":6.526118,"lon":3.905149},{"id":2010730,"name":"olokun","country":"ng","lat":7.4,"lon":3.6},{"id":2011160,"name":"onigari","country":"ng","lat":6.705741,"lon":3.893463},{"id":1995576,"name":"idifa","country":"ng","lat":7.316667,"lon":4.433333},{"id":2008939,"name":"ofanran","country":"ng","lat":7.033333,"lon":3.55},{"id":1988267,"name":"digbolu","country":"ng","lat":7.05,"lon":3.966667},{"id":1982874,"name":"arigbabu","country":"ng","lat":6.782523,"lon":3.563891},{"id":1996463,"name":"ijemo","country":"ng","lat":7.166667,"lon":3.666667},{"id":2006319,"name":"mobarode","country":"ng","lat":6.936998,"lon":3.881928},{"id":2014378,"name":"seidu","country":"ng","lat":6.724099,"lon":3.513773},{"id":1980834,"name":"akere","country":"ng","lat":7.478889,"lon":3.834444},{"id":2003573,"name":"lamija","country":"ng","lat":6.519196,"lon":3.92046},{"id":1997663,"name":"inalende","country":"ng","lat":7.458056,"lon":3.807222},{"id":2009421,"name":"ogunlenu","country":"ng","lat":6.9956,"lon":3.842828},{"id":1992592,"name":"gege","country":"ng","lat":7.431111,"lon":3.830833},{"id":2009801,"name":"oke eletu","country":"ng","lat":6.6,"lon":3.583333},{"id":2012275,"name":"oyarinde","country":"ng","lat":7.317222,"lon":3.778611},{"id":1985109,"name":"batolu","country":"ng","lat":6.969193,"lon":3.503964},{"id":1980874,"name":"akila","country":"ng","lat":6.618781,"lon":4.32893},{"id":1979251,"name":"ademu","country":"ng","lat":7.4825,"lon":3.890556},{"id":2011890,"name":"osun","country":"ng","lat":7.016667,"lon":3.5},{"id":1998545,"name":"iyabo","country":"ng","lat":7.433333,"lon":4.1},{"id":2009039,"name":"oga","country":"ng","lat":6.808464,"lon":3.514871},{"id":1980319,"name":"aiebiosu","country":"ng","lat":7.016667,"lon":3.9},{"id":1992304,"name":"gbagba koto","country":"ng","lat":7.282222,"lon":3.997222},{"id":2009859,"name":"okenla","country":"ng","lat":6.705629,"lon":4.055488},{"id":2010643,"name":"olofin","country":"ng","lat":7.066667,"lon":3.666667},{"id":1997263,"name":"ikumapayi","country":"ng","lat":7.416667,"lon":4.016667},{"id":1983401,"name":"atoyo","country":"ng","lat":6.757758,"lon":4.085645},{"id":2008733,"name":"odi adejale","country":"ng","lat":7.316667,"lon":4.016667},{"id":2010653,"name":"ologbin","country":"ng","lat":7.25,"lon":4.266667},{"id":1990884,"name":"faleke","country":"ng","lat":6.705909,"lon":3.560793},{"id":1998783,"name":"jaguna","country":"ng","lat":6.540365,"lon":3.970363},{"id":1989516,"name":"egun olomu","country":"ng","lat":7.25,"lon":4.183333},{"id":2010836,"name":"olowiwi","country":"ng","lat":7.133333,"lon":4.016667},{"id":2011889,"name":"osunlepo","country":"ng","lat":7.466667,"lon":4.183333},{"id":1981304,"name":"alabuke","country":"ng","lat":7.383333,"lon":4.116667},{"id":1985769,"name":"bode igbo","country":"ng","lat":7.393333,"lon":3.79},{"id":2009403,"name":"ogundepo","country":"ng","lat":7.312222,"lon":3.966667},{"id":1998395,"name":"ituko","country":"ng","lat":7.216667,"lon":4.083333},{"id":2011574,"name":"orile-igbein","country":"ng","lat":6.880683,"lon":3.511154},{"id":1997631,"name":"imosu dani","country":"ng","lat":6.933333,"lon":3.816667},{"id":1990339,"name":"erinje","country":"ng","lat":7.45,"lon":4.466667},{"id":1981430,"name":"alamu","country":"ng","lat":7.381111,"lon":3.823333},{"id":1982131,"name":"amoloko","country":"ng","lat":7.283333,"lon":4.183333},{"id":2001429,"name":"koari","country":"ng","lat":7.350278,"lon":3.971667},{"id":2015208,"name":"sumoge","country":"ng","lat":6.591053,"lon":4.279289},{"id":1988624,"name":"dopanu","country":"ng","lat":6.586014,"lon":4.152306},{"id":2004011,"name":"lokoro","country":"ng","lat":7.466667,"lon":4.2},{"id":2014289,"name":"sasawo","country":"ng","lat":7.066667,"lon":3.75},{"id":2009219,"name":"ogede","country":"ng","lat":7.0,"lon":3.516667},{"id":1981718,"name":"aloko","country":"ng","lat":7.466667,"lon":4.0},{"id":1990657,"name":"ewu-ogun","country":"ng","lat":6.832077,"lon":3.500728},{"id":1987059,"name":"dabongbo","country":"ng","lat":7.116667,"lon":4.233333},{"id":1990854,"name":"fajo","country":"ng","lat":7.485556,"lon":3.941944},{"id":2012727,"name":"podo","country":"ng","lat":7.315278,"lon":3.87},{"id":2010155,"name":"okoto ajegunle","country":"ng","lat":6.8,"lon":3.616667},{"id":2015128,"name":"sowo","country":"ng","lat":6.762021,"lon":3.660955},{"id":1997603,"name":"imobi","country":"ng","lat":6.599982,"lon":4.167117},{"id":2014680,"name":"shekungba","country":"ng","lat":6.633333,"lon":3.883333},{"id":1998515,"name":"iwopin","country":"ng","lat":6.508745,"lon":4.172277},{"id":2009464,"name":"ogunwehinde","country":"ng","lat":7.456389,"lon":3.758056},{"id":1996569,"name":"ikefa","country":"ng","lat":7.263333,"lon":3.8475},{"id":2003316,"name":"labada","country":"ng","lat":6.52659,"lon":3.713857},{"id":1996029,"name":"igbodu","country":"ng","lat":6.791485,"lon":4.067234},{"id":2003428,"name":"lagan","country":"ng","lat":7.033333,"lon":3.9},{"id":2014702,"name":"shemore","country":"ng","lat":7.033333,"lon":3.8},{"id":1997870,"name":"iporo adesegun","country":"ng","lat":7.2,"lon":3.533333},{"id":1997543,"name":"imagbon","country":"ng","lat":6.765404,"lon":3.961598},{"id":1990283,"name":"eregu","country":"ng","lat":6.726457,"lon":4.232148},{"id":2010644,"name":"olofin","country":"ng","lat":7.416667,"lon":3.633333},{"id":1992481,"name":"gbodomo","country":"ng","lat":6.764206,"lon":3.561084},{"id":2010960,"name":"oluwada","country":"ng","lat":7.466667,"lon":4.383333},{"id":1992396,"name":"gbawojo","country":"ng","lat":6.924561,"lon":4.040251},{"id":2003341,"name":"labori","country":"ng","lat":6.737562,"lon":3.526314},{"id":1998008,"name":"isan","country":"ng","lat":7.066667,"lon":3.55},{"id":2001071,"name":"kemta","country":"ng","lat":7.25,"lon":3.666667},{"id":1997582,"name":"imeseju","country":"ng","lat":6.64474,"lon":3.824018},{"id":1979871,"name":"agboro","country":"ng","lat":7.1,"lon":3.616667},{"id":2011284,"name":"oniyanrin","country":"ng","lat":7.383333,"lon":3.6},{"id":2002522,"name":"kura","country":"ng","lat":7.083333,"lon":3.75},{"id":2012290,"name":"oyejobi","country":"ng","lat":7.133333,"lon":4.033333},{"id":1997811,"name":"ipara","country":"ng","lat":7.0,"lon":3.666667},{"id":1998243,"name":"ita-alasela","country":"ng","lat":6.767032,"lon":3.640954},{"id":2013870,"name":"saka","country":"ng","lat":7.340556,"lon":3.935556},{"id":1990025,"name":"eletu","country":"ng","lat":7.316667,"lon":4.116667},{"id":2009218,"name":"ogedengbe","country":"ng","lat":7.083333,"lon":4.166667},{"id":1987076,"name":"dada","country":"ng","lat":7.15,"lon":4.1},{"id":1990680,"name":"eyinodo","country":"ng","lat":6.98608,"lon":3.927628},{"id":1984213,"name":"bagbon","country":"ng","lat":7.266667,"lon":3.583333},{"id":2007944,"name":"ntoji","country":"ng","lat":7.183333,"lon":3.533333},{"id":2005040,"name":"malara","country":"ng","lat":6.650055,"lon":4.157029},{"id":1980658,"name":"ajola","country":"ng","lat":7.283333,"lon":3.9475},{"id":2011579,"name":"orile odo","country":"ng","lat":7.253056,"lon":3.856389},{"id":1981515,"name":"alawedo","country":"ng","lat":7.25,"lon":3.516667},{"id":2014474,"name":"shabi","country":"ng","lat":6.538392,"lon":3.961702},{"id":1992343,"name":"gbaleasun","country":"ng","lat":7.166667,"lon":3.916667},{"id":1983612,"name":"awise","country":"ng","lat":7.183333,"lon":4.083333},{"id":1989394,"name":"egbe","country":"ng","lat":6.798336,"lon":3.886067},{"id":1989569,"name":"eiye olupele","country":"ng","lat":7.366667,"lon":4.316667},{"id":2014927,"name":"sigunsin","country":"ng","lat":6.933333,"lon":3.85},{"id":2009927,"name":"okeyejo","country":"ng","lat":6.867607,"lon":4.021297},{"id":1980390,"name":"aiyepe","country":"ng","lat":6.804219,"lon":3.735906},{"id":2011896,"name":"osu","country":"ng","lat":7.25,"lon":3.733333},{"id":1995881,"name":"igbado","country":"ng","lat":6.533333,"lon":4.366667},{"id":1983772,"name":"ayantola","country":"ng","lat":7.311667,"lon":3.803056},{"id":1997616,"name":"imolisa","country":"ng","lat":7.166667,"lon":3.766667},{"id":2021578,"name":"yinmi market","country":"ng","lat":7.183333,"lon":4.483333},{"id":1987195,"name":"daguwa","country":"ng","lat":7.133333,"lon":3.566667},{"id":1980375,"name":"aiyegun","country":"ng","lat":7.288611,"lon":3.9275},{"id":1980529,"name":"ajebo","country":"ng","lat":7.116667,"lon":3.716667},{"id":1979943,"name":"agidi","country":"ng","lat":6.544381,"lon":3.907306},{"id":2010000,"name":"oko-eko","country":"ng","lat":6.582189,"lon":3.593767},{"id":1990296,"name":"eresu","country":"ng","lat":7.364722,"lon":3.768333},{"id":1980565,"name":"ajeregun","country":"ng","lat":6.730117,"lon":3.672005},{"id":2012304,"name":"oyere kereja","country":"ng","lat":7.283333,"lon":4.416667},{"id":1993671,"name":"ginti","country":"ng","lat":6.602811,"lon":3.576961},{"id":2013819,"name":"sagi","country":"ng","lat":7.366667,"lon":4.466667},{"id":1990659,"name":"ewu-osi","country":"ng","lat":6.857261,"lon":3.533333},{"id":2012280,"name":"oyawo","country":"ng","lat":7.475,"lon":3.816111},{"id":1997188,"name":"ikoyi","country":"ng","lat":7.35,"lon":4.166667},{"id":1979289,"name":"adewole","country":"ng","lat":7.289722,"lon":3.8},{"id":2011616,"name":"oriyanrin","country":"ng","lat":6.642435,"lon":4.450532},{"id":1979252,"name":"adeniji","country":"ng","lat":7.466667,"lon":3.716667},{"id":1982085,"name":"amin","country":"ng","lat":7.25,"lon":3.75},{"id":2011702,"name":"oru alade","country":"ng","lat":7.216667,"lon":4.483333},{"id":2011595,"name":"oriokuta","country":"ng","lat":7.3,"lon":4.416667},{"id":1982927,"name":"arodara","country":"ng","lat":6.935264,"lon":3.502743},{"id":1998200,"name":"ison","country":"ng","lat":6.516848,"lon":3.675806},{"id":2015213,"name":"sunbare","country":"ng","lat":7.466667,"lon":3.75},{"id":1983918,"name":"baala","country":"ng","lat":7.05,"lon":3.516667},{"id":1981405,"name":"alakaso","country":"ng","lat":7.4,"lon":3.733333},{"id":1978625,"name":"abaton","country":"ng","lat":6.966667,"lon":3.533333},{"id":2012287,"name":"oyegbami","country":"ng","lat":6.818421,"lon":3.620788},{"id":1999318,"name":"jibowu","country":"ng","lat":6.941386,"lon":3.535069},{"id":2005052,"name":"malekolo","country":"ng","lat":7.216667,"lon":4.35},{"id":1979287,"name":"adewale","country":"ng","lat":7.323333,"lon":3.788056},{"id":2011149,"name":"onidoko","country":"ng","lat":7.341667,"lon":3.755},{"id":1981332,"name":"alafia","country":"ng","lat":7.183333,"lon":4.333333},{"id":1995446,"name":"ibusogboro","country":"ng","lat":7.166667,"lon":3.883333},{"id":1981365,"name":"alagbede","country":"ng","lat":7.216667,"lon":4.333333},{"id":1980937,"name":"akintolu","country":"ng","lat":7.2,"lon":4.3},{"id":2009047,"name":"ogbaga","country":"ng","lat":7.416667,"lon":4.366667},{"id":2008816,"name":"odo-idako","country":"ng","lat":6.937777,"lon":3.815136},{"id":2005050,"name":"malekete","country":"ng","lat":6.561749,"lon":3.530923},{"id":2009946,"name":"oki-gbode","country":"ng","lat":6.598391,"lon":4.128884},{"id":2013801,"name":"sagamu","country":"ng","lat":6.843226,"lon":3.647763},{"id":2007859,"name":"nosiru","country":"ng","lat":7.2,"lon":4.0},{"id":1997527,"name":"ilumerin","country":"ng","lat":6.902423,"lon":4.041318},{"id":2011248,"name":"onireke","country":"ng","lat":7.333333,"lon":3.666667},{"id":2015858,"name":"teseyin","country":"ng","lat":7.016667,"lon":4.05},{"id":2016086,"name":"tomoloju","country":"ng","lat":7.066667,"lon":4.066667},{"id":1998094,"name":"ishara","country":"ng","lat":6.992808,"lon":3.681853},{"id":1995631,"name":"idiosan","country":"ng","lat":7.275,"lon":3.929167},{"id":2015786,"name":"teacher","country":"ng","lat":7.233333,"lon":4.283333},{"id":2003845,"name":"lemomu","country":"ng","lat":7.116667,"lon":3.766667},{"id":1982887,"name":"ariku","country":"ng","lat":7.308889,"lon":3.765278},{"id":2009334,"name":"ogo","country":"ng","lat":7.283333,"lon":3.984722},{"id":2010634,"name":"olodo","country":"ng","lat":7.25,"lon":3.95},{"id":2012279,"name":"oyateru","country":"ng","lat":7.485833,"lon":3.804444},{"id":1995617,"name":"idiomo","country":"ng","lat":7.216667,"lon":3.6},{"id":2009845,"name":"okemaso","country":"ng","lat":6.766667,"lon":3.65},{"id":1990277,"name":"eredo","country":"ng","lat":6.64068,"lon":3.990415},{"id":2010074,"name":"oko-makun","country":"ng","lat":6.62276,"lon":4.189949},{"id":2015011,"name":"sobiye","country":"ng","lat":7.133333,"lon":3.666667},{"id":1990343,"name":"erinle","country":"ng","lat":7.466667,"lon":4.483333},{"id":1998168,"name":"isiu","country":"ng","lat":6.659608,"lon":3.61872},{"id":2001560,"name":"koiyejo","country":"ng","lat":7.256667,"lon":3.765556},{"id":1982966,"name":"aroye","country":"ng","lat":7.375556,"lon":3.961389},{"id":1995279,"name":"ibere","country":"ng","lat":6.668314,"lon":3.643925},{"id":2009884,"name":"oke","country":"ng","lat":7.216667,"lon":3.9},{"id":2014609,"name":"shanusi","country":"ng","lat":7.216667,"lon":3.8},{"id":2010774,"name":"olopade","country":"ng","lat":7.466667,"lon":3.55},{"id":1986210,"name":"bukola","country":"ng","lat":7.354722,"lon":3.785},{"id":2015903,"name":"tigaro","country":"ng","lat":6.533421,"lon":4.359457},{"id":1983342,"name":"ategu","country":"ng","lat":7.116667,"lon":3.616667},{"id":1979282,"name":"adesma awero","country":"ng","lat":7.445833,"lon":3.946389},{"id":1978460,"name":"abada","country":"ng","lat":7.305,"lon":3.817222},{"id":2010700,"name":"olokemeji","country":"ng","lat":7.333333,"lon":4.05},{"id":1998373,"name":"itomu","country":"ng","lat":6.5,"lon":3.631226},{"id":1997566,"name":"imawte","country":"ng","lat":6.663619,"lon":3.669449},{"id":2010637,"name":"olodu","country":"ng","lat":7.2,"lon":4.333333},{"id":1992536,"name":"gboro","country":"ng","lat":7.066667,"lon":3.833333},{"id":2015998,"name":"tirianga","country":"ng","lat":6.701438,"lon":4.200187},{"id":1998254,"name":"ita-epinni","country":"ng","lat":6.772853,"lon":3.728624},{"id":1989220,"name":"eddila","country":"ng","lat":7.2,"lon":3.566667},{"id":1978776,"name":"abi iba","country":"ng","lat":7.216667,"lon":3.966667},{"id":2004321,"name":"madeko","country":"ng","lat":7.375833,"lon":3.938333},{"id":1995697,"name":"idomu","country":"ng","lat":6.517791,"lon":3.974715},{"id":1997809,"name":"ipanmi","country":"ng","lat":6.560748,"lon":3.63791},{"id":2011198,"name":"onikete belo","country":"ng","lat":7.233333,"lon":4.116667},{"id":1998785,"name":"jaguna","country":"ng","lat":7.383333,"lon":3.533333},{"id":1978840,"name":"abokorere","country":"ng","lat":7.3,"lon":4.016667},{"id":1984547,"name":"balogun ikanna","country":"ng","lat":7.0,"lon":3.616667},{"id":2010629,"name":"olode","country":"ng","lat":7.2,"lon":3.95},{"id":1981394,"name":"alaje","country":"ng","lat":7.216667,"lon":4.05},{"id":1997814,"name":"ipari isale","country":"ng","lat":6.9,"lon":3.983333},{"id":2015505,"name":"talafanmu","country":"ng","lat":6.924901,"lon":3.966891},{"id":2009418,"name":"ogunjobi","country":"ng","lat":7.366667,"lon":4.283333},{"id":2011245,"name":"onipepeiye","country":"ng","lat":7.314444,"lon":3.814444},{"id":1989998,"name":"elere","country":"ng","lat":7.369167,"lon":3.793889},{"id":2008863,"name":"odo-ragusin","country":"ng","lat":6.65222,"lon":3.987058},{"id":1982898,"name":"ariwo","country":"ng","lat":6.954535,"lon":3.506921},{"id":2010963,"name":"oluwa","country":"ng","lat":7.429167,"lon":3.985},{"id":1978624,"name":"abatiwa","country":"ng","lat":6.692304,"lon":3.709425},{"id":1995858,"name":"igan","country":"ng","lat":6.837194,"lon":4.056759},{"id":2010098,"name":"oko-odo","country":"ng","lat":6.966875,"lon":3.884379},{"id":1989355,"name":"egan-imoro","country":"ng","lat":6.962441,"lon":4.063795},{"id":1990390,"name":"erunwon","country":"ng","lat":6.834435,"lon":3.965476},{"id":2003369,"name":"ladesuwa","country":"ng","lat":6.83561,"lon":3.620433},{"id":2004148,"name":"lumogede","country":"ng","lat":7.05,"lon":4.016667},{"id":1984542,"name":"balogun","country":"ng","lat":7.133333,"lon":4.066667},{"id":1981483,"name":"alaru","country":"ng","lat":6.586199,"lon":3.653347},{"id":2010400,"name":"okun-owa","country":"ng","lat":6.854923,"lon":3.81408},{"id":2010896,"name":"olugbesan","country":"ng","lat":7.360833,"lon":3.766667},{"id":1983006,"name":"arun","country":"ng","lat":7.476111,"lon":3.986111},{"id":2006918,"name":"nalode","country":"ng","lat":7.166667,"lon":4.016667},{"id":1980788,"name":"akata","country":"ng","lat":6.712639,"lon":4.038209},{"id":2003958,"name":"litan","country":"ng","lat":6.980093,"lon":3.537633},{"id":2006848,"name":"naforija","country":"ng","lat":6.630072,"lon":3.985561},{"id":2010695,"name":"olojuoro","country":"ng","lat":7.183333,"lon":3.983333},{"id":1997802,"name":"ipa","country":"ng","lat":6.766667,"lon":3.5},{"id":1996027,"name":"igbodo-oloja","country":"ng","lat":6.922624,"lon":3.830542},{"id":1981198,"name":"akunlepon","country":"ng","lat":7.338611,"lon":3.835},{"id":1982722,"name":"apomu","country":"ng","lat":7.333333,"lon":4.183333},{"id":1982719,"name":"apoku","country":"ng","lat":7.416667,"lon":4.05},{"id":2008879,"name":"odo-sinwaren","country":"ng","lat":6.75,"lon":3.933333},{"id":2010717,"name":"oloko","country":"ng","lat":6.974877,"lon":3.599723},{"id":1990161,"name":"emo","country":"ng","lat":7.016667,"lon":3.516667},{"id":2011525,"name":"oreta","country":"ng","lat":6.530683,"lon":3.524006},{"id":2010874,"name":"olubode","country":"ng","lat":7.283333,"lon":4.0},{"id":1980968,"name":"akitoye","country":"ng","lat":7.35,"lon":3.65},{"id":1987170,"name":"dagi","country":"ng","lat":7.483333,"lon":4.133333},{"id":1997548,"name":"imaka","country":"ng","lat":6.757428,"lon":3.95281},{"id":1997887,"name":"ira","country":"ng","lat":6.650523,"lon":3.640004},{"id":2011192,"name":"onikan","country":"ng","lat":7.383333,"lon":4.366667},{"id":1980449,"name":"ajakanga","country":"ng","lat":7.311667,"lon":3.841389},{"id":1997572,"name":"imedu","country":"ng","lat":6.919168,"lon":4.053799},{"id":1982177,"name":"amukoko","country":"ng","lat":7.216667,"lon":4.25},{"id":2010798,"name":"oloro","country":"ng","lat":7.216667,"lon":4.183333},{"id":2011089,"name":"omu oloyinde","country":"ng","lat":7.316667,"lon":4.35},{"id":2008346,"name":"obeyin","country":"ng","lat":7.283333,"lon":4.4},{"id":2006516,"name":"motako","country":"ng","lat":7.283333,"lon":4.3},{"id":1989833,"name":"ekuku","country":"ng","lat":7.083333,"lon":3.766667},{"id":2015069,"name":"sokun","country":"ng","lat":7.335278,"lon":3.770278},{"id":1981415,"name":"alakuka","country":"ng","lat":6.763638,"lon":4.130234},{"id":1984288,"name":"baiyeku","country":"ng","lat":6.533333,"lon":3.55},{"id":2011845,"name":"osoko","country":"ng","lat":7.233333,"lon":4.266667},{"id":1997839,"name":"ipesin","country":"ng","lat":6.726072,"lon":3.968839},{"id":1979281,"name":"adesiyan","country":"ng","lat":7.2,"lon":3.966667},{"id":1980574,"name":"ajia","country":"ng","lat":7.333333,"lon":4.033333},{"id":1982676,"name":"apena ake","country":"ng","lat":7.166667,"lon":3.616667},{"id":1990679,"name":"eyin eregu","country":"ng","lat":7.016667,"lon":4.066667},{"id":1984073,"name":"bada","country":"ng","lat":7.445556,"lon":3.7525},{"id":2013909,"name":"salako","country":"ng","lat":7.4,"lon":4.45},{"id":2005225,"name":"mamu","country":"ng","lat":7.083333,"lon":3.916667},{"id":1984607,"name":"bamidele","country":"ng","lat":7.333333,"lon":4.333333},{"id":1992070,"name":"garo","country":"ng","lat":6.71567,"lon":3.840435},{"id":2010340,"name":"okugbaja","country":"ng","lat":7.283333,"lon":4.016667},{"id":1993582,"name":"gidigidi","country":"ng","lat":7.416667,"lon":4.033333},{"id":1992354,"name":"gbangba","country":"ng","lat":7.266667,"lon":4.083333},{"id":1978686,"name":"abegede","country":"ng","lat":6.5,"lon":3.733333},{"id":1979781,"name":"agbeke","country":"ng","lat":7.333333,"lon":4.483333},{"id":1989990,"name":"elepo","country":"ng","lat":7.05,"lon":3.55},{"id":2013212,"name":"rogbo rogbo","country":"ng","lat":7.433333,"lon":4.416667},{"id":1997187,"name":"ikoyi","country":"ng","lat":6.965257,"lon":3.529325},{"id":2010701,"name":"oloke","country":"ng","lat":7.25,"lon":4.016667},{"id":2012191,"name":"owobale","country":"ng","lat":7.416667,"lon":4.066667},{"id":2004860,"name":"majeroku","country":"ng","lat":7.45,"lon":4.283333},{"id":2001018,"name":"kehinsi","country":"ng","lat":7.363333,"lon":3.955278},{"id":1979778,"name":"agbeja","country":"ng","lat":7.183333,"lon":4.366667},{"id":1985311,"name":"bembe","country":"ng","lat":7.4,"lon":4.35},{"id":2009684,"name":"ojo","country":"ng","lat":7.328056,"lon":3.926667},{"id":1978919,"name":"abuku","country":"ng","lat":7.2,"lon":3.816667},{"id":1981327,"name":"aladura","country":"ng","lat":7.166667,"lon":4.3},{"id":2008830,"name":"odometi","country":"ng","lat":6.806094,"lon":4.036883},{"id":1979274,"name":"aderu","country":"ng","lat":7.05,"lon":3.633333},{"id":1980430,"name":"ajagambari","country":"ng","lat":6.59719,"lon":3.840217},{"id":2009881,"name":"oke","country":"ng","lat":6.616667,"lon":3.566667},{"id":2009896,"name":"oke olubadan","country":"ng","lat":7.15,"lon":3.783333},{"id":2000777,"name":"kate","country":"ng","lat":7.216667,"lon":4.033333},{"id":2011771,"name":"osegere","country":"ng","lat":7.383333,"lon":4.083333},{"id":1998043,"name":"isebo","country":"ng","lat":7.404722,"lon":3.978056},{"id":2013019,"name":"rasusi","country":"ng","lat":6.873616,"lon":3.55703},{"id":1995586,"name":"idi iroko","country":"ng","lat":7.339722,"lon":3.871944},{"id":1981300,"name":"alabi","country":"ng","lat":7.2,"lon":4.066667},{"id":1979960,"name":"agiri","country":"ng","lat":7.358611,"lon":3.761389},{"id":1978473,"name":"abafon","country":"ng","lat":6.683333,"lon":3.516667},{"id":1988108,"name":"debonre","country":"ng","lat":7.116667,"lon":3.733333},{"id":2008828,"name":"odo lewu","country":"ng","lat":6.733333,"lon":3.983333},{"id":2013953,"name":"saliu","country":"ng","lat":7.433333,"lon":3.733333},{"id":2012573,"name":"patako","country":"ng","lat":7.450833,"lon":3.775556},{"id":2011760,"name":"osa","country":"ng","lat":7.25,"lon":4.166667},{"id":2009452,"name":"ogunsola","country":"ng","lat":7.266667,"lon":3.65},{"id":1987176,"name":"dagilogba","country":"ng","lat":7.348056,"lon":3.750278},{"id":1981429,"name":"alamo","country":"ng","lat":7.25,"lon":4.133333},{"id":2010887,"name":"oluga alli","country":"ng","lat":7.2,"lon":3.65},{"id":2008806,"name":"odogbolu","country":"ng","lat":6.836544,"lon":3.764057},{"id":1997652,"name":"imuogo","country":"ng","lat":6.538663,"lon":4.065737},{"id":1982897,"name":"ariori","country":"ng","lat":7.289722,"lon":3.950833},{"id":1990684,"name":"eyita","country":"ng","lat":6.690249,"lon":3.535198},{"id":1984764,"name":"bantun","country":"ng","lat":7.183333,"lon":3.566667},{"id":1996478,"name":"ijeun","country":"ng","lat":7.066667,"lon":3.566667},{"id":2003407,"name":"lafikun","country":"ng","lat":7.270556,"lon":3.930556},{"id":2005012,"name":"malajo","country":"ng","lat":6.972909,"lon":3.585731},{"id":2011615,"name":"oriyanrin","country":"ng","lat":6.590422,"lon":4.199912},{"id":1983950,"name":"baba ibeji","country":"ng","lat":7.401111,"lon":3.780556},{"id":1980540,"name":"ajegunle awa","country":"ng","lat":7.0,"lon":3.916667},{"id":2010704,"name":"olokiti","country":"ng","lat":7.483333,"lon":3.75},{"id":1982774,"name":"arapaja","country":"ng","lat":7.295,"lon":3.855556},{"id":2009603,"name":"oja oba","country":"ng","lat":7.455,"lon":3.950556},{"id":2011217,"name":"onile oke","country":"ng","lat":7.1,"lon":3.583333},{"id":2006494,"name":"mosafejo","country":"ng","lat":7.166667,"lon":3.65},{"id":1979552,"name":"afonja","country":"ng","lat":7.333056,"lon":3.815556},{"id":1980898,"name":"akindele","country":"ng","lat":7.2,"lon":3.75},{"id":2006471,"name":"moringbere","country":"ng","lat":7.266667,"lon":4.366667},{"id":2010843,"name":"olowola","country":"ng","lat":7.296389,"lon":3.833611},{"id":1997651,"name":"imuofo","country":"ng","lat":6.535638,"lon":4.056088},{"id":2011282,"name":"oniyaniku","country":"ng","lat":7.35,"lon":4.283333},{"id":1995534,"name":"ideno","country":"ng","lat":6.67408,"lon":3.802271},{"id":1988186,"name":"dende","country":"ng","lat":7.298333,"lon":3.758056},{"id":1980151,"name":"aguda","country":"ng","lat":6.554958,"lon":4.349374},{"id":1980590,"name":"ajibode","country":"ng","lat":7.460556,"lon":3.893611},{"id":1979544,"name":"afolabi","country":"ng","lat":7.15,"lon":4.016667},{"id":2003615,"name":"langbasa","country":"ng","lat":6.507727,"lon":3.578732},{"id":1997540,"name":"imafon","country":"ng","lat":6.87659,"lon":4.032981},{"id":1983056,"name":"asale apata","country":"ng","lat":7.4,"lon":4.05},{"id":2011560,"name":"origbe","country":"ng","lat":6.585888,"lon":4.183791},{"id":1995930,"name":"igbeba","country":"ng","lat":6.839548,"lon":3.941303},{"id":1981712,"name":"alofe","country":"ng","lat":7.266667,"lon":3.566667},{"id":1980741,"name":"akamo","country":"ng","lat":7.333333,"lon":4.066667},{"id":2009230,"name":"ogere","country":"ng","lat":6.935044,"lon":3.635424},{"id":1998301,"name":"itapa","country":"ng","lat":6.633333,"lon":4.166667},{"id":1998286,"name":"itamerin","country":"ng","lat":6.736009,"lon":3.655631},{"id":1981412,"name":"alako","country":"ng","lat":7.266667,"lon":4.216667},{"id":2010967,"name":"oluwo akeusi","country":"ng","lat":7.166667,"lon":3.55}]});