callback({"markets":[{"id":306687,"name":"missao do sahi","country":"br","lat":-10.533333,"lon":-40.233333},{"id":297302,"name":"enxu","country":"br","lat":-11.05,"lon":-39.683333},{"id":301937,"name":"itapeipu","country":"br","lat":-11.316667,"lon":-40.35},{"id":299165,"name":"filadeli","country":"br","lat":-10.733333,"lon":-40.133333},{"id":309927,"name":"pedras altas","country":"br","lat":-11.166667,"lon":-40.05},{"id":328424,"name":"vila bela de santo antonio das queimadas","country":"br","lat":-10.966667,"lon":-39.633333},{"id":311113,"name":"poco","country":"br","lat":-10.5,"lon":-40.4},{"id":309903,"name":"pedra","country":"br","lat":-11.2,"lon":-39.933333},{"id":303757,"name":"lagarta","country":"br","lat":-10.616667,"lon":-40.133333},{"id":292936,"name":"campo formoso","country":"br","lat":-10.516667,"lon":-40.333333},{"id":327873,"name":"vargem d\u0027agua","country":"br","lat":-11.033333,"lon":-40.083333},{"id":306509,"name":"milho","country":"br","lat":-11.05,"lon":-39.7},{"id":305753,"name":"marcelo","country":"br","lat":-10.816667,"lon":-40.316667},{"id":315715,"name":"sao barnabe","country":"br","lat":-11.366667,"lon":-39.6},{"id":302157,"name":"itinga da serra","country":"br","lat":-10.566667,"lon":-40.283333},{"id":293578,"name":"capim grosso","country":"br","lat":-11.366667,"lon":-40.016667},{"id":317488,"name":"serra azul","country":"br","lat":-11.333333,"lon":-40.4},{"id":293312,"name":"cansancao","country":"br","lat":-10.683333,"lon":-39.516667},{"id":293873,"name":"cariaca","country":"br","lat":-10.516667,"lon":-40.133333},{"id":291462,"name":"brejao das grotas","country":"br","lat":-10.65,"lon":-40.466667},{"id":326155,"name":"tanquinho","country":"br","lat":-10.783333,"lon":-39.533333},{"id":303557,"name":"junco","country":"br","lat":-11.333333,"lon":-40.15},{"id":322533,"name":"sitio manuel pereira","country":"br","lat":-11.4,"lon":-39.766667},{"id":313378,"name":"riacho da onca","country":"br","lat":-11.233333,"lon":-39.733333},{"id":305724,"name":"maravilha","country":"br","lat":-10.866667,"lon":-40.016667},{"id":317678,"name":"serrolandia","country":"br","lat":-11.433333,"lon":-40.3},{"id":326574,"name":"terra branca","country":"br","lat":-11.083333,"lon":-39.866667},{"id":310537,"name":"pindorama","country":"br","lat":-11.433333,"lon":-40.4},{"id":307016,"name":"montes","country":"br","lat":-10.516667,"lon":-39.566667},{"id":313847,"name":"rio do peixe","country":"br","lat":-11.1,"lon":-39.5},{"id":307200,"name":"morro do mamote","country":"br","lat":-11.483333,"lon":-39.616667},{"id":300200,"name":"goncalo","country":"br","lat":-11.183333,"lon":-40.266667},{"id":304617,"name":"limeira","country":"br","lat":-10.85,"lon":-40.233333},{"id":306717,"name":"mocambinho","country":"br","lat":-11.233333,"lon":-39.5},{"id":317278,"name":"saude","country":"br","lat":-10.933333,"lon":-40.4},{"id":311967,"name":"porto novo","country":"br","lat":-10.866667,"lon":-40.133333},{"id":292297,"name":"cahem","country":"br","lat":-11.1,"lon":-40.433333},{"id":302170,"name":"itiuba","country":"br","lat":-10.716667,"lon":-39.85},{"id":302441,"name":"jacuricy","country":"br","lat":-10.85,"lon":-39.716667},{"id":310521,"name":"pindobacu","country":"br","lat":-10.733333,"lon":-40.35},{"id":303827,"name":"lagoa da eugenia","country":"br","lat":-10.683333,"lon":-39.65},{"id":299958,"name":"gaviao","country":"br","lat":-11.466667,"lon":-39.783333},{"id":292540,"name":"caldeirao grande","country":"br","lat":-11.016667,"lon":-40.283333},{"id":289252,"name":"bananeira","country":"br","lat":-10.616667,"lon":-40.316667}]});