callback({"markets":[{"id":288292,"name":"avare","country":"br","lat":-23.083333,"lon":-48.916667},{"id":315808,"name":"sao berto","country":"br","lat":-23.05,"lon":-49.25},{"id":297473,"name":"espirito santo do turvo","country":"br","lat":-22.716667,"lon":-49.416667},{"id":287732,"name":"arandu","country":"br","lat":-23.116667,"lon":-49.033333},{"id":304651,"name":"limoeirro","country":"br","lat":-22.583333,"lon":-49.35},{"id":290866,"name":"bocaiuva","country":"br","lat":-22.516667,"lon":-48.683333},{"id":304533,"name":"lencois paulista","country":"br","lat":-22.6,"lon":-48.783333},{"id":309668,"name":"paulistania","country":"br","lat":-22.6,"lon":-49.383333},{"id":306827,"name":"moncao","country":"br","lat":-22.883333,"lon":-49.183333},{"id":290151,"name":"batista botelho","country":"br","lat":-23.016667,"lon":-49.416667},{"id":288230,"name":"aterradinho","country":"br","lat":-23.45,"lon":-48.566667},{"id":312325,"name":"pratania","country":"br","lat":-22.816667,"lon":-48.65},{"id":315411,"name":"santa terezinha","country":"br","lat":-23.366667,"lon":-49.166667},{"id":317244,"name":"sarutaia","country":"br","lat":-23.266667,"lon":-49.45},{"id":303655,"name":"jurumirim","country":"br","lat":-23.183333,"lon":-49.266667},{"id":301101,"name":"igaracu do tiete","country":"br","lat":-22.516667,"lon":-48.566667},{"id":288633,"name":"bairro do barreiro","country":"br","lat":-23.466667,"lon":-49.283333},{"id":310723,"name":"piraju","country":"br","lat":-23.2,"lon":-49.383333},{"id":316189,"name":"sao joao de itatinga","country":"br","lat":-23.116667,"lon":-48.6},{"id":314714,"name":"santa barbara do rio pardo","country":"br","lat":-22.916667,"lon":-49.25},{"id":287945,"name":"areiopolis","country":"br","lat":-22.666667,"lon":-48.7},{"id":290354,"name":"bello monte","country":"br","lat":-23.35,"lon":-49.366667},{"id":313678,"name":"ribeiropolis","country":"br","lat":-23.45,"lon":-49.416667},{"id":309114,"name":"paranapanema","country":"br","lat":-23.383333,"lon":-48.716667},{"id":301771,"name":"itahy","country":"br","lat":-23.4,"lon":-49.1},{"id":296905,"name":"dona amelia","country":"br","lat":-22.733333,"lon":-49.3},{"id":290500,"name":"bernardino de campos","country":"br","lat":-23.033333,"lon":-49.483333},{"id":288658,"name":"bairro do jacu","country":"br","lat":-23.316667,"lon":-48.533333},{"id":294971,"name":"clarinia","country":"br","lat":-22.75,"lon":-49.45},{"id":286724,"name":"alfredo guedes","country":"br","lat":-22.583333,"lon":-48.716667},{"id":294590,"name":"cerqueira cesar","country":"br","lat":-23.05,"lon":-49.166667},{"id":305444,"name":"manduri","country":"br","lat":-23.016667,"lon":-49.316667},{"id":308228,"name":"oleo","country":"br","lat":-22.966667,"lon":-49.35},{"id":287557,"name":"aparecida de sao manuel","country":"br","lat":-22.716667,"lon":-48.616667},{"id":291302,"name":"boreby","country":"br","lat":-22.566667,"lon":-48.983333},{"id":316661,"name":"sao manoel do paraizo","country":"br","lat":-22.733333,"lon":-48.566667}]});