callback({"markets":[{"id":422159,"name":"baide","country":"cn","lat":29.4,"lon":90.9},{"id":458377,"name":"donggar","country":"cn","lat":29.001,"lon":90.501},{"id":458376,"name":"dongga qu","country":"cn","lat":29.002,"lon":90.502},{"id":444051,"name":"chopu","country":"cn","lat":29.102,"lon":91.202},{"id":455369,"name":"dejilin","country":"cn","lat":29.103,"lon":91.203},{"id":656552,"name":"zhuopu gongshe","country":"cn","lat":29.101,"lon":91.201},{"id":587056,"name":"sogpu","country":"cn","lat":29.001,"lon":91.301},{"id":501509,"name":"jiangxiong gongshe","country":"cn","lat":29.0,"lon":91.1},{"id":568305,"name":"sapu gongshe","country":"cn","lat":29.002,"lon":91.302},{"id":619715,"name":"xiaola","country":"cn","lat":29.003,"lon":91.303},{"id":448246,"name":"dagar","country":"cn","lat":29.3,"lon":90.6},{"id":599620,"name":"toigar","country":"cn","lat":29.203,"lon":90.803},{"id":543113,"name":"naisha","country":"cn","lat":29.201,"lon":90.801},{"id":473257,"name":"gonggaquede","country":"cn","lat":29.202,"lon":90.802},{"id":513841,"name":"kyimxi","country":"cn","lat":29.203,"lon":91.103},{"id":586319,"name":"simai gongshe","country":"cn","lat":29.204,"lon":91.104},{"id":586320,"name":"simai","country":"cn","lat":29.205,"lon":91.105},{"id":476635,"name":"gujie","country":"cn","lat":29.202,"lon":91.102},{"id":429848,"name":"boilang","country":"cn","lat":29.2,"lon":91.0},{"id":469100,"name":"gaca","country":"cn","lat":29.2,"lon":91.2},{"id":449463,"name":"dajielin","country":"cn","lat":29.2,"lon":91.3},{"id":651233,"name":"zhaqi qu","country":"cn","lat":29.2,"lon":91.4},{"id":604587,"name":"tu","country":"cn","lat":28.5,"lon":90.5},{"id":562440,"name":"qoikang","country":"cn","lat":29.102,"lon":90.902},{"id":564667,"name":"rouzha","country":"cn","lat":28.701,"lon":90.501},{"id":568306,"name":"sapu","country":"cn","lat":29.0,"lon":91.3},{"id":563221,"name":"qupu","country":"cn","lat":29.4,"lon":90.7},{"id":565156,"name":"saipu","country":"cn","lat":29.304,"lon":90.604},{"id":452377,"name":"daranduo","country":"cn","lat":29.1,"lon":90.8},{"id":652618,"name":"zhilong","country":"cn","lat":29.1,"lon":90.7},{"id":629735,"name":"xiuwu","country":"cn","lat":29.107,"lon":91.107},{"id":651322,"name":"zhaxilin","country":"cn","lat":29.105,"lon":91.305},{"id":513848,"name":"kyiuzhag","country":"cn","lat":28.7,"lon":90.6},{"id":563429,"name":"raizhigang","country":"cn","lat":29.104,"lon":91.304},{"id":522381,"name":"ling","country":"cn","lat":28.7,"lon":90.5},{"id":459830,"name":"dongra","country":"cn","lat":29.001,"lon":90.801},{"id":421844,"name":"baduo","country":"cn","lat":29.103,"lon":91.103},{"id":447221,"name":"dabozhacang","country":"cn","lat":29.1,"lon":90.9},{"id":472492,"name":"gelang","country":"cn","lat":29.101,"lon":91.301},{"id":478313,"name":"gyibug","country":"cn","lat":29.102,"lon":91.102},{"id":478336,"name":"gyiru","country":"cn","lat":29.05,"lon":91.3},{"id":421002,"name":"anzha","country":"cn","lat":29.3,"lon":91.2},{"id":461218,"name":"doqoi","country":"cn","lat":28.833333,"lon":90.666667},{"id":538987,"name":"mengarong","country":"cn","lat":29.206,"lon":91.006},{"id":616865,"name":"xianfeng gongshe","country":"cn","lat":29.201,"lon":90.701},{"id":514693,"name":"langjielin gongshe","country":"cn","lat":29.202,"lon":90.902},{"id":552429,"name":"par","country":"cn","lat":29.3,"lon":91.0},{"id":422789,"name":"bailang","country":"cn","lat":29.202,"lon":91.002},{"id":429282,"name":"bianzha","country":"cn","lat":29.201,"lon":91.001},{"id":429773,"name":"bo","country":"cn","lat":29.2,"lon":90.7},{"id":557686,"name":"qianjin qu","country":"cn","lat":29.2,"lon":90.8},{"id":590601,"name":"tagbochacang","country":"cn","lat":29.2,"lon":90.9},{"id":563377,"name":"quzhen","country":"cn","lat":29.202,"lon":91.402},{"id":514801,"name":"langsailing","country":"cn","lat":29.205,"lon":91.005},{"id":527391,"name":"longbuxue","country":"cn","lat":28.8,"lon":91.0},{"id":470263,"name":"ganzha","country":"cn","lat":28.8,"lon":91.1},{"id":432551,"name":"chagzakyirab","country":"cn","lat":28.5,"lon":91.3},{"id":432983,"name":"chala gongshe","country":"cn","lat":29.202,"lon":90.502},{"id":656500,"name":"zhuode","country":"cn","lat":28.8,"lon":91.2},{"id":436735,"name":"chaza","country":"cn","lat":28.8,"lon":91.4},{"id":562926,"name":"qugang","country":"cn","lat":29.101,"lon":90.901},{"id":469394,"name":"gande","country":"cn","lat":29.001,"lon":91.101},{"id":499658,"name":"jedexoi","country":"cn","lat":29.183333,"lon":91.133333},{"id":623957,"name":"xierong","country":"cn","lat":29.301,"lon":90.801},{"id":565096,"name":"saida","country":"cn","lat":29.303,"lon":90.603},{"id":596716,"name":"tengra","country":"cn","lat":28.802,"lon":90.702},{"id":646338,"name":"yuqoi","country":"cn","lat":29.001,"lon":90.701},{"id":565046,"name":"sadoi","country":"cn","lat":28.801,"lon":90.701},{"id":596775,"name":"teri gongshe","country":"cn","lat":28.902,"lon":91.402},{"id":462300,"name":"dunbo","country":"cn","lat":28.901,"lon":91.401},{"id":595695,"name":"tari","country":"cn","lat":28.903,"lon":91.403},{"id":611485,"name":"woluo","country":"cn","lat":28.904,"lon":91.404},{"id":648565,"name":"zhangda","country":"cn","lat":28.983333,"lon":91.0},{"id":421586,"name":"azha","country":"cn","lat":28.9,"lon":90.6},{"id":508730,"name":"kamba","country":"cn","lat":29.201,"lon":90.601},{"id":564455,"name":"rongbo","country":"cn","lat":28.602,"lon":90.802},{"id":508466,"name":"kaigya","country":"cn","lat":28.601,"lon":90.801},{"id":437044,"name":"chema","country":"cn","lat":29.204,"lon":91.304},{"id":565102,"name":"saiergong","country":"cn","lat":29.201,"lon":91.301},{"id":522475,"name":"lingqu","country":"cn","lat":28.766667,"lon":90.5},{"id":430889,"name":"caina","country":"cn","lat":29.401,"lon":90.901},{"id":547349,"name":"niangsuo","country":"cn","lat":29.203,"lon":90.503},{"id":432982,"name":"chala","country":"cn","lat":29.201,"lon":90.501},{"id":622282,"name":"xiawa","country":"cn","lat":28.8,"lon":90.5},{"id":455702,"name":"dengmai","country":"cn","lat":29.002,"lon":91.102},{"id":566419,"name":"sangzang gongshe","country":"cn","lat":29.101,"lon":91.401},{"id":437640,"name":"chenggo","country":"cn","lat":29.366667,"lon":91.183333},{"id":541150,"name":"minzhulin","country":"cn","lat":29.103,"lon":91.403},{"id":566420,"name":"sangzang","country":"cn","lat":29.105,"lon":91.405},{"id":633846,"name":"yangjia gongshe","country":"cn","lat":29.107,"lon":91.407},{"id":469844,"name":"gangze gongshe","country":"cn","lat":29.104,"lon":91.104},{"id":556951,"name":"qelung","country":"cn","lat":29.301,"lon":90.601},{"id":547275,"name":"nianba","country":"cn","lat":29.001,"lon":90.601},{"id":503307,"name":"jielin","country":"cn","lat":29.103,"lon":91.303},{"id":472494,"name":"gelang gongshe","country":"cn","lat":29.102,"lon":91.302},{"id":469101,"name":"gacai","country":"cn","lat":29.101,"lon":91.101},{"id":473254,"name":"gongga","country":"cn","lat":29.002,"lon":90.802},{"id":473463,"name":"gongkar","country":"cn","lat":29.003,"lon":90.803},{"id":462269,"name":"dumbo","country":"cn","lat":28.9,"lon":91.4},{"id":611433,"name":"wola","country":"cn","lat":29.208,"lon":91.008},{"id":538986,"name":"mengarong gongshe","country":"cn","lat":29.207,"lon":91.007},{"id":549684,"name":"oglasa","country":"cn","lat":29.202,"lon":90.702},{"id":563353,"name":"quxu","country":"cn","lat":29.35,"lon":90.65},{"id":458539,"name":"donggya","country":"cn","lat":28.6,"lon":90.8},{"id":590199,"name":"tabulin","country":"cn","lat":29.201,"lon":90.901},{"id":616884,"name":"xianfeng","country":"cn","lat":29.203,"lon":90.703},{"id":563376,"name":"quzhen gongshe","country":"cn","lat":29.204,"lon":91.404},{"id":588855,"name":"suka","country":"cn","lat":29.203,"lon":91.403},{"id":563692,"name":"remai","country":"cn","lat":29.204,"lon":91.004},{"id":432993,"name":"chalang","country":"cn","lat":29.233333,"lon":91.333333},{"id":543338,"name":"nam","country":"cn","lat":29.404,"lon":90.904},{"id":432165,"name":"carbanang","country":"cn","lat":29.3,"lon":90.8},{"id":513071,"name":"kungka","country":"cn","lat":29.244727,"lon":90.847686},{"id":506185,"name":"jiqiong","country":"cn","lat":29.0,"lon":90.7},{"id":501348,"name":"jiangtang","country":"cn","lat":29.3,"lon":90.7},{"id":502939,"name":"jiazhulin","country":"cn","lat":29.3,"lon":90.9},{"id":525704,"name":"liuqung","country":"cn","lat":29.301,"lon":91.001},{"id":589727,"name":"suogai","country":"cn","lat":28.766667,"lon":91.05},{"id":514695,"name":"langjiexue","country":"cn","lat":29.166667,"lon":91.1},{"id":539607,"name":"menzhu","country":"cn","lat":29.102,"lon":91.402},{"id":566120,"name":"sangi","country":"cn","lat":29.4,"lon":91.466667},{"id":424558,"name":"baizhong","country":"cn","lat":29.1,"lon":91.3},{"id":656584,"name":"zhuoyu gongshe","country":"cn","lat":29.1,"lon":91.2},{"id":656628,"name":"zhupu","country":"cn","lat":29.106,"lon":91.406},{"id":514590,"name":"langda gongshe","country":"cn","lat":29.1,"lon":91.1},{"id":559911,"name":"qimda","country":"cn","lat":29.4,"lon":91.4}]});