callback({"markets":[{"id":889388,"name":"borni","country":"et","lat":12.683333,"lon":36.016667},{"id":888260,"name":"assaf","country":"et","lat":12.933333,"lon":36.216667},{"id":898598,"name":"ualad nai","country":"et","lat":12.9,"lon":36.25},{"id":2592403,"name":"shukriyah","country":"sd","lat":12.7,"lon":36.1166667},{"id":897268,"name":"sancaho","country":"et","lat":13.066667,"lon":36.416667},{"id":896809,"name":"nemtet allominab","country":"et","lat":12.816667,"lon":36.466667},{"id":896368,"name":"metema","country":"et","lat":12.966667,"lon":36.2},{"id":891305,"name":"donga","country":"et","lat":12.95,"lon":36.366667},{"id":2591294,"name":"otrub","country":"sd","lat":13.0,"lon":36.0833333},{"id":2594029,"name":"wad kusaybah","country":"sd","lat":13.2333333,"lon":35.9166667},{"id":2589084,"name":"karnekeila","country":"sd","lat":13.0,"lon":35.9166667},{"id":890158,"name":"collit","country":"et","lat":12.916667,"lon":36.216667},{"id":2590263,"name":"malihah","country":"sd","lat":13.0333333,"lon":35.85},{"id":2592034,"name":"saraf sa`id","country":"sd","lat":13.2166667,"lon":35.8666667},{"id":2593827,"name":"wad al balulah","country":"sd","lat":12.9333333,"lon":35.9333333},{"id":2590125,"name":"madaqq","country":"sd","lat":13.3333333,"lon":35.85},{"id":895715,"name":"maganan","country":"et","lat":12.75,"lon":36.433333},{"id":895264,"name":"kumer","country":"et","lat":12.833333,"lon":36.25},{"id":2584035,"name":"abu zarad","country":"sd","lat":12.9666667,"lon":35.85},{"id":2593866,"name":"wad `arud","country":"sd","lat":13.4666667,"lon":35.8833333},{"id":2593831,"name":"wad al faki","country":"sd","lat":12.9333333,"lon":36.05},{"id":2584204,"name":"aghbash","country":"sd","lat":12.9833333,"lon":35.9},{"id":2588297,"name":"hayafa","country":"sd","lat":12.9333333,"lon":35.8833333},{"id":2592521,"name":"su`eifa","country":"sd","lat":12.9166667,"lon":35.9833333},{"id":892608,"name":"ghenga","country":"et","lat":12.95,"lon":36.2},{"id":891802,"name":"ez zair","country":"et","lat":12.65,"lon":35.683333},{"id":893588,"name":"hallal sahr semir","country":"et","lat":12.883333,"lon":36.233333},{"id":2591498,"name":"qallabat","country":"sd","lat":12.9666667,"lon":36.15},{"id":2589643,"name":"kunaynah","country":"sd","lat":13.0833333,"lon":36.0333333},{"id":893227,"name":"grar wiha","country":"et","lat":13.333333,"lon":36.3},{"id":891596,"name":"el begaiya","country":"et","lat":12.666667,"lon":35.7},{"id":2585564,"name":"basunda","country":"sd","lat":12.9666667,"lon":35.8333333},{"id":2587456,"name":"fatah el bab","country":"sd","lat":12.9333333,"lon":36.0833333},{"id":892356,"name":"gedabiet","country":"et","lat":13.3,"lon":36.316667},{"id":886619,"name":"abdulah","country":"et","lat":12.983333,"lon":36.366667}]});