callback({"markets":[{"id":1002751,"name":"utterby","country":"gb","lat":53.416667,"lon":-0.033333},{"id":1001087,"name":"south somercotes","country":"gb","lat":53.466667,"lon":0.133333},{"id":999884,"name":"rothwell","country":"gb","lat":53.483333,"lon":-0.266667},{"id":989337,"name":"cambridgeshire fens","country":"gb","lat":52.5,"lon":0.166667},{"id":997804,"name":"mumby","country":"gb","lat":53.233333,"lon":0.266667},{"id":1002115,"name":"threckingham","country":"gb","lat":52.9,"lon":-0.383333},{"id":992479,"name":"firsby","country":"gb","lat":53.15,"lon":0.183333},{"id":1001392,"name":"stixwould","country":"gb","lat":53.183333,"lon":-0.233333},{"id":986674,"name":"addlethorpe","country":"gb","lat":53.183333,"lon":0.316667},{"id":995307,"name":"kirby underwood","country":"gb","lat":52.816667,"lon":-0.4},{"id":1002857,"name":"walpole saint andrew","country":"gb","lat":52.733333,"lon":0.25},{"id":995240,"name":"kingthorpe","country":"gb","lat":53.25,"lon":-0.3},{"id":992749,"name":"fulstow","country":"gb","lat":53.45,"lon":-0.016667},{"id":1002038,"name":"thoresway","country":"gb","lat":53.45,"lon":-0.233333},{"id":1003619,"name":"wiggenhall saint germans","country":"gb","lat":52.683333,"lon":0.383333},{"id":992714,"name":"frithville","country":"gb","lat":53.033333,"lon":-0.033333},{"id":989699,"name":"chapel saint leonards","country":"gb","lat":53.216667,"lon":0.316667},{"id":998188,"name":"nordelph","country":"gb","lat":52.583333,"lon":0.3},{"id":992558,"name":"folkingham","country":"gb","lat":52.866667,"lon":-0.4},{"id":997179,"name":"martin","country":"gb","lat":53.116667,"lon":-0.333333},{"id":1000734,"name":"sibsey","country":"gb","lat":53.033333,"lon":0.016667},{"id":1001869,"name":"tansor","country":"gb","lat":52.5,"lon":-0.416667},{"id":987918,"name":"benniworth","country":"gb","lat":53.316667,"lon":-0.183333},{"id":992697,"name":"frieston","country":"gb","lat":52.966667,"lon":0.05},{"id":995846,"name":"leverington","country":"gb","lat":52.666667,"lon":-0.133333},{"id":1001794,"name":"swinhope","country":"gb","lat":53.45,"lon":-0.166667},{"id":995763,"name":"legbourne","country":"gb","lat":53.333333,"lon":0.05},{"id":993230,"name":"great carlton","country":"gb","lat":53.333333,"lon":0.116667},{"id":997636,"name":"moorby","country":"gb","lat":53.15,"lon":-0.066667},{"id":1002955,"name":"warmington","country":"gb","lat":52.5,"lon":-0.4},{"id":998582,"name":"orton waterville","country":"gb","lat":52.55,"lon":-0.3},{"id":993967,"name":"helpston","country":"gb","lat":52.616667,"lon":-0.333333},{"id":995720,"name":"leasingham","country":"gb","lat":53.016667,"lon":-0.416667},{"id":1002056,"name":"thorney","country":"gb","lat":52.616667,"lon":-0.1},{"id":1001039,"name":"south kyme","country":"gb","lat":53.016667,"lon":-0.25},{"id":995427,"name":"kirmond le mire","country":"gb","lat":53.416667,"lon":-0.216667},{"id":987122,"name":"ashby cum fenby","country":"gb","lat":53.483333,"lon":-0.116667},{"id":1002077,"name":"thornton le moor","country":"gb","lat":53.45,"lon":-0.416667},{"id":994251,"name":"holbeach clough","country":"gb","lat":52.816667,"lon":0.0},{"id":999913,"name":"rowston","country":"gb","lat":53.083333,"lon":-0.383333},{"id":1002815,"name":"walcot","country":"gb","lat":52.883333,"lon":-0.416667},{"id":998723,"name":"panton","country":"gb","lat":53.283333,"lon":-0.233333},{"id":987622,"name":"barnack","country":"gb","lat":52.616667,"lon":-0.4},{"id":1000004,"name":"ryhall","country":"gb","lat":52.666667,"lon":-0.466667},{"id":1002213,"name":"tilney","country":"gb","lat":52.7,"lon":0.3},{"id":992281,"name":"farforth","country":"gb","lat":53.283333,"lon":-0.016667},{"id":1000507,"name":"setch","country":"gb","lat":52.683333,"lon":0.416667},{"id":999599,"name":"reepham","country":"gb","lat":53.233333,"lon":-0.433333},{"id":994273,"name":"holland","country":"gb","lat":52.866667,"lon":-0.166667},{"id":1001685,"name":"surfleet","country":"gb","lat":52.833333,"lon":-0.133333},{"id":997108,"name":"market deeping","country":"gb","lat":52.666667,"lon":-0.3},{"id":992707,"name":"friskney","country":"gb","lat":53.066667,"lon":0.183333},{"id":993262,"name":"greatford","country":"gb","lat":52.683333,"lon":-0.383333},{"id":993901,"name":"heacham","country":"gb","lat":52.916667,"lon":0.483333},{"id":1002617,"name":"ulceby","country":"gb","lat":53.216667,"lon":0.133333},{"id":1000355,"name":"scamblesby","country":"gb","lat":53.283333,"lon":-0.083333},{"id":1003007,"name":"water newton","country":"gb","lat":52.55,"lon":-0.366667},{"id":987853,"name":"belchford","country":"gb","lat":53.266667,"lon":-0.05},{"id":996942,"name":"mablethorpe","country":"gb","lat":53.333333,"lon":0.25},{"id":990520,"name":"cotterstock","country":"gb","lat":52.5,"lon":-0.45},{"id":1003148,"name":"west ashby","country":"gb","lat":53.233333,"lon":-0.1},{"id":992057,"name":"elm","country":"gb","lat":52.633333,"lon":0.183333},{"id":1003278,"name":"west keal","country":"gb","lat":53.133333,"lon":0.05},{"id":1000796,"name":"sixhills","country":"gb","lat":53.366667,"lon":-0.233333},{"id":1003680,"name":"willoughby","country":"gb","lat":53.216667,"lon":0.2},{"id":988060,"name":"billingborough","country":"gb","lat":52.883333,"lon":-0.333333},{"id":995709,"name":"leake side","country":"gb","lat":53.033333,"lon":0.083333},{"id":995605,"name":"langrick","country":"gb","lat":53.016667,"lon":-0.116667},{"id":993560,"name":"hainton","country":"gb","lat":53.333333,"lon":-0.216667},{"id":999424,"name":"quarrington","country":"gb","lat":52.966667,"lon":-0.416667},{"id":994901,"name":"kelstern","country":"gb","lat":53.383333,"lon":-0.116667},{"id":999730,"name":"rippingale","country":"gb","lat":52.816667,"lon":-0.366667},{"id":1000937,"name":"somersby","country":"gb","lat":53.216667,"lon":0.016667},{"id":987726,"name":"baston","country":"gb","lat":52.7,"lon":-0.35},{"id":998285,"name":"north kyme","country":"gb","lat":53.05,"lon":-0.266667},{"id":990070,"name":"claxby","country":"gb","lat":53.433333,"lon":-0.316667},{"id":998325,"name":"north runcton","country":"gb","lat":52.7,"lon":0.433333},{"id":992874,"name":"gayton","country":"gb","lat":53.35,"lon":-0.133333},{"id":987917,"name":"bennington","country":"gb","lat":52.983333,"lon":0.083333},{"id":995611,"name":"langton by wragby","country":"gb","lat":53.266667,"lon":-0.283333},{"id":999271,"name":"potter hanworth","country":"gb","lat":53.183333,"lon":-0.416667},{"id":991212,"name":"denver","country":"gb","lat":52.583333,"lon":0.383333},{"id":993096,"name":"gorfield","country":"gb","lat":52.683333,"lon":0.1},{"id":1001907,"name":"tattershall thorpe","country":"gb","lat":53.116667,"lon":-0.183333},{"id":1003112,"name":"welton","country":"gb","lat":53.3,"lon":-0.483333},{"id":990792,"name":"croft","country":"gb","lat":53.133333,"lon":0.25},{"id":987228,"name":"aswardby","country":"gb","lat":53.2,"lon":0.066667},{"id":1001971,"name":"terrington","country":"gb","lat":52.75,"lon":0.3},{"id":1003998,"name":"wormegay","country":"gb","lat":52.666667,"lon":0.466667},{"id":993944,"name":"heighington","country":"gb","lat":53.2,"lon":-0.466667},{"id":1002603,"name":"uffington","country":"gb","lat":52.65,"lon":-0.416667},{"id":989036,"name":"bucknall","country":"gb","lat":53.2,"lon":-0.25},{"id":992380,"name":"fenland district","country":"gb","lat":52.533333,"lon":0.083333},{"id":1002147,"name":"thurlby","country":"gb","lat":52.716667,"lon":-0.366667},{"id":987744,"name":"baumber","country":"gb","lat":53.25,"lon":-0.166667},{"id":997814,"name":"murrow","country":"gb","lat":52.633333,"lon":0.033333},{"id":1001840,"name":"tallington","country":"gb","lat":52.65,"lon":-0.383333},{"id":1000409,"name":"scredington","country":"gb","lat":52.933333,"lon":-0.366667},{"id":987188,"name":"aslackby","country":"gb","lat":52.85,"lon":-0.383333},{"id":996083,"name":"little steeping","country":"gb","lat":53.133333,"lon":0.15},{"id":988802,"name":"brigsley","country":"gb","lat":53.483333,"lon":-0.1},{"id":988669,"name":"branston","country":"gb","lat":53.183333,"lon":-0.466667},{"id":990615,"name":"covenham","country":"gb","lat":53.416667,"lon":0.016667},{"id":1000845,"name":"skirbeck quarter","country":"gb","lat":52.95,"lon":-0.016667},{"id":994316,"name":"holton","country":"gb","lat":53.3,"lon":-0.333333},{"id":1002008,"name":"theddlethorpe saint helen","country":"gb","lat":53.366667,"lon":0.216667},{"id":995613,"name":"langton","country":"gb","lat":53.2,"lon":-0.15},{"id":986868,"name":"alvingham","country":"gb","lat":53.4,"lon":0.05},{"id":1001976,"name":"tetford","country":"gb","lat":53.25,"lon":-0.016667},{"id":998255,"name":"north elkington","country":"gb","lat":53.4,"lon":-0.066667},{"id":993669,"name":"hanthorpe","country":"gb","lat":52.783333,"lon":-0.383333},{"id":995809,"name":"lenton","country":"gb","lat":52.85,"lon":-0.466667},{"id":1000232,"name":"saltfleetby","country":"gb","lat":53.4,"lon":0.183333},{"id":999487,"name":"raithby","country":"gb","lat":53.166667,"lon":0.066667},{"id":993935,"name":"heckington","country":"gb","lat":52.966667,"lon":-0.283333},{"id":987597,"name":"barholm","country":"gb","lat":52.666667,"lon":-0.383333},{"id":993553,"name":"hagwothingham","country":"gb","lat":53.2,"lon":0.016667},{"id":1002605,"name":"ufford","country":"gb","lat":52.616667,"lon":-0.383333},{"id":998791,"name":"peakirk","country":"gb","lat":52.633333,"lon":-0.266667},{"id":992111,"name":"emneth","country":"gb","lat":52.633333,"lon":0.2},{"id":1003566,"name":"whittlesey","country":"gb","lat":52.55,"lon":-0.133333},{"id":1003796,"name":"wisbech saint mary","country":"gb","lat":52.633333,"lon":0.1},{"id":993151,"name":"grainsby","country":"gb","lat":53.466667,"lon":-0.066667},{"id":986594,"name":"aby","country":"gb","lat":53.266667,"lon":0.116667},{"id":1004037,"name":"wrangle","country":"gb","lat":53.033333,"lon":0.116667},{"id":998239,"name":"north coates","country":"gb","lat":53.466667,"lon":0.033333},{"id":988470,"name":"boston","country":"gb","lat":52.983333,"lon":-0.016667},{"id":1000924,"name":"soke of peterborough","country":"gb","lat":52.633333,"lon":-0.333333},{"id":1000811,"name":"skegness","country":"gb","lat":53.133333,"lon":0.35},{"id":988245,"name":"blankney","country":"gb","lat":53.116667,"lon":-0.4},{"id":1002382,"name":"toynton all saints","country":"gb","lat":53.15,"lon":0.083333},{"id":1004070,"name":"wyberton","country":"gb","lat":52.933333,"lon":-0.016667},{"id":997967,"name":"new bolingbroke","country":"gb","lat":53.1,"lon":-0.033333},{"id":1001215,"name":"stainton","country":"gb","lat":53.433333,"lon":-0.233333},{"id":1002805,"name":"wainfleet","country":"gb","lat":53.1,"lon":0.25},{"id":1001712,"name":"sutton saint james","country":"gb","lat":52.733333,"lon":0.066667},{"id":995191,"name":"king\u0027s lynn","country":"gb","lat":52.75,"lon":0.383333},{"id":1000910,"name":"snelland","country":"gb","lat":53.3,"lon":-0.383333},{"id":1001375,"name":"stickford","country":"gb","lat":53.116667,"lon":0.016667},{"id":987831,"name":"beelsby","country":"gb","lat":53.483333,"lon":-0.183333},{"id":1004114,"name":"yarburgh","country":"gb","lat":53.4,"lon":0.033333},{"id":995621,"name":"langworth","country":"gb","lat":53.266667,"lon":-0.416667},{"id":1000231,"name":"saltfleetby saint peter","country":"gb","lat":53.366667,"lon":0.15},{"id":1003346,"name":"weston","country":"gb","lat":52.8,"lon":-0.066667},{"id":995848,"name":"leverton","country":"gb","lat":53.0,"lon":0.083333},{"id":1003816,"name":"withcall","country":"gb","lat":53.366667,"lon":-0.066667},{"id":1002856,"name":"walmsgate","country":"gb","lat":53.266667,"lon":0.05},{"id":1001970,"name":"terrington saint john","country":"gb","lat":52.716667,"lon":0.283333},{"id":1001796,"name":"swinstead","country":"gb","lat":52.783333,"lon":-0.483333},{"id":999959,"name":"runcton holme","country":"gb","lat":52.65,"lon":0.4},{"id":991423,"name":"downham market","country":"gb","lat":52.6,"lon":0.366667},{"id":990623,"name":"cowbit","country":"gb","lat":52.733333,"lon":-0.116667},{"id":990875,"name":"crowland","country":"gb","lat":52.666667,"lon":-0.15},{"id":988683,"name":"brauncewell","country":"gb","lat":53.05,"lon":-0.433333},{"id":1003787,"name":"winthorpe","country":"gb","lat":53.166667,"lon":0.333333},{"id":997397,"name":"middle rasen","country":"gb","lat":53.383333,"lon":-0.366667},{"id":1002495,"name":"trusthorpe","country":"gb","lat":53.316667,"lon":0.266667},{"id":993492,"name":"guyhirne","country":"gb","lat":52.616667,"lon":0.066667},{"id":991167,"name":"deeping saint james","country":"gb","lat":52.65,"lon":-0.283333},{"id":998278,"name":"north kelsey","country":"gb","lat":53.483333,"lon":-0.416667},{"id":989073,"name":"bunkers hill","country":"gb","lat":53.066667,"lon":-0.1},{"id":987303,"name":"authorpe","country":"gb","lat":53.3,"lon":0.1},{"id":997021,"name":"maltby le marsh","country":"gb","lat":53.3,"lon":0.2},{"id":1003370,"name":"west rasen","country":"gb","lat":53.383333,"lon":-0.4},{"id":993823,"name":"haugham","country":"gb","lat":53.3,"lon":0.0},{"id":997093,"name":"mareham le fen","country":"gb","lat":53.133333,"lon":-0.083333},{"id":993540,"name":"haddon","country":"gb","lat":52.516667,"lon":-0.316667},{"id":991346,"name":"dogdyke","country":"gb","lat":53.083333,"lon":-0.2},{"id":995581,"name":"langfoft","country":"gb","lat":52.7,"lon":-0.333333},{"id":997151,"name":"marsh chapel","country":"gb","lat":53.466667,"lon":0.05},{"id":987123,"name":"ashby de la launde","country":"gb","lat":53.083333,"lon":-0.433333},{"id":995961,"name":"lissington","country":"gb","lat":53.333333,"lon":-0.333333},{"id":1002735,"name":"upwell","country":"gb","lat":52.6,"lon":0.216667},{"id":997114,"name":"market rasen","country":"gb","lat":53.383333,"lon":-0.333333},{"id":997735,"name":"moulton","country":"gb","lat":52.783333,"lon":-0.05},{"id":1001547,"name":"stradsett","country":"gb","lat":52.616667,"lon":0.45},{"id":1003797,"name":"wisbech","country":"gb","lat":52.666667,"lon":0.166667},{"id":1000233,"name":"saltfleet","country":"gb","lat":53.416667,"lon":0.183333},{"id":986950,"name":"apley","country":"gb","lat":53.266667,"lon":-0.35},{"id":1001115,"name":"south wootton","country":"gb","lat":52.766667,"lon":0.433333},{"id":992744,"name":"fulletby","country":"gb","lat":53.233333,"lon":-0.05},{"id":989575,"name":"castle rising","country":"gb","lat":52.8,"lon":0.483333},{"id":998167,"name":"new york","country":"gb","lat":53.083333,"lon":-0.15},{"id":1002524,"name":"tumby","country":"gb","lat":53.116667,"lon":-0.15},{"id":992289,"name":"farlesthorpe","country":"gb","lat":53.233333,"lon":0.2},{"id":1001786,"name":"swineshead","country":"gb","lat":52.933333,"lon":-0.15},{"id":1002729,"name":"upton","country":"gb","lat":52.583333,"lon":-0.366667},{"id":1003105,"name":"welney","country":"gb","lat":52.516667,"lon":0.25},{"id":998180,"name":"nocton","country":"gb","lat":53.166667,"lon":-0.416667},{"id":1002918,"name":"wansford","country":"gb","lat":52.583333,"lon":-0.416667},{"id":1004034,"name":"wragby","country":"gb","lat":53.283333,"lon":-0.3},{"id":989169,"name":"burton pedwardine","country":"gb","lat":52.95,"lon":-0.333333},{"id":991635,"name":"dunston","country":"gb","lat":53.15,"lon":-0.4},{"id":989253,"name":"caenby","country":"gb","lat":53.383333,"lon":-0.483333},{"id":991963,"name":"edlington","country":"gb","lat":53.233333,"lon":-0.15},{"id":992879,"name":"gaywood","country":"gb","lat":52.75,"lon":0.433333},{"id":989508,"name":"carrington","country":"gb","lat":53.083333,"lon":-0.05},{"id":1003441,"name":"whaplode","country":"gb","lat":52.783333,"lon":-0.033333},{"id":994377,"name":"horbling","country":"gb","lat":52.9,"lon":-0.333333},{"id":1003153,"name":"west barkwith","country":"gb","lat":53.3,"lon":-0.266667},{"id":1000994,"name":"south cockerington","country":"gb","lat":53.366667,"lon":0.066667},{"id":997936,"name":"nettleham","country":"gb","lat":53.266667,"lon":-0.483333},{"id":998315,"name":"north owersby","country":"gb","lat":53.433333,"lon":-0.4},{"id":988075,"name":"binbrook","country":"gb","lat":53.433333,"lon":-0.183333},{"id":1001124,"name":"spanby","country":"gb","lat":52.916667,"lon":-0.366667},{"id":1003371,"name":"west ravendale","country":"gb","lat":53.483333,"lon":-0.15},{"id":1000411,"name":"scrivelsby","country":"gb","lat":53.183333,"lon":-0.1},{"id":1001766,"name":"swarby","country":"gb","lat":52.933333,"lon":-0.433333},{"id":986899,"name":"anderby","country":"gb","lat":53.25,"lon":0.283333},{"id":1001080,"name":"southrey","country":"gb","lat":53.183333,"lon":-0.3},{"id":988498,"name":"bourn","country":"gb","lat":52.766667,"lon":-0.383333},{"id":999537,"name":"rauceby","country":"gb","lat":53.0,"lon":-0.483333},{"id":997874,"name":"nassington","country":"gb","lat":52.55,"lon":-0.416667},{"id":991374,"name":"donington","country":"gb","lat":52.9,"lon":-0.2},{"id":1002084,"name":"thornton","country":"gb","lat":53.033333,"lon":-0.083333},{"id":1003210,"name":"west dereham","country":"gb","lat":52.583333,"lon":0.45},{"id":1003696,"name":"wilsthorpe","country":"gb","lat":52.7,"lon":-0.366667},{"id":990101,"name":"clenchwarton","country":"gb","lat":52.75,"lon":0.35},{"id":1001526,"name":"stowbridge","country":"gb","lat":52.65,"lon":0.383333},{"id":1001654,"name":"sudbrooke","country":"gb","lat":53.266667,"lon":-0.45},{"id":998360,"name":"north wootton","country":"gb","lat":52.783333,"lon":0.433333},{"id":1001206,"name":"stainfield","country":"gb","lat":53.233333,"lon":-0.35},{"id":992220,"name":"ewerby","country":"gb","lat":53.0,"lon":-0.333333},{"id":995397,"name":"kirkstead","country":"gb","lat":53.133333,"lon":-0.233333},{"id":987834,"name":"beesby","country":"gb","lat":53.283333,"lon":0.183333},{"id":995324,"name":"kirkby","country":"gb","lat":53.133333,"lon":-0.15},{"id":993876,"name":"haydor","country":"gb","lat":52.933333,"lon":-0.483333},{"id":994483,"name":"hubbard bridge","country":"gb","lat":52.966667,"lon":-0.1},{"id":1002065,"name":"thornhaugh","country":"gb","lat":52.6,"lon":-0.416667},{"id":989442,"name":"carlby","country":"gb","lat":52.7,"lon":-0.433333},{"id":994675,"name":"ingoldsby","country":"gb","lat":52.85,"lon":-0.483333},{"id":988016,"name":"bicker","country":"gb","lat":52.916667,"lon":-0.166667},{"id":998762,"name":"paston","country":"gb","lat":52.6,"lon":-0.25},{"id":1000712,"name":"shouldham thorpe","country":"gb","lat":52.633333,"lon":0.466667},{"id":1000711,"name":"shouldham","country":"gb","lat":52.65,"lon":0.483333},{"id":987577,"name":"bardney","country":"gb","lat":53.216667,"lon":-0.316667},{"id":1003990,"name":"worlaby","country":"gb","lat":53.266667,"lon":0.016667},{"id":999075,"name":"pointon","country":"gb","lat":52.85,"lon":-0.333333},{"id":986766,"name":"alford","country":"gb","lat":53.25,"lon":0.183333},{"id":995999,"name":"little cawthorpe","country":"gb","lat":53.316667,"lon":0.033333},{"id":999703,"name":"rigsby","country":"gb","lat":53.25,"lon":0.15},{"id":1002039,"name":"thorganby","country":"gb","lat":53.466667,"lon":-0.183333},{"id":989179,"name":"burwell","country":"gb","lat":53.283333,"lon":0.033333},{"id":1001251,"name":"stanground","country":"gb","lat":52.55,"lon":-0.233333},{"id":995998,"name":"little carlton","country":"gb","lat":53.333333,"lon":0.1},{"id":992664,"name":"frampton","country":"gb","lat":52.916667,"lon":-0.016667},{"id":1001143,"name":"spilsby","country":"gb","lat":53.183333,"lon":0.1},{"id":996885,"name":"lusby","country":"gb","lat":53.183333,"lon":0.0},{"id":993565,"name":"hale","country":"gb","lat":52.95,"lon":-0.283333},{"id":994394,"name":"horncastle","country":"gb","lat":53.2,"lon":-0.116667},{"id":997701,"name":"morton","country":"gb","lat":52.783333,"lon":-0.366667},{"id":988341,"name":"bolingbroke","country":"gb","lat":53.15,"lon":0.016667},{"id":998751,"name":"partney","country":"gb","lat":53.183333,"lon":0.116667},{"id":994674,"name":"ingoldmells","country":"gb","lat":53.183333,"lon":0.333333},{"id":998585,"name":"osbournby","country":"gb","lat":52.916667,"lon":-0.4},{"id":1001770,"name":"swaton","country":"gb","lat":52.916667,"lon":-0.3},{"id":994470,"name":"howell","country":"gb","lat":52.983333,"lon":-0.3},{"id":1000870,"name":"sleaford","country":"gb","lat":52.983333,"lon":-0.4},{"id":988932,"name":"brothertoft","country":"gb","lat":52.983333,"lon":-0.1},{"id":1000846,"name":"skirbeck","country":"gb","lat":52.966667,"lon":0.0},{"id":992089,"name":"elton","country":"gb","lat":52.533333,"lon":-0.383333},{"id":993152,"name":"grainthorpe","country":"gb","lat":53.466667,"lon":0.083333},{"id":1002027,"name":"thimbleby","country":"gb","lat":53.216667,"lon":-0.133333},{"id":1002858,"name":"walpole saint peter","country":"gb","lat":52.716667,"lon":0.216667},{"id":1003837,"name":"wittering","country":"gb","lat":52.6,"lon":-0.45},{"id":992024,"name":"elkington","country":"gb","lat":53.383333,"lon":-0.066667},{"id":1001111,"name":"south willingham","country":"gb","lat":53.333333,"lon":-0.2},{"id":992278,"name":"farcet","country":"gb","lat":52.533333,"lon":-0.233333},{"id":1001093,"name":"south thoresby","country":"gb","lat":53.266667,"lon":0.1},{"id":993585,"name":"hallington","country":"gb","lat":53.366667,"lon":-0.05},{"id":999630,"name":"revesby","country":"gb","lat":53.133333,"lon":-0.05},{"id":993424,"name":"grimsthorpe","country":"gb","lat":52.783333,"lon":-0.433333},{"id":993421,"name":"grimoldby","country":"gb","lat":53.366667,"lon":0.083333},{"id":999940,"name":"ruckland","country":"gb","lat":53.266667,"lon":0.0},{"id":994252,"name":"holbeach","country":"gb","lat":52.8,"lon":0.016667},{"id":997734,"name":"moulton chapel","country":"gb","lat":52.733333,"lon":-0.083333},{"id":991624,"name":"dunsby","country":"gb","lat":52.816667,"lon":-0.35},{"id":995768,"name":"legsby","country":"gb","lat":53.35,"lon":-0.3},{"id":992267,"name":"faldingworth","country":"gb","lat":53.35,"lon":-0.4},{"id":998994,"name":"pinchbeck","country":"gb","lat":52.8,"lon":-0.15},{"id":989591,"name":"castor","country":"gb","lat":52.566667,"lon":-0.333333},{"id":1003020,"name":"watlington","country":"gb","lat":52.666667,"lon":0.383333},{"id":988564,"name":"braceborough","country":"gb","lat":52.7,"lon":-0.4},{"id":1000330,"name":"saxby","country":"gb","lat":53.366667,"lon":-0.483333},{"id":990964,"name":"cumberworth","country":"gb","lat":53.233333,"lon":0.25},{"id":998660,"name":"oxcombe","country":"gb","lat":53.266667,"lon":-0.033333},{"id":991884,"name":"eastville","country":"gb","lat":53.083333,"lon":0.1},{"id":988121,"name":"biscathorpe","country":"gb","lat":53.35,"lon":-0.15},{"id":990082,"name":"claythorpe","country":"gb","lat":53.283333,"lon":0.116667},{"id":992626,"name":"fotheringhay","country":"gb","lat":52.516667,"lon":-0.433333},{"id":991596,"name":"dunholme","country":"gb","lat":53.3,"lon":-0.466667},{"id":995996,"name":"little bytham","country":"gb","lat":52.733333,"lon":-0.483333},{"id":993027,"name":"glentham","country":"gb","lat":53.4,"lon":-0.483333},{"id":1000219,"name":"salmonby","country":"gb","lat":53.233333,"lon":-0.016667},{"id":1001231,"name":"stamford","country":"gb","lat":52.65,"lon":-0.483333},{"id":992625,"name":"fotherby","country":"gb","lat":53.4,"lon":-0.016667},{"id":991265,"name":"digby","country":"gb","lat":53.083333,"lon":-0.366667},{"id":987227,"name":"aswarby","country":"gb","lat":52.933333,"lon":-0.4},{"id":993965,"name":"helpringham","country":"gb","lat":52.933333,"lon":-0.3},{"id":997937,"name":"nettleton","country":"gb","lat":53.483333,"lon":-0.316667},{"id":996895,"name":"lutton","country":"gb","lat":52.8,"lon":0.116667},{"id":992618,"name":"fosdyke","country":"gb","lat":52.866667,"lon":-0.033333},{"id":1002575,"name":"tydd saint mary","country":"gb","lat":52.733333,"lon":0.166667},{"id":998354,"name":"north willingham","country":"gb","lat":53.383333,"lon":-0.25},{"id":993523,"name":"hacconby","country":"gb","lat":52.8,"lon":-0.35},{"id":1003633,"name":"wigtoft","country":"gb","lat":52.9,"lon":-0.116667},{"id":1001723,"name":"sutton","country":"gb","lat":52.566667,"lon":-0.383333},{"id":996851,"name":"ludford","country":"gb","lat":53.4,"lon":-0.2},{"id":988813,"name":"brinkhill","country":"gb","lat":53.233333,"lon":0.066667},{"id":1003401,"name":"west walton","country":"gb","lat":52.7,"lon":0.166667},{"id":997651,"name":"morborne","country":"gb","lat":52.5,"lon":-0.316667},{"id":986771,"name":"algarkirk","country":"gb","lat":52.883333,"lon":-0.066667},{"id":997353,"name":"metheringham","country":"gb","lat":53.133333,"lon":-0.4},{"id":990697,"name":"cranwell","country":"gb","lat":53.033333,"lon":-0.466667},{"id":997104,"name":"marholm","country":"gb","lat":52.6,"lon":-0.3},{"id":994776,"name":"irnham","country":"gb","lat":52.816667,"lon":-0.466667},{"id":999978,"name":"ruskington","country":"gb","lat":53.033333,"lon":-0.383333},{"id":1001623,"name":"strubby","country":"gb","lat":53.3,"lon":0.183333},{"id":1002574,"name":"tydd saint giles","country":"gb","lat":52.716667,"lon":0.116667},{"id":989242,"name":"cabourne","country":"gb","lat":53.483333,"lon":-0.283333},{"id":1000229,"name":"saltfleetby all saints","country":"gb","lat":53.383333,"lon":0.183333},{"id":994878,"name":"keisby","country":"gb","lat":52.833333,"lon":-0.45},{"id":996714,"name":"long sutton","country":"gb","lat":52.783333,"lon":0.133333},{"id":988663,"name":"brandon creek","country":"gb","lat":52.5,"lon":0.366667},{"id":1001067,"name":"southorpe","country":"gb","lat":52.6,"lon":-0.4},{"id":1001034,"name":"south kelsey","country":"gb","lat":53.466667,"lon":-0.433333},{"id":1003621,"name":"wiggenhall","country":"gb","lat":52.683333,"lon":0.366667},{"id":991168,"name":"deeping saint nicholas","country":"gb","lat":52.716667,"lon":-0.2},{"id":1002984,"name":"washingborough","country":"gb","lat":53.216667,"lon":-0.466667},{"id":1002007,"name":"theddlethorpe all saints","country":"gb","lat":53.366667,"lon":0.2},{"id":1001708,"name":"sutton on sea","country":"gb","lat":53.316667,"lon":0.283333},{"id":997035,"name":"manby","country":"gb","lat":53.366667,"lon":0.1},{"id":997538,"name":"miningsby","country":"gb","lat":53.15,"lon":-0.016667},{"id":991446,"name":"drayton","country":"gb","lat":52.916667,"lon":-0.15},{"id":1000387,"name":"scopwick","country":"gb","lat":53.1,"lon":-0.4},{"id":1002823,"name":"walesby","country":"gb","lat":53.416667,"lon":-0.283333},{"id":997647,"name":"moortown","country":"gb","lat":53.483333,"lon":-0.383333},{"id":1001906,"name":"tattershall","country":"gb","lat":53.1,"lon":-0.2},{"id":997413,"name":"middleton","country":"gb","lat":52.716667,"lon":0.466667},{"id":990453,"name":"cornisholme","country":"gb","lat":53.433333,"lon":0.1},{"id":1003858,"name":"wolferton","country":"gb","lat":52.833333,"lon":0.466667},{"id":993805,"name":"hatcliffe","country":"gb","lat":53.483333,"lon":-0.166667},{"id":997063,"name":"mansthorpe","country":"gb","lat":52.716667,"lon":-0.416667},{"id":995435,"name":"kirton","country":"gb","lat":52.916667,"lon":-0.05},{"id":1001698,"name":"sutton bridge","country":"gb","lat":52.766667,"lon":0.183333},{"id":1003856,"name":"wold newton","country":"gb","lat":53.45,"lon":-0.133333},{"id":996852,"name":"ludford magna","country":"gb","lat":53.383333,"lon":-0.183333},{"id":997156,"name":"marshland","country":"gb","lat":52.633333,"lon":0.233333},{"id":1001378,"name":"stickney","country":"gb","lat":53.083333,"lon":0.016667},{"id":988065,"name":"billinghay","country":"gb","lat":53.083333,"lon":-0.283333},{"id":992491,"name":"fishtoft","country":"gb","lat":52.95,"lon":0.033333},{"id":991938,"name":"edenham","country":"gb","lat":52.766667,"lon":-0.416667},{"id":1001977,"name":"tetney","country":"gb","lat":53.483333,"lon":-0.016667},{"id":996842,"name":"ludborough","country":"gb","lat":53.433333,"lon":-0.05},{"id":997486,"name":"millthorpe","country":"gb","lat":52.866667,"lon":-0.35},{"id":997783,"name":"muckton","country":"gb","lat":53.3,"lon":0.066667},{"id":1003709,"name":"wimblington","country":"gb","lat":52.5,"lon":0.083333},{"id":997095,"name":"mareham on the hill","country":"gb","lat":53.183333,"lon":-0.066667},{"id":995943,"name":"linwood","country":"gb","lat":53.35,"lon":-0.333333},{"id":1001693,"name":"sutterton","country":"gb","lat":52.9,"lon":-0.083333},{"id":991375,"name":"donington on bain","country":"gb","lat":53.316667,"lon":-0.15},{"id":993128,"name":"goulsby","country":"gb","lat":53.283333,"lon":-0.116667},{"id":991395,"name":"dorrington","country":"gb","lat":53.066667,"lon":-0.383333},{"id":993031,"name":"glinton","country":"gb","lat":52.633333,"lon":-0.283333},{"id":993524,"name":"haceby","country":"gb","lat":52.9,"lon":-0.466667},{"id":998552,"name":"orby","country":"gb","lat":53.183333,"lon":0.233333},{"id":1000398,"name":"scothern","country":"gb","lat":53.283333,"lon":-0.45},{"id":1002105,"name":"thorpe","country":"gb","lat":53.116667,"lon":0.216667},{"id":998506,"name":"old leake","country":"gb","lat":53.016667,"lon":0.1},{"id":986870,"name":"alwalton","country":"gb","lat":52.55,"lon":-0.316667},{"id":994421,"name":"horsington","country":"gb","lat":53.2,"lon":-0.216667},{"id":990584,"name":"county of lincolnshire","country":"gb","lat":53.166667,"lon":-0.25},{"id":992712,"name":"frith bank","country":"gb","lat":53.016667,"lon":-0.033333},{"id":997968,"name":"newborough","country":"gb","lat":52.616667,"lon":-0.216667},{"id":999626,"name":"reston","country":"gb","lat":53.316667,"lon":0.1},{"id":1003139,"name":"wereham","country":"gb","lat":52.583333,"lon":0.483333},{"id":993060,"name":"godney hill","country":"gb","lat":52.666667,"lon":-0.016667},{"id":997948,"name":"newball","country":"gb","lat":53.266667,"lon":-0.383333},{"id":993976,"name":"hemingby","country":"gb","lat":53.25,"lon":-0.15},{"id":998313,"name":"north ormsby","country":"gb","lat":53.416667,"lon":-0.066667},{"id":1002272,"name":"toft","country":"gb","lat":53.366667,"lon":-0.433333},{"id":997085,"name":"march","country":"gb","lat":52.55,"lon":0.083333},{"id":991720,"name":"east barkwith","country":"gb","lat":53.316667,"lon":-0.25},{"id":993347,"name":"great sturton","country":"gb","lat":53.266667,"lon":-0.166667},{"id":1003920,"name":"woodnewton","country":"gb","lat":52.533333,"lon":-0.466667},{"id":990381,"name":"coningsby","country":"gb","lat":53.116667,"lon":-0.166667},{"id":1003904,"name":"woodhall spa","country":"gb","lat":53.15,"lon":-0.216667},{"id":1002869,"name":"walsoken","country":"gb","lat":52.666667,"lon":0.183333},{"id":1002795,"name":"waddingworth","country":"gb","lat":53.216667,"lon":-0.216667},{"id":993819,"name":"hatton","country":"gb","lat":53.266667,"lon":-0.233333},{"id":991811,"name":"east keal","country":"gb","lat":53.15,"lon":0.066667},{"id":1001165,"name":"spridlington","country":"gb","lat":53.35,"lon":-0.483333},{"id":1002383,"name":"toynton saint peter","country":"gb","lat":53.133333,"lon":0.1},{"id":1002859,"name":"walpole","country":"gb","lat":52.733333,"lon":0.233333},{"id":998336,"name":"north thoresby","country":"gb","lat":53.466667,"lon":-0.05},{"id":994861,"name":"keddington","country":"gb","lat":53.366667,"lon":0.016667},{"id":992886,"name":"gedney","country":"gb","lat":52.783333,"lon":0.1},{"id":994512,"name":"humby","country":"gb","lat":52.866667,"lon":-0.05},{"id":996752,"name":"louth","country":"gb","lat":53.366667,"lon":-0.016667},{"id":993740,"name":"harrington","country":"gb","lat":53.216667,"lon":0.05},{"id":998624,"name":"outwell","country":"gb","lat":52.616667,"lon":0.233333},{"id":989209,"name":"butterwick","country":"gb","lat":52.983333,"lon":0.066667},{"id":1003589,"name":"wickenby","country":"gb","lat":53.316667,"lon":-0.366667},{"id":992521,"name":"fleet","country":"gb","lat":52.783333,"lon":0.066667},{"id":986948,"name":"anwick","country":"gb","lat":53.033333,"lon":-0.35},{"id":1002557,"name":"twenty","country":"gb","lat":52.75,"lon":-0.283333},{"id":993121,"name":"gosberton","country":"gb","lat":52.85,"lon":-0.15},{"id":1001900,"name":"tathwell","country":"gb","lat":53.333333,"lon":-0.016667},{"id":1000953,"name":"sotby","country":"gb","lat":53.283333,"lon":-0.183333},{"id":988279,"name":"bloxholm","country":"gb","lat":53.083333,"lon":-0.416667},{"id":990733,"name":"creeton","country":"gb","lat":52.75,"lon":-0.483333},{"id":1001017,"name":"southery","country":"gb","lat":52.516667,"lon":0.383333},{"id":989092,"name":"burgh le marsh","country":"gb","lat":53.15,"lon":0.25},{"id":990010,"name":"city of peterborough","country":"gb","lat":52.583333,"lon":-0.25},{"id":994156,"name":"hilgay","country":"gb","lat":52.55,"lon":0.4},{"id":994568,"name":"huttoft","country":"gb","lat":53.25,"lon":0.266667},{"id":998118,"name":"newton","country":"gb","lat":52.7,"lon":0.133333},{"id":1000827,"name":"skendleby","country":"gb","lat":53.216667,"lon":0.15},{"id":1004133,"name":"yaxley","country":"gb","lat":52.5,"lon":-0.25},{"id":989427,"name":"careby","country":"gb","lat":52.716667,"lon":-0.483333},{"id":995917,"name":"lindsey","country":"gb","lat":53.416667,"lon":-0.333333},{"id":987110,"name":"asgarby","country":"gb","lat":52.983333,"lon":-0.333333},{"id":993664,"name":"hannah","country":"gb","lat":53.283333,"lon":0.25},{"id":994320,"name":"holton le moor","country":"gb","lat":53.466667,"lon":-0.366667},{"id":992868,"name":"gautby","country":"gb","lat":53.233333,"lon":-0.233333},{"id":998120,"name":"newton","country":"gb","lat":52.9,"lon":-0.433333},{"id":992179,"name":"essendine","country":"gb","lat":52.683333,"lon":-0.433333},{"id":1002747,"name":"usselby","country":"gb","lat":53.433333,"lon":-0.35},{"id":1001350,"name":"stenigot","country":"gb","lat":53.316667,"lon":-0.133333},{"id":1002900,"name":"walton","country":"gb","lat":52.6,"lon":-0.266667},{"id":990269,"name":"coldham","country":"gb","lat":52.6,"lon":0.116667},{"id":986873,"name":"amber hill","country":"gb","lat":52.983333,"lon":-0.15},{"id":998330,"name":"north somercotes","country":"gb","lat":53.433333,"lon":0.15},{"id":1003109,"name":"welton le wold","country":"gb","lat":53.366667,"lon":-0.083333},{"id":993603,"name":"halton holgate","country":"gb","lat":53.15,"lon":0.116667},{"id":991860,"name":"east ravendale","country":"gb","lat":53.466667,"lon":-0.133333},{"id":990882,"name":"croxby","country":"gb","lat":53.466667,"lon":-0.216667},{"id":1001121,"name":"spalding","country":"gb","lat":52.783333,"lon":-0.166667},{"id":996750,"name":"lound","country":"gb","lat":52.733333,"lon":-0.4},{"id":992239,"name":"eye","country":"gb","lat":52.6,"lon":-0.183333}]});