callback({"markets":[{"id":2386199,"name":"chernyatino","country":"ru","lat":56.518889,"lon":32.531111},{"id":2507770,"name":"sanevo","country":"ru","lat":56.846176,"lon":33.206062},{"id":2385558,"name":"chernaya gryaz","country":"ru","lat":56.837222,"lon":33.449167},{"id":2404029,"name":"grinino","country":"ru","lat":57.284179,"lon":33.32507},{"id":2451869,"name":"maloye danilavo","country":"ru","lat":57.033333,"lon":32.983333},{"id":2500660,"name":"rantsevo","country":"ru","lat":56.661965,"lon":33.030292},{"id":2367364,"name":"baranka","country":"ru","lat":56.536835,"lon":32.697171},{"id":2379288,"name":"borodulino","country":"ru","lat":56.713112,"lon":33.297577},{"id":2461322,"name":"monakovo","country":"ru","lat":57.494756,"lon":32.860947},{"id":2526964,"name":"stary sig","country":"ru","lat":57.014184,"lon":33.163574},{"id":2400580,"name":"golenok","country":"ru","lat":57.384122,"lon":33.029261},{"id":2377352,"name":"bolshoye kukushkino","country":"ru","lat":56.674716,"lon":33.159834},{"id":2465759,"name":"nechayevshchina","country":"ru","lat":56.983957,"lon":32.706933},{"id":2363907,"name":"armyani","country":"ru","lat":56.761111,"lon":33.276944},{"id":2386989,"name":"chikino","country":"ru","lat":56.916111,"lon":33.141111},{"id":2527529,"name":"staryy skrebel","country":"ru","lat":57.499606,"lon":33.022793},{"id":2367818,"name":"barskoye","country":"ru","lat":56.844722,"lon":33.152778},{"id":2455868,"name":"materovo","country":"ru","lat":57.418525,"lon":33.046285},{"id":2376623,"name":"bolshiye prudy","country":"ru","lat":56.611617,"lon":33.343927},{"id":2498784,"name":"punyatino","country":"ru","lat":56.808964,"lon":33.313893},{"id":2470098,"name":"nizhnyaya gorka","country":"ru","lat":56.666667,"lon":32.716667},{"id":2569550,"name":"zelenaya","country":"ru","lat":56.5028,"lon":33.483867},{"id":2362306,"name":"anikhonovo","country":"ru","lat":56.72406,"lon":32.523443},{"id":2377900,"name":"bolshoye veretye","country":"ru","lat":57.348836,"lon":33.335871},{"id":2427270,"name":"konevo","country":"ru","lat":57.207053,"lon":33.060309},{"id":2509728,"name":"selikovo","country":"ru","lat":56.690664,"lon":32.874553},{"id":2539985,"name":"tselpany","country":"ru","lat":56.68268,"lon":32.855335},{"id":2381621,"name":"bulatovo","country":"ru","lat":56.731274,"lon":33.403887},{"id":2450132,"name":"malaya antonovshchina","country":"ru","lat":57.216667,"lon":32.916667},{"id":2365817,"name":"babinka","country":"ru","lat":56.56134,"lon":32.991041},{"id":2372021,"name":"beyshlot","country":"ru","lat":56.888044,"lon":33.3224},{"id":2563101,"name":"yelnik","country":"ru","lat":57.445054,"lon":33.017088},{"id":2458143,"name":"mezhdurechye","country":"ru","lat":57.305149,"lon":33.341744},{"id":2460186,"name":"mizinovo","country":"ru","lat":56.808698,"lon":32.897696},{"id":2377218,"name":"bolshoye ilinskoye","country":"ru","lat":56.942901,"lon":32.863142},{"id":2512284,"name":"shadyki","country":"ru","lat":56.961203,"lon":33.092227},{"id":2490544,"name":"plyushcheva","country":"ru","lat":56.760153,"lon":33.243985},{"id":2486169,"name":"peno","country":"ru","lat":56.92624,"lon":32.742625},{"id":2460368,"name":"mogilitsy","country":"ru","lat":56.626667,"lon":33.122222},{"id":2372830,"name":"bitukha","country":"ru","lat":57.126445,"lon":32.500225},{"id":2555437,"name":"volgo","country":"ru","lat":56.9025,"lon":33.166389},{"id":2566207,"name":"zabegalovo","country":"ru","lat":56.756667,"lon":33.44},{"id":2529023,"name":"studenets","country":"ru","lat":56.966008,"lon":32.865974},{"id":2371578,"name":"berezug","country":"ru","lat":56.771149,"lon":33.361178},{"id":2514342,"name":"shelegovka","country":"ru","lat":56.663879,"lon":32.761805},{"id":2534736,"name":"teglyatsy","country":"ru","lat":56.811177,"lon":33.490004},{"id":2498713,"name":"pulino","country":"ru","lat":56.6075,"lon":33.301667},{"id":2488239,"name":"petrochikha","country":"ru","lat":56.583564,"lon":32.682226},{"id":2572074,"name":"zimnitsy","country":"ru","lat":57.481729,"lon":33.165792},{"id":2451951,"name":"maloye ivakhnovo","country":"ru","lat":56.729346,"lon":33.467037},{"id":2425700,"name":"kolobovo","country":"ru","lat":56.7073,"lon":32.7898},{"id":2566523,"name":"zadneye zarushevye","country":"ru","lat":56.873336,"lon":33.029415},{"id":2544563,"name":"urevy","country":"ru","lat":56.988064,"lon":33.314621},{"id":2371183,"name":"bereznik","country":"ru","lat":57.499615,"lon":32.563139},{"id":2480824,"name":"orlino","country":"ru","lat":56.861177,"lon":32.639973},{"id":2488827,"name":"petryzhikha","country":"ru","lat":56.51873,"lon":33.471641},{"id":2423491,"name":"klimova gora","country":"ru","lat":57.291781,"lon":32.973416},{"id":2370121,"name":"beloshkino","country":"ru","lat":56.688909,"lon":33.149954},{"id":2528913,"name":"strugi","country":"ru","lat":56.893987,"lon":33.390833},{"id":2492259,"name":"pogost-golenkovo","country":"ru","lat":56.968572,"lon":33.48711},{"id":2379565,"name":"borovskoye","country":"ru","lat":57.383333,"lon":32.883333},{"id":2513996,"name":"shcheverovo","country":"ru","lat":56.862295,"lon":32.569484},{"id":2454024,"name":"mamonovshchina","country":"ru","lat":57.3494,"lon":32.562883},{"id":2401513,"name":"gorbukha","country":"ru","lat":57.07467,"lon":32.713476},{"id":2522192,"name":"sonino","country":"ru","lat":56.639722,"lon":33.328333},{"id":2528691,"name":"strelnik","country":"ru","lat":56.667346,"lon":33.443891},{"id":2515526,"name":"shilovo vrevy","country":"ru","lat":56.994722,"lon":33.278056},{"id":2424055,"name":"klyuchki","country":"ru","lat":56.67703,"lon":33.115146},{"id":2414830,"name":"kartoshino","country":"ru","lat":56.713485,"lon":33.348362},{"id":2560719,"name":"yamskaya","country":"ru","lat":56.708355,"lon":33.370244},{"id":2530426,"name":"surharevo","country":"ru","lat":56.563984,"lon":33.21976},{"id":2491237,"name":"podgriva","country":"ru","lat":56.781111,"lon":33.052778},{"id":2566583,"name":"zadornya","country":"ru","lat":56.799722,"lon":32.797778},{"id":2530752,"name":"sutoki","country":"ru","lat":56.703599,"lon":33.444731},{"id":2399741,"name":"glebova","country":"ru","lat":57.400883,"lon":33.075883},{"id":2515881,"name":"shirkovo","country":"ru","lat":57.10821,"lon":32.63252},{"id":2469394,"name":"nizhniye kotitsy","country":"ru","lat":57.029503,"lon":33.280857},{"id":2432517,"name":"krasnaya zarya","country":"ru","lat":56.975,"lon":33.471667},{"id":2566183,"name":"zabarya","country":"ru","lat":57.1911,"lon":32.9503},{"id":2505514,"name":"ryazanovshchina","country":"ru","lat":57.355752,"lon":32.780324},{"id":2385695,"name":"chernichkino","country":"ru","lat":56.707084,"lon":33.400073},{"id":2409239,"name":"ivankovskiy","country":"ru","lat":56.606667,"lon":32.736944},{"id":2431297,"name":"kozhino","country":"ru","lat":57.375553,"lon":32.542692},{"id":2442692,"name":"lebedevka","country":"ru","lat":56.643889,"lon":32.801667},{"id":2393140,"name":"dubenka","country":"ru","lat":56.847432,"lon":33.15542},{"id":2440618,"name":"kuznechki","country":"ru","lat":56.637466,"lon":32.854777},{"id":2394054,"name":"dunovo","country":"ru","lat":56.572921,"lon":32.996812},{"id":2541827,"name":"tverdyakino","country":"ru","lat":57.253875,"lon":33.121269},{"id":2453272,"name":"malyye nivy","country":"ru","lat":56.984984,"lon":33.468291},{"id":2377395,"name":"bolshoye lokhovo","country":"ru","lat":56.910876,"lon":32.93524},{"id":2561589,"name":"yasinskoye","country":"ru","lat":56.947279,"lon":33.022232},{"id":2466418,"name":"nepriye","country":"ru","lat":57.217553,"lon":33.019368},{"id":2378005,"name":"bolshoye zaneprechye","country":"ru","lat":56.966667,"lon":32.9},{"id":2377223,"name":"bolshoye ivakhnovo","country":"ru","lat":56.724602,"lon":33.471492},{"id":2568884,"name":"zauzye","country":"ru","lat":57.3606,"lon":32.986653},{"id":2391171,"name":"dmitrova","country":"ru","lat":56.746639,"lon":33.315351},{"id":2570515,"name":"zhegalovo","country":"ru","lat":57.326835,"lon":32.742339},{"id":2559124,"name":"vysokaya gora","country":"ru","lat":57.471795,"lon":33.021189},{"id":2474107,"name":"novonikolsk","country":"ru","lat":57.48347,"lon":33.293022},{"id":2477181,"name":"novyye yeltsy","country":"ru","lat":57.282644,"lon":32.905321},{"id":2535294,"name":"teplynka","country":"ru","lat":57.422127,"lon":32.548245},{"id":2472446,"name":"novoaleksandrovskoye","country":"ru","lat":56.950134,"lon":33.087602},{"id":2365042,"name":"aunshino","country":"ru","lat":57.254705,"lon":33.454239},{"id":2450984,"name":"malaya volga","country":"ru","lat":56.855169,"lon":33.357305},{"id":2493286,"name":"polovinniki","country":"ru","lat":56.644722,"lon":33.393056},{"id":2518054,"name":"sigovo","country":"ru","lat":57.015701,"lon":32.907255},{"id":2375709,"name":"bolshaya volga","country":"ru","lat":56.857247,"lon":33.358813},{"id":2421982,"name":"kirilkovo","country":"ru","lat":57.339645,"lon":32.522597},{"id":2403447,"name":"grechishnikovo","country":"ru","lat":56.62271,"lon":32.596583},{"id":2458681,"name":"mikhaylovo","country":"ru","lat":56.6731,"lon":32.8226},{"id":2491544,"name":"podolishche","country":"ru","lat":57.388215,"lon":33.023873},{"id":2434807,"name":"krestnyy","country":"ru","lat":56.956111,"lon":33.324722},{"id":2393318,"name":"dubovaya","country":"ru","lat":56.500556,"lon":33.303611},{"id":2439782,"name":"kustyn","country":"ru","lat":56.951944,"lon":32.850556},{"id":2555777,"name":"volodarskoye","country":"ru","lat":57.050925,"lon":33.07706},{"id":2483744,"name":"palagino","country":"ru","lat":57.44155,"lon":32.651066},{"id":2492626,"name":"pokrov","country":"ru","lat":57.483034,"lon":33.050733},{"id":2466556,"name":"neskuchnoye","country":"ru","lat":57.13209,"lon":33.005572},{"id":2504413,"name":"rudnevo","country":"ru","lat":57.416658,"lon":33.489874},{"id":2365552,"name":"azaryevo","country":"ru","lat":57.266667,"lon":32.816667},{"id":2486583,"name":"pereterk","country":"ru","lat":57.414825,"lon":33.033439},{"id":2491472,"name":"podlyadye","country":"ru","lat":56.996435,"lon":32.704628},{"id":2484435,"name":"panyuki","country":"ru","lat":57.062307,"lon":33.292104},{"id":2446066,"name":"lokotets","country":"ru","lat":57.161663,"lon":33.23432},{"id":2452490,"name":"maloye veretye","country":"ru","lat":57.36697,"lon":33.330986},{"id":2537987,"name":"torfyanyy uchastok pervyy","country":"ru","lat":57.129444,"lon":33.0725},{"id":2435281,"name":"krivshino","country":"ru","lat":56.720971,"lon":32.744944},{"id":2503723,"name":"roven","country":"ru","lat":57.409475,"lon":32.789534},{"id":2474773,"name":"novosel","country":"ru","lat":57.449191,"lon":33.21586},{"id":2360984,"name":"alkhimtsevo","country":"ru","lat":56.622222,"lon":32.626389},{"id":2567654,"name":"zamoshenka","country":"ru","lat":57.496032,"lon":32.892737},{"id":2452489,"name":"maloye vdovino","country":"ru","lat":56.552949,"lon":32.510865},{"id":2556117,"name":"volzhanka","country":"ru","lat":56.791254,"lon":33.21372},{"id":2377253,"name":"bolshoye kashino","country":"ru","lat":56.563859,"lon":33.204797},{"id":2424185,"name":"knutovo","country":"ru","lat":56.683919,"lon":32.991848},{"id":2369146,"name":"bazuyeva","country":"ru","lat":56.572042,"lon":32.688085},{"id":2491457,"name":"podlozhye","country":"ru","lat":57.168695,"lon":33.180188},{"id":2376941,"name":"bolshoy chashchivets","country":"ru","lat":57.327554,"lon":32.787632},{"id":2398434,"name":"ganino","country":"ru","lat":56.645172,"lon":32.717139},{"id":2390622,"name":"devesilka","country":"ru","lat":56.614819,"lon":33.260094},{"id":2385308,"name":"cherety","country":"ru","lat":57.022078,"lon":32.570086},{"id":2451846,"name":"maloye burtsevo","country":"ru","lat":56.683333,"lon":33.35},{"id":2380346,"name":"bredovka","country":"ru","lat":56.962222,"lon":32.819167},{"id":2488199,"name":"petrikovo","country":"ru","lat":57.077694,"lon":33.11571},{"id":2505742,"name":"rybolovo","country":"ru","lat":56.850949,"lon":33.286903},{"id":2512923,"name":"shapochkino","country":"ru","lat":56.574127,"lon":32.67625},{"id":2400919,"name":"golovkino","country":"ru","lat":57.114916,"lon":32.602483},{"id":2450742,"name":"malaya ruchyevaya","country":"ru","lat":56.558905,"lon":32.996367},{"id":2572059,"name":"zimnik","country":"ru","lat":56.674202,"lon":33.461783},{"id":2427454,"name":"konopat","country":"ru","lat":56.843346,"lon":33.389032},{"id":2555820,"name":"volodkino","country":"ru","lat":56.568778,"lon":32.693379},{"id":2363104,"name":"apokin","country":"ru","lat":56.915468,"lon":33.274407},{"id":2492330,"name":"pogost uvitsy","country":"ru","lat":57.166667,"lon":32.616667},{"id":2453160,"name":"malyye klochki","country":"ru","lat":56.650942,"lon":33.412304},{"id":2433773,"name":"krasnyye glinki","country":"ru","lat":56.726042,"lon":33.048162},{"id":2419109,"name":"khodulino","country":"ru","lat":56.726806,"lon":32.969548},{"id":2418509,"name":"khilovets","country":"ru","lat":56.900758,"lon":33.428354},{"id":2491500,"name":"podmoshye","country":"ru","lat":56.628139,"lon":33.422435},{"id":2373112,"name":"blinnikova","country":"ru","lat":56.740278,"lon":33.486667},{"id":2490804,"name":"pochinok","country":"ru","lat":56.820278,"lon":33.256389},{"id":2495417,"name":"poselye","country":"ru","lat":57.371153,"lon":32.965158},{"id":2541534,"name":"turskaya","country":"ru","lat":57.376615,"lon":33.013804},{"id":2514490,"name":"sheludenevo","country":"ru","lat":56.709955,"lon":33.331019},{"id":2538017,"name":"torg","country":"ru","lat":57.002125,"lon":32.65708},{"id":2389819,"name":"demekhovka","country":"ru","lat":56.654722,"lon":33.362778},{"id":2424442,"name":"kobenevo","country":"ru","lat":56.901411,"lon":32.956043},{"id":2479844,"name":"olisovo","country":"ru","lat":56.761059,"lon":32.948694},{"id":2566254,"name":"zaberechye","country":"ru","lat":57.07736,"lon":32.585396},{"id":2369758,"name":"belka","country":"ru","lat":57.175196,"lon":32.586363},{"id":2433838,"name":"krasnyye sady","country":"ru","lat":56.833308,"lon":33.174652},{"id":2454556,"name":"marevka","country":"ru","lat":56.647445,"lon":33.232501},{"id":2443501,"name":"leonovskoye","country":"ru","lat":57.002703,"lon":33.243017},{"id":2448139,"name":"lyady","country":"ru","lat":56.991927,"lon":32.522598},{"id":2443148,"name":"lemmo","country":"ru","lat":56.830404,"lon":33.062882},{"id":2374520,"name":"boloshovo","country":"ru","lat":57.361538,"lon":32.781693},{"id":2445607,"name":"lizukhi","country":"ru","lat":56.571111,"lon":33.022222},{"id":2571676,"name":"zhukov","country":"ru","lat":56.972778,"lon":33.090278},{"id":2511127,"name":"seredka","country":"ru","lat":56.81518,"lon":32.886244},{"id":2509332,"name":"sebrovo","country":"ru","lat":57.259285,"lon":33.361284},{"id":2510336,"name":"semenovshchina","country":"ru","lat":57.318809,"lon":33.415879},{"id":2448469,"name":"lykovo","country":"ru","lat":57.492339,"lon":33.082764},{"id":2506179,"name":"rzhavtsy","country":"ru","lat":56.752554,"lon":33.383613},{"id":2475417,"name":"novo-troitskoye","country":"ru","lat":56.885833,"lon":32.932222},{"id":2551407,"name":"verkhniye goritsy","country":"ru","lat":56.812526,"lon":33.116579},{"id":2425683,"name":"kolobova","country":"ru","lat":56.915992,"lon":33.106336},{"id":2530816,"name":"suvidovo","country":"ru","lat":56.641389,"lon":33.078611},{"id":2435000,"name":"kripivnya","country":"ru","lat":57.076436,"lon":33.402362},{"id":2515653,"name":"shinkarevo","country":"ru","lat":56.552164,"lon":32.705693},{"id":2532031,"name":"syrodol","country":"ru","lat":56.945568,"lon":33.228785},{"id":2529214,"name":"styrovo","country":"ru","lat":56.649444,"lon":32.910556},{"id":2410704,"name":"kadnikovo","country":"ru","lat":57.371869,"lon":32.556264},{"id":2485790,"name":"pechenitsino","country":"ru","lat":56.861369,"lon":33.482941},{"id":2571313,"name":"zhiromo","country":"ru","lat":57.300165,"lon":32.703421},{"id":2411555,"name":"kalishche","country":"ru","lat":57.108946,"lon":33.213088},{"id":2569973,"name":"zemtsovo","country":"ru","lat":56.909506,"lon":33.376254},{"id":2566526,"name":"zadniy bor","country":"ru","lat":56.735833,"lon":32.990833},{"id":2514508,"name":"shelupenikha","country":"ru","lat":56.595881,"lon":33.246613},{"id":2491085,"name":"podgornaya","country":"ru","lat":57.445679,"lon":33.043737},{"id":2431344,"name":"kozhuritsa","country":"ru","lat":57.155835,"lon":32.6191},{"id":2531180,"name":"svetlitsa","country":"ru","lat":57.237787,"lon":33.069203},{"id":2437430,"name":"kulatovo","country":"ru","lat":57.020681,"lon":33.220983},{"id":2387524,"name":"chizhi","country":"ru","lat":56.763812,"lon":33.463024},{"id":2566361,"name":"zaborki","country":"ru","lat":57.268268,"lon":32.925906},{"id":2376406,"name":"bolshiye koty","country":"ru","lat":56.569167,"lon":33.076944},{"id":2421552,"name":"kileshino","country":"ru","lat":56.879329,"lon":33.456291},{"id":2500527,"name":"rameni","country":"ru","lat":57.4,"lon":32.766667},{"id":2379937,"name":"botovo","country":"ru","lat":57.151684,"lon":32.983727},{"id":2453196,"name":"malyye koty","country":"ru","lat":56.577222,"lon":33.048056},{"id":2460898,"name":"moksheya","country":"ru","lat":57.430855,"lon":32.527606},{"id":2498365,"name":"pryamushenki","country":"ru","lat":56.546389,"lon":32.5075},{"id":2488546,"name":"petrovshchina","country":"ru","lat":57.3,"lon":32.8},{"id":2405035,"name":"gulnevo","country":"ru","lat":56.64045,"lon":32.987242},{"id":2509794,"name":"selishche","country":"ru","lat":56.887937,"lon":33.26914},{"id":2571691,"name":"zhulevo","country":"ru","lat":57.134149,"lon":33.034033},{"id":2393120,"name":"dubasovo","country":"ru","lat":56.667604,"lon":32.737682},{"id":2571516,"name":"zholobovo","country":"ru","lat":56.725278,"lon":33.364167},{"id":2551572,"name":"verkhniye rudiny","country":"ru","lat":57.1275,"lon":33.171389},{"id":2501383,"name":"razekhino","country":"ru","lat":56.555278,"lon":33.3425},{"id":2535473,"name":"terekhovshchina","country":"ru","lat":57.402214,"lon":32.825427},{"id":2508770,"name":"savina gora","country":"ru","lat":57.29714,"lon":32.590144},{"id":2377090,"name":"bolshoye burtsero","country":"ru","lat":56.687924,"lon":33.334017},{"id":2386235,"name":"cherny dor","country":"ru","lat":57.237202,"lon":33.28716},{"id":2478828,"name":"odveritsa-brod","country":"ru","lat":57.087175,"lon":32.654035},{"id":2458358,"name":"migilevo","country":"ru","lat":57.387063,"lon":32.977253},{"id":2391908,"name":"dolmatikha","country":"ru","lat":57.473163,"lon":33.087818},{"id":2567160,"name":"zakharyata","country":"ru","lat":56.718549,"lon":33.101847},{"id":2494421,"name":"porebritsa","country":"ru","lat":57.1438,"lon":32.628687},{"id":2500967,"name":"rastvorovo","country":"ru","lat":56.736341,"lon":33.287426},{"id":2381223,"name":"bugor","country":"ru","lat":56.805426,"lon":32.973688},{"id":2448705,"name":"lyubimka","country":"ru","lat":57.099449,"lon":32.964242},{"id":2520867,"name":"sobolevo","country":"ru","lat":57.476502,"lon":32.676134},{"id":2453262,"name":"malyye moshki","country":"ru","lat":56.598237,"lon":33.168123},{"id":2556791,"name":"vorovskoye","country":"ru","lat":57.2076,"lon":32.6018},{"id":2482091,"name":"ostrovki","country":"ru","lat":56.80935,"lon":33.410016},{"id":2517696,"name":"shuvayevo","country":"ru","lat":56.849845,"lon":33.048495},{"id":2529836,"name":"sukhoshino","country":"ru","lat":56.821776,"lon":33.304868},{"id":2477080,"name":"novyye polya","country":"ru","lat":57.05,"lon":33.466667},{"id":2499843,"name":"pyroshnya","country":"ru","lat":56.584722,"lon":33.29},{"id":2441843,"name":"lanino","country":"ru","lat":56.898745,"lon":33.249857},{"id":2438258,"name":"kunichinkovo","country":"ru","lat":56.79479,"lon":33.074928},{"id":2528252,"name":"stolbnoy","country":"ru","lat":57.235248,"lon":33.061508},{"id":2493752,"name":"polya","country":"ru","lat":57.062596,"lon":33.474074},{"id":2523844,"name":"spornitsa","country":"ru","lat":56.610833,"lon":32.969444},{"id":2563356,"name":"yemelyanova gora","country":"ru","lat":56.803611,"lon":32.895833},{"id":2397173,"name":"filippy","country":"ru","lat":56.543056,"lon":33.185556},{"id":2514393,"name":"shelikhovo","country":"ru","lat":56.83745,"lon":33.297134},{"id":2567757,"name":"zaneprechye","country":"ru","lat":56.967833,"lon":32.903667},{"id":2568420,"name":"zarino","country":"ru","lat":57.168434,"lon":33.22088},{"id":2537374,"name":"tolochino","country":"ru","lat":56.690299,"lon":33.212031},{"id":2505188,"name":"rvenitsy","country":"ru","lat":57.31179,"lon":32.575781},{"id":2501409,"name":"razinino","country":"ru","lat":56.847348,"lon":33.294267},{"id":2437511,"name":"kuleshina","country":"ru","lat":56.570504,"lon":33.498096},{"id":2440622,"name":"kuznechkovo","country":"ru","lat":57.492186,"lon":32.807855},{"id":2483835,"name":"palikha","country":"ru","lat":57.14216,"lon":32.64588},{"id":2483311,"name":"ozertsy","country":"ru","lat":56.709796,"lon":32.772483},{"id":2427226,"name":"konets","country":"ru","lat":57.171173,"lon":32.985978},{"id":2544635,"name":"uritskoye","country":"ru","lat":57.307728,"lon":32.597916},{"id":2539674,"name":"trutnevka","country":"ru","lat":56.711944,"lon":33.105556},{"id":2400382,"name":"gnutishche","country":"ru","lat":57.397953,"lon":32.570458},{"id":2561321,"name":"yarovyn","country":"ru","lat":56.956944,"lon":33.348611},{"id":2493203,"name":"polonvka","country":"ru","lat":56.813851,"lon":33.33834},{"id":2426126,"name":"koltakovo","country":"ru","lat":56.806975,"lon":33.29818},{"id":2452091,"name":"maloye lokhovo","country":"ru","lat":56.910676,"lon":32.948897},{"id":2420739,"name":"khutora-dubskiye","country":"ru","lat":57.153013,"lon":32.847542},{"id":2401911,"name":"gorka","country":"ru","lat":56.559824,"lon":32.693631},{"id":2431797,"name":"kraklovo","country":"ru","lat":57.039888,"lon":33.104536},{"id":2502982,"name":"rogozha","country":"ru","lat":57.097955,"lon":33.259176},{"id":2436845,"name":"kud","country":"ru","lat":56.983256,"lon":32.555087},{"id":2414863,"name":"kartun","country":"ru","lat":57.299573,"lon":32.867233},{"id":2379953,"name":"botvinino","country":"ru","lat":56.592294,"lon":33.477512},{"id":2489108,"name":"pikhten","country":"ru","lat":57.089751,"lon":32.793675},{"id":2484547,"name":"paramonovka","country":"ru","lat":56.670351,"lon":33.294325},{"id":2447580,"name":"lukyanova","country":"ru","lat":56.609643,"lon":32.646376},{"id":2531693,"name":"svyatitsy","country":"ru","lat":57.45,"lon":33.05},{"id":2466142,"name":"nelegino","country":"ru","lat":56.975688,"lon":33.293156},{"id":2515243,"name":"shiberekha","country":"ru","lat":57.33753,"lon":32.726372},{"id":2394083,"name":"dupli","country":"ru","lat":56.974444,"lon":33.271667},{"id":2531001,"name":"svapushche","country":"ru","lat":57.260904,"lon":32.698902},{"id":2450507,"name":"malaya lapushka","country":"ru","lat":56.781559,"lon":33.352799},{"id":2549685,"name":"velizhki","country":"ru","lat":56.71,"lon":32.941667},{"id":2429563,"name":"kosarovo","country":"ru","lat":56.744585,"lon":33.334948},{"id":2544229,"name":"unitsy","country":"ru","lat":57.183889,"lon":33.153056},{"id":2512774,"name":"shamrino","country":"ru","lat":56.820651,"lon":33.239304},{"id":2458209,"name":"mezhniki","country":"ru","lat":57.460026,"lon":32.796471},{"id":2360954,"name":"alkatovo","country":"ru","lat":57.075635,"lon":33.137642},{"id":2482008,"name":"ostritsa","country":"ru","lat":57.238207,"lon":33.165159},{"id":2482236,"name":"ostsy","country":"ru","lat":57.083092,"lon":33.272625},{"id":2514280,"name":"shekino","country":"ru","lat":56.561111,"lon":33.258889},{"id":2469484,"name":"nizhniye rudiny","country":"ru","lat":57.131225,"lon":33.164349},{"id":2370972,"name":"beresnevo","country":"ru","lat":57.361083,"lon":32.787524},{"id":2406181,"name":"ignashovka","country":"ru","lat":57.33614,"lon":32.651437},{"id":2434545,"name":"kravotyn","country":"ru","lat":57.2775,"lon":33.141389},{"id":2389649,"name":"dedovskoye","country":"ru","lat":56.530556,"lon":32.54},{"id":2462309,"name":"mosolovo","country":"ru","lat":56.858182,"lon":33.256441},{"id":2491229,"name":"podgorye","country":"ru","lat":57.284742,"lon":32.742316},{"id":2373325,"name":"bobovishche","country":"ru","lat":57.063107,"lon":32.591536},{"id":2452059,"name":"maloye kukushkino","country":"ru","lat":56.676493,"lon":33.166722},{"id":2438894,"name":"kurichino","country":"ru","lat":56.752344,"lon":33.283492},{"id":2567395,"name":"zalesye pronino","country":"ru","lat":57.1134,"lon":32.539},{"id":2514349,"name":"shelekhovo","country":"ru","lat":57.218885,"lon":32.604659},{"id":2558338,"name":"vyatka","country":"ru","lat":57.4,"lon":33.016667},{"id":2452612,"name":"malo-zhdanskoye","country":"ru","lat":57.183333,"lon":32.833333},{"id":2569449,"name":"zekhnova","country":"ru","lat":57.001191,"lon":33.264925},{"id":2551475,"name":"verkhniye kotitsy","country":"ru","lat":57.05876,"lon":33.283889},{"id":2371697,"name":"berniki","country":"ru","lat":56.882696,"lon":33.438249},{"id":2452982,"name":"malyy chashchivets","country":"ru","lat":57.332506,"lon":32.792867},{"id":2403996,"name":"grilevo","country":"ru","lat":56.646201,"lon":32.81891},{"id":2433387,"name":"krasnoye utro","country":"ru","lat":56.989049,"lon":32.536866},{"id":2567511,"name":"zaluchye","country":"ru","lat":57.201015,"lon":33.145295},{"id":2425625,"name":"kollektiv butonya","country":"ru","lat":56.948889,"lon":33.083889},{"id":2376515,"name":"bolshiye moshki","country":"ru","lat":56.590981,"lon":33.175747},{"id":2371517,"name":"berezovskiy ryadok","country":"ru","lat":57.306527,"lon":32.797927},{"id":2558950,"name":"vyselok-ilinskoye","country":"ru","lat":56.951151,"lon":32.856323},{"id":2555465,"name":"volkhovshchina","country":"ru","lat":57.283137,"lon":33.027489},{"id":2519401,"name":"skovorovo","country":"ru","lat":56.862574,"lon":33.301345},{"id":2364186,"name":"artyukhi","country":"ru","lat":56.771984,"lon":33.220949},{"id":2522389,"name":"soroga","country":"ru","lat":57.17703,"lon":33.179017},{"id":2547037,"name":"utitsy","country":"ru","lat":56.768889,"lon":32.771111},{"id":2360645,"name":"aleshino","country":"ru","lat":56.915334,"lon":33.491605},{"id":2518048,"name":"sigovka","country":"ru","lat":57.09592,"lon":33.207901},{"id":2376919,"name":"bolshoy bor","country":"ru","lat":56.541853,"lon":33.48561},{"id":2554155,"name":"vileyka","country":"ru","lat":56.925989,"lon":33.472687},{"id":2377199,"name":"bolshoye gorodishche","country":"ru","lat":57.047271,"lon":32.807171},{"id":2508011,"name":"saprygino","country":"ru","lat":56.911636,"lon":33.481912},{"id":2443673,"name":"leshchiny","country":"ru","lat":57.201097,"lon":33.21807},{"id":2532661,"name":"takovye","country":"ru","lat":56.535,"lon":33.05},{"id":2385532,"name":"chernaya","country":"ru","lat":56.5675,"lon":32.596111},{"id":2410691,"name":"kadishchi","country":"ru","lat":56.607232,"lon":33.389675},{"id":2445246,"name":"lipukha","country":"ru","lat":57.273402,"lon":32.655166},{"id":2361885,"name":"andreyevka","country":"ru","lat":56.5675,"lon":32.953611},{"id":2410197,"name":"izvedovo","country":"ru","lat":56.940556,"lon":32.739444},{"id":2559469,"name":"vyzhlyatnikovo","country":"ru","lat":56.722519,"lon":33.227001},{"id":2458427,"name":"mikhalchenki","country":"ru","lat":56.557368,"lon":33.201873},{"id":2451925,"name":"maloye gorodishche","country":"ru","lat":57.05,"lon":32.816667},{"id":2523805,"name":"spitsyno","country":"ru","lat":57.054285,"lon":33.242641},{"id":2455614,"name":"mashutina gora","country":"ru","lat":57.349576,"lon":32.783662},{"id":2377898,"name":"bolshoye vdovino","country":"ru","lat":56.5436,"lon":32.5095},{"id":2493205,"name":"polookhino","country":"ru","lat":56.69825,"lon":33.345202},{"id":2430533,"name":"kotchishe","country":"ru","lat":57.294826,"lon":33.244691},{"id":2445116,"name":"lipovets","country":"ru","lat":57.143796,"lon":33.495422},{"id":2498310,"name":"prutki","country":"ru","lat":56.634119,"lon":33.275162},{"id":2429906,"name":"kositskoye","country":"ru","lat":57.086881,"lon":32.709846},{"id":2402600,"name":"gorovastitsa","country":"ru","lat":56.83507,"lon":32.873905},{"id":2448188,"name":"lyakhonovo","country":"ru","lat":57.116667,"lon":32.75},{"id":2529610,"name":"sukhaya niva","country":"ru","lat":57.408981,"lon":33.356569},{"id":2360486,"name":"alekseyevskiy","country":"ru","lat":56.619444,"lon":32.721111},{"id":2397426,"name":"folkovo","country":"ru","lat":56.717831,"lon":33.086949},{"id":2452517,"name":"maloye vyzhlyatnikovo","country":"ru","lat":56.727568,"lon":33.211004},{"id":2377117,"name":"bolshoye danilovo","country":"ru","lat":57.046045,"lon":32.983497},{"id":2452876,"name":"malyugi","country":"ru","lat":56.5475,"lon":33.320833},{"id":2569244,"name":"zayevo","country":"ru","lat":57.001361,"lon":32.75335},{"id":2442053,"name":"lapushka","country":"ru","lat":56.781944,"lon":33.324167},{"id":2531731,"name":"svyatoye","country":"ru","lat":57.254536,"lon":33.348351},{"id":2431825,"name":"krapivenka","country":"ru","lat":56.579722,"lon":33.285556},{"id":2535211,"name":"teplen","country":"ru","lat":57.07841,"lon":32.697843},{"id":2507116,"name":"salnikovshchina","country":"ru","lat":57.289516,"lon":32.970448},{"id":2462055,"name":"moshenka","country":"ru","lat":57.362283,"lon":33.263176},{"id":2568997,"name":"zavirye","country":"ru","lat":56.927861,"lon":33.194502},{"id":2529194,"name":"stupni","country":"ru","lat":56.733333,"lon":32.837778},{"id":2496254,"name":"pramkha","country":"ru","lat":56.786912,"lon":32.921639},{"id":2541842,"name":"tverskaya","country":"ru","lat":56.625074,"lon":33.240175},{"id":2547386,"name":"uzgovo","country":"ru","lat":57.214,"lon":32.6027},{"id":2408809,"name":"ispolye","country":"ru","lat":56.8377,"lon":32.8981},{"id":2570526,"name":"zhegorino","country":"ru","lat":56.511326,"lon":33.232726},{"id":2493288,"name":"polovinnik","country":"ru","lat":56.871667,"lon":32.9275},{"id":2441703,"name":"lakhovskiy ostrov","country":"ru","lat":56.561667,"lon":32.722778},{"id":2467170,"name":"nikishki","country":"ru","lat":56.961543,"lon":32.930371},{"id":2480822,"name":"orlinka","country":"ru","lat":57.063835,"lon":32.722416},{"id":2541844,"name":"tverskoye","country":"ru","lat":56.784389,"lon":33.266153},{"id":2480622,"name":"orekhovka","country":"ru","lat":57.402845,"lon":33.062269},{"id":2500174,"name":"radukhovo","country":"ru","lat":57.131129,"lon":32.955059},{"id":2536500,"name":"timonkino","country":"ru","lat":56.665263,"lon":32.814992},{"id":2526657,"name":"staroye selo","country":"ru","lat":57.271049,"lon":32.795007},{"id":2399958,"name":"glubochitsa","country":"ru","lat":57.239722,"lon":33.150016},{"id":2556040,"name":"volshya gora","country":"ru","lat":56.972664,"lon":33.159526},{"id":2393715,"name":"dubye","country":"ru","lat":57.140654,"lon":32.888273},{"id":2519135,"name":"skiridovo","country":"ru","lat":56.668611,"lon":32.890278},{"id":2374675,"name":"bolshaya antonovshchina","country":"ru","lat":57.216667,"lon":32.933333},{"id":2452616,"name":"malsevo","country":"ru","lat":56.699881,"lon":33.007365},{"id":2389053,"name":"danilkovo","country":"ru","lat":56.634722,"lon":32.939167},{"id":2381489,"name":"bukovichi","country":"ru","lat":57.057393,"lon":33.192463},{"id":2558892,"name":"vyselki dolgoye","country":"ru","lat":57.130433,"lon":33.407336},{"id":2561918,"name":"yazovo","country":"ru","lat":56.957405,"lon":33.228093},{"id":2571679,"name":"zhuk","country":"ru","lat":56.970299,"lon":33.306053},{"id":2362915,"name":"antufyevo","country":"ru","lat":56.670833,"lon":32.845833},{"id":2553492,"name":"veselenka","country":"ru","lat":56.693611,"lon":32.699167},{"id":2397192,"name":"filistova","country":"ru","lat":56.795328,"lon":33.375576},{"id":2570877,"name":"zherdovka","country":"ru","lat":56.511291,"lon":33.086565},{"id":2504324,"name":"rudakino","country":"ru","lat":56.64,"lon":33.0025},{"id":2462020,"name":"moshary","country":"ru","lat":56.643747,"lon":32.847406},{"id":2379206,"name":"borodina","country":"ru","lat":57.297394,"lon":32.985794},{"id":2393390,"name":"dubovochka","country":"ru","lat":56.638056,"lon":33.217778},{"id":2567503,"name":"zalozye","country":"ru","lat":57.025985,"lon":32.66629},{"id":2451946,"name":"maloye ilinskoye","country":"ru","lat":56.9485,"lon":32.867568},{"id":2571571,"name":"zhukopa","country":"ru","lat":56.545005,"lon":32.697645},{"id":2405460,"name":"gushcha","country":"ru","lat":57.264472,"lon":32.887018},{"id":2393300,"name":"dubok","country":"ru","lat":56.95,"lon":33.348889},{"id":2567505,"name":"zaltso","country":"ru","lat":57.254992,"lon":33.133231},{"id":2570753,"name":"zheltukhi","country":"ru","lat":56.503889,"lon":33.363333},{"id":2481400,"name":"osinka","country":"ru","lat":57.391673,"lon":33.031651},{"id":2570237,"name":"zhalybnya","country":"ru","lat":57.294695,"lon":32.770787},{"id":2538688,"name":"tretniki","country":"ru","lat":57.273239,"lon":32.81122},{"id":2375276,"name":"bolshaya niva","country":"ru","lat":56.781111,"lon":33.0375},{"id":2462001,"name":"moseyevtsy","country":"ru","lat":57.212585,"lon":32.573455},{"id":2566610,"name":"zadubye","country":"ru","lat":57.297101,"lon":33.001081},{"id":2529688,"name":"sukhlova","country":"ru","lat":57.224254,"lon":33.387285},{"id":2382086,"name":"burekhino","country":"ru","lat":56.772826,"lon":32.955927},{"id":2461727,"name":"morochi","country":"ru","lat":56.582605,"lon":33.213437},{"id":2562497,"name":"yekimkovo","country":"ru","lat":57.422156,"lon":33.20356},{"id":2499113,"name":"pustosha","country":"ru","lat":56.996111,"lon":33.036944},{"id":2375019,"name":"bolshaya khmeleva","country":"ru","lat":56.506683,"lon":33.058121},{"id":2414103,"name":"karely","country":"ru","lat":56.543056,"lon":33.331111},{"id":2440921,"name":"kvashnino","country":"ru","lat":56.988901,"lon":32.689255},{"id":2403364,"name":"grebenevo","country":"ru","lat":57.488406,"lon":33.422197},{"id":2418618,"name":"khititsy","country":"ru","lat":56.629123,"lon":33.360951},{"id":2367392,"name":"baranova gora","country":"ru","lat":56.898152,"lon":33.262105},{"id":2557422,"name":"vozdukhi","country":"ru","lat":57.469482,"lon":32.820117},{"id":2459744,"name":"mishina niva","country":"ru","lat":56.852553,"lon":33.090037},{"id":2379234,"name":"borodino","country":"ru","lat":56.642478,"lon":32.700027},{"id":2470959,"name":"nosovitsa","country":"ru","lat":57.088127,"lon":32.817906},{"id":2480417,"name":"opokin","country":"ru","lat":56.913889,"lon":33.275},{"id":2465973,"name":"nekhina gora","country":"ru","lat":57.055612,"lon":33.064309},{"id":2469340,"name":"nizhniye goritsy","country":"ru","lat":56.812382,"lon":33.125128},{"id":2498097,"name":"provalennaya","country":"ru","lat":56.588732,"lon":33.210286},{"id":2365521,"name":"azanovo","country":"ru","lat":56.513589,"lon":33.314707},{"id":2410103,"name":"izmaytovo","country":"ru","lat":56.825503,"lon":33.275462},{"id":2493750,"name":"polya","country":"ru","lat":57.45064,"lon":32.521434},{"id":2445004,"name":"lipiten","country":"ru","lat":56.88,"lon":33.174722},{"id":2439854,"name":"kutevskiy","country":"ru","lat":56.654167,"lon":32.66},{"id":2539025,"name":"troitskiy","country":"ru","lat":56.594444,"lon":32.671111},{"id":2460244,"name":"mochalishche","country":"ru","lat":56.68743,"lon":33.168027},{"id":2432051,"name":"kraski","country":"ru","lat":56.757161,"lon":33.493785},{"id":2520829,"name":"soblago","country":"ru","lat":56.863745,"lon":32.591709},{"id":2436602,"name":"kubyshkino","country":"ru","lat":56.88158,"lon":33.476854},{"id":2442246,"name":"laskorevshchina","country":"ru","lat":57.27029,"lon":32.983507},{"id":2437990,"name":"kumanichnaya","country":"ru","lat":56.504722,"lon":33.4375},{"id":2367931,"name":"barutino","country":"ru","lat":57.249335,"lon":32.724559},{"id":2481984,"name":"ostreshno","country":"ru","lat":57.462793,"lon":32.756098},{"id":2535870,"name":"tetenkino","country":"ru","lat":56.764399,"lon":33.343835},{"id":2414644,"name":"karpovshchina","country":"ru","lat":57.09153,"lon":32.838273},{"id":2454332,"name":"manukhovka","country":"ru","lat":56.563555,"lon":33.044079},{"id":2434211,"name":"krasnyy ozerok","country":"ru","lat":56.951535,"lon":33.257764},{"id":2420322,"name":"khreten","country":"ru","lat":57.292388,"lon":33.05735},{"id":2377672,"name":"bolshoye ronskoye","country":"ru","lat":57.134471,"lon":32.996503},{"id":2512115,"name":"shabanovo","country":"ru","lat":57.388717,"lon":32.556813},{"id":2459000,"name":"mikrorayon volga","country":"ru","lat":56.9048,"lon":32.7459},{"id":2409431,"name":"ivanovshchina","country":"ru","lat":57.265335,"lon":32.773742},{"id":2569587,"name":"zelenino","country":"ru","lat":56.692136,"lon":33.259493},{"id":2500074,"name":"radionovo","country":"ru","lat":56.719238,"lon":32.52532},{"id":2536330,"name":"timentsevo","country":"ru","lat":56.779754,"lon":33.237151},{"id":2568641,"name":"zaselye","country":"ru","lat":57.125052,"lon":33.202862},{"id":2437094,"name":"kukarevo","country":"ru","lat":57.126262,"lon":33.465937},{"id":2489751,"name":"pivovar","country":"ru","lat":56.575935,"lon":32.712356},{"id":2402699,"name":"gorskiy ostrov","country":"ru","lat":56.558611,"lon":32.64},{"id":2486358,"name":"perekhodovets","country":"ru","lat":57.007184,"lon":32.785442},{"id":2433329,"name":"krasnoye pokatishche","country":"ru","lat":56.833056,"lon":32.778056},{"id":2371751,"name":"bervenets","country":"ru","lat":56.984458,"lon":32.50231},{"id":2396888,"name":"fialka","country":"ru","lat":56.700833,"lon":32.845278},{"id":2483477,"name":"pachkovo","country":"ru","lat":57.222191,"lon":33.108032},{"id":2479258,"name":"okovtsy","country":"ru","lat":56.64765,"lon":33.486187},{"id":2566293,"name":"zabolotnaya","country":"ru","lat":56.504186,"lon":33.178114},{"id":2440927,"name":"kvashnya","country":"ru","lat":56.530089,"lon":32.73049},{"id":2439496,"name":"kuryayevo","country":"ru","lat":57.049285,"lon":33.090829},{"id":2436445,"name":"ksty","country":"ru","lat":56.954649,"lon":32.714799},{"id":2382778,"name":"butyrki","country":"ru","lat":56.527222,"lon":33.416389},{"id":2414423,"name":"karmankino","country":"ru","lat":56.69,"lon":32.8623},{"id":2487936,"name":"pesochnya","country":"ru","lat":56.692512,"lon":33.335449},{"id":2485090,"name":"pashutino","country":"ru","lat":56.901889,"lon":33.09004},{"id":2390631,"name":"devichye","country":"ru","lat":56.930395,"lon":33.039064},{"id":2555863,"name":"voloki","country":"ru","lat":56.839444,"lon":32.557222},{"id":2529142,"name":"stulovo","country":"ru","lat":56.51032,"lon":32.745385},{"id":2547942,"name":"valushino","country":"ru","lat":56.886052,"lon":33.392401},{"id":2481911,"name":"ostaschkow","country":"ru","lat":57.146667,"lon":33.107534},{"id":2418617,"name":"khitino","country":"ru","lat":57.099587,"lon":32.954432},{"id":2419531,"name":"kholzuyevo","country":"ru","lat":56.659983,"lon":33.127587},{"id":2563433,"name":"yemsha","country":"ru","lat":57.133333,"lon":33.116667},{"id":2515362,"name":"shikhino","country":"ru","lat":56.875482,"lon":33.428145},{"id":2400578,"name":"golenkovo","country":"ru","lat":56.966944,"lon":33.490556},{"id":2522755,"name":"sosnovo","country":"ru","lat":57.164572,"lon":32.583234},{"id":2462616,"name":"mozhayevo","country":"ru","lat":56.56604,"lon":32.688122},{"id":2357916,"name":"abbakumovo","country":"ru","lat":56.868878,"lon":33.383248},{"id":2503739,"name":"rovnaya","country":"ru","lat":56.5225,"lon":33.355833},{"id":2377935,"name":"bolshoye yakshino","country":"ru","lat":56.674599,"lon":33.390452},{"id":2536615,"name":"tinitsy","country":"ru","lat":56.905,"lon":32.738611},{"id":2420111,"name":"khotoshino","country":"ru","lat":56.903538,"lon":33.293068},{"id":2452522,"name":"maloye yakshino","country":"ru","lat":56.680659,"lon":33.421991},{"id":2507105,"name":"salnichikha","country":"ru","lat":56.518056,"lon":33.376944},{"id":2553841,"name":"vetozhetka","country":"ru","lat":56.821315,"lon":32.86739},{"id":2438810,"name":"kurgan","country":"ru","lat":56.984489,"lon":32.73646},{"id":2368090,"name":"bashevo","country":"ru","lat":56.55356,"lon":32.533558},{"id":2462100,"name":"moshkorino","country":"ru","lat":56.695698,"lon":33.4485},{"id":2568460,"name":"zaroyevo","country":"ru","lat":57.123102,"lon":32.539519},{"id":2367286,"name":"baragino","country":"ru","lat":56.867454,"lon":33.436726},{"id":2510300,"name":"semenovo selo","country":"ru","lat":57.066667,"lon":33.05},{"id":2557718,"name":"vseluki","country":"ru","lat":56.980572,"lon":32.657139},{"id":2420339,"name":"khriply","country":"ru","lat":57.464592,"lon":33.339437},{"id":2379422,"name":"borovinka","country":"ru","lat":56.681944,"lon":33.4725},{"id":2560738,"name":"yam-stolypino","country":"ru","lat":56.655139,"lon":33.329026},{"id":2447873,"name":"lutyanova","country":"ru","lat":57.401739,"lon":33.4603},{"id":2439747,"name":"kustikha","country":"ru","lat":56.714444,"lon":33.066389},{"id":2570174,"name":"zhabye","country":"ru","lat":57.153835,"lon":32.815516},{"id":2466487,"name":"neronovo","country":"ru","lat":56.844249,"lon":33.286078},{"id":2423344,"name":"kletki","country":"ru","lat":56.654444,"lon":33.448056},{"id":2425716,"name":"koloda","country":"ru","lat":57.216667,"lon":32.716667},{"id":2522623,"name":"sosnitsa","country":"ru","lat":57.400455,"lon":33.012199},{"id":2519047,"name":"skakulino","country":"ru","lat":56.862596,"lon":33.330475},{"id":2558891,"name":"vyselki burekhino","country":"ru","lat":56.788333,"lon":32.942222},{"id":2509716,"name":"selijarovo","country":"ru","lat":56.851884,"lon":33.448694},{"id":2446748,"name":"lovuga","country":"ru","lat":56.828757,"lon":32.517826},{"id":2393710,"name":"duby","country":"ru","lat":56.652705,"lon":33.279856},{"id":2504609,"name":"runa","country":"ru","lat":57.113295,"lon":32.575089},{"id":2393937,"name":"dulino","country":"ru","lat":56.601581,"lon":32.695071},{"id":2486502,"name":"pererva","country":"ru","lat":57.484565,"lon":33.001594},{"id":2376150,"name":"bolshe-zhdanskoye","country":"ru","lat":57.16831,"lon":32.826297},{"id":2452959,"name":"malyy bor","country":"ru","lat":56.548886,"lon":33.498178},{"id":2503134,"name":"romanikha","country":"ru","lat":57.413898,"lon":33.453898},{"id":2376363,"name":"bolshiye klochki","country":"ru","lat":56.642327,"lon":33.452976},{"id":2408061,"name":"ionovo","country":"ru","lat":56.957222,"lon":32.706111},{"id":2462454,"name":"mosyagino","country":"ru","lat":56.797151,"lon":33.483866},{"id":2418514,"name":"khilovo","country":"ru","lat":56.906164,"lon":33.419414},{"id":2453956,"name":"mamay","country":"ru","lat":56.836389,"lon":32.529722},{"id":2401725,"name":"gorelovo","country":"ru","lat":56.672803,"lon":32.846553},{"id":2514678,"name":"shepelevo","country":"ru","lat":57.433018,"lon":32.551975},{"id":2391210,"name":"dmitrovshchina","country":"ru","lat":57.31957,"lon":32.786916},{"id":2482822,"name":"ovsishche","country":"ru","lat":56.519444,"lon":32.716389},{"id":2524785,"name":"stantsiya shuvayevo","country":"ru","lat":56.848333,"lon":33.049722},{"id":2416581,"name":"kekeshevo","country":"ru","lat":56.807948,"lon":33.369758},{"id":2461168,"name":"molokhovo","country":"ru","lat":56.547125,"lon":32.705391},{"id":2493109,"name":"polki","country":"ru","lat":56.935603,"lon":33.112181},{"id":2419752,"name":"khorevo","country":"ru","lat":56.900589,"lon":33.057676},{"id":2482745,"name":"ovinets","country":"ru","lat":57.423844,"lon":33.000887},{"id":2361525,"name":"amosovo","country":"ru","lat":57.433333,"lon":33.433333},{"id":2365627,"name":"azorodnya","country":"ru","lat":56.647017,"lon":33.292212}]});