callback({"markets":[{"id":351299,"name":"taft","country":"ca","lat":50.983333,"lon":-118.633333},{"id":351095,"name":"sorrento","country":"ca","lat":50.866667,"lon":-119.466667},{"id":349187,"name":"malakwa","country":"ca","lat":50.933333,"lon":-118.783333},{"id":351314,"name":"tappen","country":"ca","lat":50.783333,"lon":-119.333333},{"id":350962,"name":"seymour arm","country":"ca","lat":51.233333,"lon":-118.95},{"id":350861,"name":"salmon arm","country":"ca","lat":50.7,"lon":-119.283333},{"id":348276,"name":"grindrod","country":"ca","lat":50.633333,"lon":-119.116667},{"id":347788,"name":"enderby","country":"ca","lat":50.55,"lon":-119.133333},{"id":351031,"name":"sicamous","country":"ca","lat":50.833333,"lon":-119.0}]});