callback({"markets":[{"id":2868073,"name":"grunka","country":"ua","lat":50.445556,"lon":34.573333},{"id":2893517,"name":"svyshchi","country":"ua","lat":50.274444,"lon":35.395556},{"id":2864667,"name":"dekhtyary","country":"ua","lat":50.262615,"lon":35.480871},{"id":2897068,"name":"veselyy gay","country":"ua","lat":50.274018,"lon":35.065007},{"id":2901184,"name":"zhovtnevyy","country":"ua","lat":50.195278,"lon":34.880278},{"id":2878115,"name":"manki","country":"ua","lat":49.75,"lon":34.933333},{"id":2880854,"name":"nikolskaya balka","country":"ua","lat":49.537384,"lon":34.663444},{"id":2891337,"name":"smorodina","country":"ua","lat":50.468889,"lon":35.0475},{"id":2897750,"name":"volnoye","country":"ua","lat":50.430621,"lon":35.397696},{"id":2873711,"name":"kovalchyukovskiy","country":"ua","lat":49.968931,"lon":35.163762},{"id":2870274,"name":"karnaukhi","country":"ua","lat":49.698388,"lon":34.856377},{"id":2881435,"name":"novayazhizn","country":"ua","lat":50.191389,"lon":34.503889},{"id":2872386,"name":"kolantayev","country":"ua","lat":49.983503,"lon":34.972637},{"id":2901276,"name":"zhuravnoye","country":"ua","lat":50.244238,"lon":34.763788},{"id":2887932,"name":"rezunenkovo","country":"ua","lat":49.800703,"lon":35.260788},{"id":2895930,"name":"varvarovka","country":"ua","lat":49.537223,"lon":35.202778},{"id":2866843,"name":"gavrontsy","country":"ua","lat":49.727187,"lon":34.585093},{"id":2879651,"name":"molotovo","country":"ua","lat":50.242867,"lon":34.515801},{"id":2865624,"name":"drany","country":"ua","lat":50.041619,"lon":34.548314},{"id":2860120,"name":"bandury","country":"ua","lat":50.252471,"lon":34.65778},{"id":2888783,"name":"ryabina","country":"ua","lat":50.355943,"lon":35.212688},{"id":2876187,"name":"likhachevka","country":"ua","lat":49.932602,"lon":34.686376},{"id":2898485,"name":"vyshevseloye","country":"ua","lat":50.257778,"lon":35.160278},{"id":2897504,"name":"vladimirovskiy","country":"ua","lat":49.740253,"lon":34.816818},{"id":2898934,"name":"yamnaya","country":"ua","lat":49.646024,"lon":35.343412},{"id":2901561,"name":"zubov","country":"ua","lat":49.783333,"lon":34.666667},{"id":2865412,"name":"dolzhok","country":"ua","lat":50.133879,"lon":34.517756},{"id":2871170,"name":"khukhra","country":"ua","lat":50.208954,"lon":34.832112},{"id":2888071,"name":"rog","country":"ua","lat":50.377778,"lon":35.341389},{"id":2880797,"name":"nikola","country":"ua","lat":49.883333,"lon":34.75},{"id":2884347,"name":"pauchki","country":"ua","lat":49.566667,"lon":35.05},{"id":2873724,"name":"kovalevka","country":"ua","lat":49.610882,"lon":34.706629},{"id":2862774,"name":"budnoye","country":"ua","lat":50.356786,"lon":34.787011},{"id":2880273,"name":"nagornaya","country":"ua","lat":49.616667,"lon":35.316667},{"id":2884227,"name":"parkhomovka","country":"ua","lat":50.123036,"lon":35.012729},{"id":2869303,"name":"ivanovka","country":"ua","lat":50.184444,"lon":35.025278},{"id":2899558,"name":"yezdokskaya","country":"ua","lat":50.482145,"lon":35.404025},{"id":2887802,"name":"redkodub","country":"ua","lat":49.757824,"lon":35.396708},{"id":2892131,"name":"staraya gryakova","country":"ua","lat":49.618621,"lon":35.398342},{"id":2873321,"name":"korotkiy","country":"ua","lat":50.258596,"lon":35.466031},{"id":2873257,"name":"korolenkovka","country":"ua","lat":49.540747,"lon":35.104381},{"id":2869818,"name":"kamenka","country":"ua","lat":50.414584,"lon":35.065427},{"id":2891860,"name":"sosonka","country":"ua","lat":50.396886,"lon":34.907914},{"id":2887050,"name":"pryadkivka","country":"ua","lat":49.769913,"lon":35.260552},{"id":2867723,"name":"goryaystovka","country":"ua","lat":50.394669,"lon":34.784885},{"id":2867978,"name":"grinchenkovo","country":"ua","lat":50.419262,"lon":34.634222},{"id":2868070,"name":"grun","country":"ua","lat":50.234781,"lon":34.611995},{"id":2878623,"name":"maydan","country":"ua","lat":49.714856,"lon":35.256657},{"id":2873924,"name":"kramchanka","country":"ua","lat":50.466415,"lon":35.263732},{"id":2886394,"name":"portnyye","country":"ua","lat":49.517707,"lon":34.691836},{"id":2891871,"name":"sotnya","country":"ua","lat":50.025556,"lon":35.261111},{"id":2862848,"name":"bugrovatoye","country":"ua","lat":50.195889,"lon":34.979954},{"id":2897113,"name":"vesnyanoye","country":"ua","lat":49.566667,"lon":35.266667},{"id":2892294,"name":"staroryabina","country":"ua","lat":50.35,"lon":35.216667},{"id":2859371,"name":"andrushenkova","country":"ua","lat":49.6,"lon":34.816667},{"id":2869787,"name":"kamenetskoye","country":"ua","lat":50.41556,"lon":35.120804},{"id":2891742,"name":"sonyachne","country":"ua","lat":50.166667,"lon":35.033333},{"id":2877652,"name":"malaya rublevka","country":"ua","lat":49.925834,"lon":34.772073},{"id":2860951,"name":"berezovka","country":"ua","lat":50.418321,"lon":35.162818},{"id":2881275,"name":"novaya gryakova","country":"ua","lat":49.641814,"lon":35.41845},{"id":2897576,"name":"vodyanaya","country":"ua","lat":49.712256,"lon":35.037635},{"id":2896996,"name":"veselaya","country":"ua","lat":50.261808,"lon":35.162562},{"id":2889985,"name":"shcheglovka","country":"ua","lat":50.131111,"lon":35.455278},{"id":2898939,"name":"yamnoye","country":"ua","lat":50.405609,"lon":35.397053},{"id":2884352,"name":"paulyukovka","country":"ua","lat":50.033825,"lon":35.164227},{"id":2879887,"name":"moyka","country":"ua","lat":50.163333,"lon":35.001389},{"id":2888785,"name":"ryabkovka","country":"ua","lat":49.835123,"lon":35.0525},{"id":2891948,"name":"spornoye","country":"ua","lat":50.359836,"lon":35.34119},{"id":2868408,"name":"guty","country":"ua","lat":50.13322,"lon":35.343936},{"id":2870423,"name":"katanskoye","country":"ua","lat":50.392914,"lon":35.152668},{"id":2892850,"name":"streletskaya","country":"ua","lat":50.439722,"lon":35.431111},{"id":2875332,"name":"kurlyukovo","country":"ua","lat":50.021764,"lon":34.513763},{"id":2889939,"name":"sharovka","country":"ua","lat":50.016432,"lon":35.446231},{"id":2882708,"name":"novyy parizh","country":"ua","lat":49.883333,"lon":35.25},{"id":2875645,"name":"ladyzhen","country":"ua","lat":49.6,"lon":34.883333},{"id":2896662,"name":"verbovyy","country":"ua","lat":50.283417,"lon":34.996998},{"id":2879952,"name":"murafa","country":"ua","lat":50.046747,"lon":35.329171},{"id":2874807,"name":"krutoybereg","country":"ua","lat":49.619588,"lon":34.596954},{"id":2876031,"name":"leskovka","country":"ua","lat":50.210157,"lon":35.497687},{"id":2892053,"name":"stanichnoye","country":"ua","lat":50.495754,"lon":35.377728},{"id":2874119,"name":"krasnokutsk","country":"ua","lat":50.066022,"lon":35.162754},{"id":2899269,"name":"yatsenki","country":"ua","lat":49.816667,"lon":34.816667},{"id":2885227,"name":"pilevka","country":"ua","lat":50.228951,"lon":34.790332},{"id":2879248,"name":"minovka","country":"ua","lat":49.500546,"lon":34.71573},{"id":2898985,"name":"yankovka","country":"ua","lat":50.364722,"lon":35.145556},{"id":2892624,"name":"stenka","country":"ua","lat":49.705391,"lon":35.09489},{"id":2866777,"name":"garbuzy","country":"ua","lat":50.255556,"lon":34.5025},{"id":2879207,"name":"milovidnoye","country":"ua","lat":49.927533,"lon":34.897073},{"id":2896205,"name":"velikaya pisarevka","country":"ua","lat":50.425867,"lon":35.485015},{"id":2859145,"name":"aleksandrovskiy","country":"ua","lat":50.15,"lon":35.083333},{"id":2863120,"name":"buzovapaskivka","country":"ua","lat":49.502177,"lon":34.782979},{"id":2879395,"name":"mizinovka","country":"ua","lat":49.533333,"lon":34.766667},{"id":2860662,"name":"belukhovka","country":"ua","lat":49.586479,"lon":35.294255},{"id":2863630,"name":"chernechiy yar","country":"ua","lat":49.834627,"lon":34.587838},{"id":2892142,"name":"staraya ivanovka","country":"ua","lat":50.377628,"lon":34.835797},{"id":2884286,"name":"pashchinovka","country":"ua","lat":49.6451,"lon":35.446987},{"id":2899919,"name":"zagorodniy","country":"ua","lat":49.702251,"lon":35.320575},{"id":2878540,"name":"matveyevka","country":"ua","lat":50.223176,"lon":35.409049},{"id":2900314,"name":"zarechnoye","country":"ua","lat":50.406401,"lon":34.978376},{"id":2897770,"name":"volnyy","country":"ua","lat":49.55,"lon":34.916667},{"id":2873878,"name":"kozlovshchina","country":"ua","lat":49.780208,"lon":34.746577},{"id":2875004,"name":"kudari","country":"ua","lat":50.296003,"lon":34.545283},{"id":2875036,"name":"kudryavyy","country":"ua","lat":50.25332,"lon":35.087683},{"id":2862790,"name":"budy","country":"ua","lat":50.151667,"lon":34.643611},{"id":2872511,"name":"kolomak","country":"ua","lat":49.839865,"lon":35.304415},{"id":2900842,"name":"zentsy","country":"ua","lat":49.539669,"lon":34.619461},{"id":2872289,"name":"kochanovka","country":"ua","lat":50.319813,"lon":34.608941},{"id":2873319,"name":"korotenkovka","country":"ua","lat":49.663867,"lon":34.590418},{"id":2867631,"name":"gorodnoye","country":"ua","lat":50.114055,"lon":35.236703},{"id":2890692,"name":"sidorovayaruga","country":"ua","lat":50.390897,"lon":35.322644},{"id":2879311,"name":"miroshnikovka","country":"ua","lat":49.750096,"lon":35.277431},{"id":2886953,"name":"prokopenko","country":"ua","lat":50.234728,"lon":35.150741},{"id":2879120,"name":"mikhaylovo","country":"ua","lat":50.154873,"lon":34.86396},{"id":2864620,"name":"davydov","country":"ua","lat":49.598814,"lon":35.079698},{"id":2875125,"name":"kulichka","country":"ua","lat":49.566667,"lon":34.983333},{"id":2900130,"name":"zaluzhany","country":"ua","lat":50.356978,"lon":34.892195},{"id":2862011,"name":"bolshoy ladyzhen","country":"ua","lat":49.592571,"lon":34.890723},{"id":2885279,"name":"pirkovskiye","country":"ua","lat":50.25,"lon":34.516667},{"id":2865402,"name":"dolzhik","country":"ua","lat":50.430771,"lon":34.578321},{"id":2879789,"name":"moshenki","country":"ua","lat":50.247442,"lon":34.913944},{"id":2885097,"name":"petrovskoga","country":"ua","lat":50.483333,"lon":34.6},{"id":2870051,"name":"kaplunivka","country":"ua","lat":50.169394,"lon":35.109182},{"id":2860660,"name":"beltsovo","country":"ua","lat":49.792162,"lon":35.42921},{"id":2892782,"name":"storozhevaya","country":"ua","lat":49.659023,"lon":34.962228},{"id":2872857,"name":"komsomolets","country":"ua","lat":50.23527,"lon":35.118373},{"id":2880897,"name":"nitsakha","country":"ua","lat":50.461258,"lon":35.18258},{"id":2889202,"name":"saranchevo","country":"ua","lat":50.114221,"lon":34.540732},{"id":2878423,"name":"maryevka","country":"ua","lat":49.754291,"lon":34.735829},{"id":2870651,"name":"khalturino","country":"ua","lat":49.514138,"lon":35.284284},{"id":2898559,"name":"vysokiy","country":"ua","lat":50.284986,"lon":35.031262},{"id":2891202,"name":"slobodka","country":"ua","lat":49.965011,"lon":35.048783},{"id":2900325,"name":"zarechye","country":"ua","lat":50.157778,"lon":34.723056},{"id":2867353,"name":"golovki","country":"ua","lat":49.754418,"lon":34.707987},{"id":2886112,"name":"pologiye","country":"ua","lat":50.327915,"lon":35.043242},{"id":2873904,"name":"kozyevka","country":"ua","lat":50.147113,"lon":35.221784},{"id":2863574,"name":"cherkasovka","country":"ua","lat":49.641369,"lon":34.817096},{"id":2864346,"name":"chupakhovka","country":"ua","lat":50.377399,"lon":34.589763},{"id":2880851,"name":"nikolokamyshevatoye","country":"ua","lat":49.647234,"lon":35.499588},{"id":2878025,"name":"malyy ladyzhen","country":"ua","lat":49.619491,"lon":34.868047},{"id":2880784,"name":"nikitovka","country":"ua","lat":50.0594,"lon":35.491101},{"id":2898099,"name":"voskresenovka","country":"ua","lat":50.264927,"lon":35.320392},{"id":2890009,"name":"shcherbani","country":"ua","lat":49.534456,"lon":34.536202},{"id":2883958,"name":"ovodovka","country":"ua","lat":50.473733,"lon":34.800176},{"id":2892854,"name":"strelitsa","country":"ua","lat":50.248333,"lon":35.259167},{"id":2898348,"name":"vyazovaya","country":"ua","lat":49.884472,"lon":35.116077},{"id":2886015,"name":"pokrovskaya","country":"ua","lat":49.916667,"lon":35.283333},{"id":2892616,"name":"stekhovka","country":"ua","lat":49.583333,"lon":34.683333},{"id":2866971,"name":"getmanshchina","country":"ua","lat":49.866667,"lon":34.733333},{"id":2890913,"name":"skelka","country":"ua","lat":50.17066,"lon":34.703742},{"id":2864812,"name":"derevki","country":"ua","lat":49.994105,"lon":34.708956},{"id":2888488,"name":"rubany","country":"ua","lat":50.206668,"lon":34.687652},{"id":2890074,"name":"sheboltayevo","country":"ua","lat":50.186315,"lon":34.589272},{"id":2872198,"name":"knyazha dolyna","country":"ua","lat":49.967174,"lon":35.366939},{"id":2875775,"name":"latyshevka","country":"ua","lat":49.806583,"lon":35.32113},{"id":2865884,"name":"dukhavnicheye","country":"ua","lat":50.346498,"lon":34.633556},{"id":2867990,"name":"grini","country":"ua","lat":49.95,"lon":34.5},{"id":2878236,"name":"marinskoye","country":"ua","lat":49.955689,"lon":34.841663},{"id":2862412,"name":"bozhki","country":"ua","lat":49.641049,"lon":34.792242},{"id":2892147,"name":"staraya kochanovka","country":"ua","lat":50.333611,"lon":34.595},{"id":2867560,"name":"gorlovka","country":"ua","lat":50.45,"lon":35.233333},{"id":2890867,"name":"sivryuki","country":"ua","lat":50.33,"lon":34.578333},{"id":2894690,"name":"trostjanez","country":"ua","lat":50.478428,"lon":34.962985},{"id":2881345,"name":"novaya odessa","country":"ua","lat":50.138889,"lon":35.176944},{"id":2898562,"name":"vysokopol","country":"ua","lat":49.922962,"lon":35.422582},{"id":2899376,"name":"yekaterinovka","country":"ua","lat":50.299906,"lon":35.277829},{"id":2867856,"name":"grebenikovo","country":"ua","lat":49.633333,"lon":35.3},{"id":2901463,"name":"zolotarevka","country":"ua","lat":50.476861,"lon":34.695011},{"id":2860656,"name":"belsk","country":"ua","lat":50.093799,"lon":34.635016},{"id":2869505,"name":"kachalovka","country":"ua","lat":50.017983,"lon":35.208242},{"id":2892516,"name":"stasi","country":"ua","lat":49.741995,"lon":34.569672},{"id":2870214,"name":"kardashevka","country":"ua","lat":50.269044,"lon":34.862761},{"id":2899839,"name":"zabugi","country":"ua","lat":50.486751,"lon":34.555614},{"id":2877620,"name":"malaya mikhaylovka","country":"ua","lat":49.766667,"lon":34.8},{"id":2900558,"name":"zayachiy","country":"ua","lat":49.839297,"lon":34.84494},{"id":2880621,"name":"nesterenki","country":"ua","lat":49.722525,"lon":34.74206},{"id":2872217,"name":"knyazhevy","country":"ua","lat":50.181667,"lon":34.594167},{"id":2879108,"name":"mikhaylovka","country":"ua","lat":50.200833,"lon":34.963889},{"id":2884359,"name":"pavlenki","country":"ua","lat":50.201111,"lon":34.684444},{"id":2877238,"name":"lyubovka","country":"ua","lat":50.019369,"lon":35.068187},{"id":2867472,"name":"gorbanevka","country":"ua","lat":50.216922,"lon":35.448586},{"id":2862584,"name":"brusiya","country":"ua","lat":49.8,"lon":34.616667},{"id":2893669,"name":"takhtaulovo","country":"ua","lat":49.661653,"lon":34.525761},{"id":2884190,"name":"paraskoveyevka","country":"ua","lat":49.606272,"lon":34.76639},{"id":2890785,"name":"sinkova balka","country":"ua","lat":49.889735,"lon":35.188598},{"id":2890930,"name":"skibovka","country":"ua","lat":49.855687,"lon":34.998536},{"id":2899155,"name":"yasenovoye","country":"ua","lat":50.305745,"lon":34.718791},{"id":2883080,"name":"okhotchiy","country":"ua","lat":49.616012,"lon":35.121932},{"id":2870198,"name":"karaykozovka","country":"ua","lat":50.007542,"lon":35.138224},{"id":2888788,"name":"ryabovka","country":"ua","lat":50.477878,"lon":35.254776},{"id":2884860,"name":"pervozvanka","country":"ua","lat":49.769176,"lon":34.955219},{"id":2859680,"name":"artemovka","country":"ua","lat":50.494883,"lon":34.711527},{"id":2864953,"name":"dibrovo","country":"ua","lat":49.775392,"lon":34.685944},{"id":2860725,"name":"berdinoivan","country":"ua","lat":50.326667,"lon":35.465},{"id":2899601,"name":"yukhimenki","country":"ua","lat":49.833333,"lon":34.95},{"id":2860956,"name":"berezovo","country":"ua","lat":49.877079,"lon":34.937728},{"id":2860612,"name":"belousov","country":"ua","lat":49.857794,"lon":35.240352},{"id":2862631,"name":"bublikov","country":"ua","lat":50.333333,"lon":34.75},{"id":2860012,"name":"bakirovka","country":"ua","lat":50.382796,"lon":35.021201},{"id":2886177,"name":"poltawa","country":"ua","lat":49.593727,"lon":34.540733},{"id":2894756,"name":"trudolyubovka","country":"ua","lat":49.900711,"lon":35.243106},{"id":2867205,"name":"gnilitsa","country":"ua","lat":50.299037,"lon":34.675245},{"id":2859285,"name":"anastasyevka","country":"ua","lat":50.1,"lon":35.1},{"id":2861613,"name":"bogolyubovka","country":"ua","lat":50.416667,"lon":34.966667},{"id":2871849,"name":"kisev","country":"ua","lat":49.800486,"lon":35.349106},{"id":2884374,"name":"pavlivka","country":"ua","lat":50.15566,"lon":35.440445},{"id":2863652,"name":"chernetchina","country":"ua","lat":50.306032,"lon":34.808775},{"id":2877823,"name":"malopavlovka","country":"ua","lat":50.280148,"lon":34.554508},{"id":2900901,"name":"zhaloby","country":"ua","lat":50.220348,"lon":34.683828},{"id":2887957,"name":"rindau","country":"ua","lat":49.916667,"lon":35.0},{"id":2863019,"name":"buryachikha","country":"ua","lat":50.270992,"lon":34.575627},{"id":2871288,"name":"khutor dandasovka","country":"ua","lat":49.578617,"lon":35.453211},{"id":2885308,"name":"pisarevshchina","country":"ua","lat":49.8558,"lon":34.628488},{"id":2896410,"name":"velikoyeozero","country":"ua","lat":50.270348,"lon":34.935806},{"id":2862460,"name":"bratskiy","country":"ua","lat":50.458242,"lon":34.801256},{"id":2866440,"name":"filenkovo","country":"ua","lat":49.836768,"lon":35.000225},{"id":2897306,"name":"vinnitski ivany","country":"ua","lat":50.285416,"lon":35.46942},{"id":2879073,"name":"mikhaylenkov","country":"ua","lat":50.270992,"lon":34.816946},{"id":2869166,"name":"iskrovka","country":"ua","lat":49.8226,"lon":35.175498},{"id":2880585,"name":"neplotino","country":"ua","lat":50.31417,"lon":34.566433},{"id":2873623,"name":"kotelva","country":"ua","lat":50.068645,"lon":34.758618},{"id":2870042,"name":"kapitonovka","country":"ua","lat":49.783333,"lon":35.316667},{"id":2879610,"name":"molodetskiy","country":"ua","lat":50.323167,"lon":34.641582},{"id":2901063,"name":"zhily","country":"ua","lat":50.325833,"lon":35.041667},{"id":2869196,"name":"ivanchintsy","country":"ua","lat":49.642438,"lon":34.516841},{"id":2890196,"name":"shevchenki","country":"ua","lat":50.315556,"lon":34.608333},{"id":2871291,"name":"khutor dergachi","country":"ua","lat":49.963854,"lon":35.480799},{"id":2875819,"name":"lazki","country":"ua","lat":50.042732,"lon":34.611031},{"id":2864969,"name":"dikanka","country":"ua","lat":49.825008,"lon":34.52787},{"id":2875687,"name":"landyshevo","country":"ua","lat":49.684784,"lon":35.466098},{"id":2879197,"name":"miloradovo","country":"ua","lat":49.821683,"lon":34.749828},{"id":2877785,"name":"maliye budishchi","country":"ua","lat":49.987896,"lon":34.603603},{"id":2896674,"name":"verchenki","country":"ua","lat":50.19,"lon":34.618056},{"id":2890137,"name":"shengariyevka","country":"ua","lat":50.217385,"lon":34.548144},{"id":2890687,"name":"sidorenkovo","country":"ua","lat":49.704739,"lon":35.359281},{"id":2879114,"name":"mikhaylovka pervaya","country":"ua","lat":50.04742,"lon":34.898353},{"id":2866869,"name":"gaymoshenka","country":"ua","lat":50.254355,"lon":34.834792},{"id":2875298,"name":"kurelokhovka","country":"ua","lat":49.528072,"lon":34.756462},{"id":2892085,"name":"stanova","country":"ua","lat":50.490237,"lon":34.888173},{"id":2875534,"name":"kuzemino","country":"ua","lat":50.139546,"lon":34.660168},{"id":2876959,"name":"lutishche","country":"ua","lat":50.192019,"lon":34.756212},{"id":2898349,"name":"vyazovaye","country":"ua","lat":50.191716,"lon":34.639022},{"id":2863651,"name":"chernetchina","country":"ua","lat":50.086939,"lon":35.197707},{"id":2886107,"name":"pologi","country":"ua","lat":50.334363,"lon":34.99579},{"id":2868181,"name":"gubarevka","country":"ua","lat":50.166928,"lon":35.364918},{"id":2883255,"name":"oleshnya vtoraya","country":"ua","lat":50.404103,"lon":34.737175},{"id":2891590,"name":"soldatskoye","country":"ua","lat":50.438538,"lon":35.210741},{"id":2863096,"name":"buymerovka","country":"ua","lat":50.281374,"lon":34.809352},{"id":2886324,"name":"popovka","country":"ua","lat":50.499904,"lon":35.451403},{"id":2884153,"name":"pankov","country":"ua","lat":50.106111,"lon":34.500833},{"id":2881375,"name":"novaya ryabina","country":"ua","lat":50.333333,"lon":35.233333},{"id":2873147,"name":"korbiny ivany","country":"ua","lat":50.312367,"lon":35.414956},{"id":2860213,"name":"bardakov","country":"ua","lat":50.416667,"lon":34.633333},{"id":2887331,"name":"pyatkin","country":"ua","lat":50.400453,"lon":34.65359},{"id":2879427,"name":"mlynki","country":"ua","lat":50.04534,"lon":34.710073},{"id":2898279,"name":"vsadki","country":"ua","lat":50.388967,"lon":34.614223},{"id":2890394,"name":"shkarlaty","country":"ua","lat":50.291841,"lon":35.392549},{"id":2876822,"name":"lugovka","country":"ua","lat":50.446373,"lon":35.471247},{"id":2881300,"name":"novaya kochubeyevka","country":"ua","lat":49.759269,"lon":34.955321},{"id":2860325,"name":"batki","country":"ua","lat":50.026908,"lon":34.571604},{"id":2869184,"name":"ivakhi","country":"ua","lat":50.268832,"lon":34.684895},{"id":2888236,"name":"rosopashnoye","country":"ua","lat":49.616667,"lon":35.216667},{"id":2882444,"name":"novoye postroyenoye","country":"ua","lat":50.360197,"lon":34.737839},{"id":2870731,"name":"kheruvimskiy","country":"ua","lat":49.816667,"lon":35.283333},{"id":2889919,"name":"shapovalovka","country":"ua","lat":50.236851,"lon":34.676748},{"id":2893766,"name":"tarasovka","country":"ua","lat":49.566667,"lon":34.95},{"id":2862479,"name":"brechnov","country":"ua","lat":49.716667,"lon":34.533333},{"id":2890480,"name":"sholudkl","country":"ua","lat":50.249722,"lon":34.569444},{"id":2878357,"name":"martynovka","country":"ua","lat":50.452838,"lon":34.706746},{"id":2859170,"name":"alekseyevka","country":"ua","lat":49.558212,"lon":34.881905},{"id":2876601,"name":"losevka","country":"ua","lat":50.433333,"lon":34.716667},{"id":2872318,"name":"kochubeyevka","country":"ua","lat":49.733333,"lon":34.983333},{"id":2889998,"name":"shcherbaki","country":"ua","lat":50.190592,"lon":35.446133},{"id":2890481,"name":"sholudkl","country":"ua","lat":50.255482,"lon":34.571951},{"id":2878678,"name":"mayskiy andreyevka","country":"ua","lat":50.275,"lon":35.279722},{"id":2890702,"name":"sidoryachye","country":"ua","lat":50.122694,"lon":34.913569},{"id":2873742,"name":"kovankovka","country":"ua","lat":49.679031,"lon":34.676162},{"id":2859679,"name":"artemovka","country":"ua","lat":49.774942,"lon":35.069996},{"id":2863631,"name":"chernechya","country":"ua","lat":49.761484,"lon":35.137146},{"id":2878218,"name":"marino","country":"ua","lat":49.970053,"lon":35.465045},{"id":2875704,"name":"lantratovka","country":"ua","lat":50.347737,"lon":34.697535},{"id":2898751,"name":"yablochnoye","country":"ua","lat":50.305505,"lon":35.23428},{"id":2875236,"name":"kupewacha","country":"ua","lat":50.212161,"lon":35.255739},{"id":2868154,"name":"gryakova","country":"ua","lat":49.630923,"lon":35.386905},{"id":2871326,"name":"khutor gubanov","country":"ua","lat":49.591551,"lon":34.984748},{"id":2867103,"name":"globovka","country":"ua","lat":49.783333,"lon":34.9},{"id":2880389,"name":"natyagaylovka","country":"ua","lat":49.783333,"lon":34.8},{"id":2866479,"name":"florovka","country":"ua","lat":49.71869,"lon":34.888668},{"id":2890095,"name":"shelestova","country":"ua","lat":49.859268,"lon":35.219844},{"id":2882135,"name":"novoselovka","country":"ua","lat":49.628021,"lon":34.692012},{"id":2900247,"name":"zaparozhets","country":"ua","lat":50.229722,"lon":35.146111},{"id":2886002,"name":"pokrovka","country":"ua","lat":49.912444,"lon":35.286509},{"id":2864670,"name":"dekreshevo","country":"ua","lat":50.113611,"lon":34.971111},{"id":2892238,"name":"staritskovka","country":"ua","lat":49.616667,"lon":34.816667},{"id":2883470,"name":"oposhnya","country":"ua","lat":49.956698,"lon":34.60822},{"id":2876114,"name":"leventsevo","country":"ua","lat":49.623149,"lon":35.253108},{"id":2884333,"name":"patlayevka","country":"ua","lat":49.647288,"lon":34.582798},{"id":2886095,"name":"polkovaya nikitovka","country":"ua","lat":50.159336,"lon":35.317074},{"id":2867433,"name":"goncharovka","country":"ua","lat":50.420556,"lon":34.541111},{"id":2893038,"name":"stupki","country":"ua","lat":49.73183,"lon":34.67709},{"id":2871682,"name":"khymelevets","country":"ua","lat":50.48751,"lon":34.650797},{"id":2873471,"name":"koshubovka","country":"ua","lat":49.533333,"lon":34.666667},{"id":2865158,"name":"dobrenskoye","country":"ua","lat":50.379341,"lon":35.279578},{"id":2887628,"name":"raskopy","country":"ua","lat":50.314722,"lon":34.75},{"id":2877138,"name":"lysycha","country":"ua","lat":49.644402,"lon":35.090074},{"id":2887765,"name":"razsokhovatyy","country":"ua","lat":50.451753,"lon":34.616473},{"id":2888246,"name":"rossochi","country":"ua","lat":50.335007,"lon":35.443583},{"id":2894140,"name":"ternovshchina","country":"ua","lat":49.670898,"lon":34.619948},{"id":2865025,"name":"dmitrenkov","country":"ua","lat":50.033333,"lon":35.233333},{"id":2874977,"name":"kuchmovka","country":"ua","lat":49.716667,"lon":34.583333},{"id":2862186,"name":"bororubanovka","country":"ua","lat":50.411633,"lon":34.513183},{"id":2877274,"name":"lyudzha","country":"ua","lat":50.493697,"lon":35.063198},{"id":2868133,"name":"gruzkaya","country":"ua","lat":49.949764,"lon":35.112546},{"id":2896273,"name":"velikiye budishchi","country":"ua","lat":49.859516,"lon":34.582323},{"id":2872039,"name":"klimentov","country":"ua","lat":50.380109,"lon":34.923261},{"id":2867647,"name":"gorodskiye mlyny","country":"ua","lat":49.95,"lon":34.65},{"id":2876437,"name":"litovka","country":"ua","lat":50.393021,"lon":34.978482},{"id":2874416,"name":"kratov","country":"ua","lat":49.866667,"lon":34.516667},{"id":2885094,"name":"petrovskiy","country":"ua","lat":50.361315,"lon":35.058252},{"id":2893767,"name":"tarasovka","country":"ua","lat":50.482218,"lon":35.295657},{"id":2871766,"name":"kirikovka","country":"ua","lat":50.364079,"lon":35.114896},{"id":2871899,"name":"kitchenkovka","country":"ua","lat":49.962511,"lon":35.209733},{"id":2874886,"name":"kryuchik","country":"ua","lat":50.144076,"lon":35.406654},{"id":2880847,"name":"nikolka","country":"ua","lat":49.886151,"lon":34.752218},{"id":2859707,"name":"artyukhovka","country":"ua","lat":49.5,"lon":34.9},{"id":2894798,"name":"trukhanovka","country":"ua","lat":49.9,"lon":34.85},{"id":2872769,"name":"komarovka","country":"ua","lat":50.419656,"lon":34.803957},{"id":2895931,"name":"varvarovka","country":"ua","lat":50.316667,"lon":35.483333},{"id":2900714,"name":"zelenkov","country":"ua","lat":49.646155,"lon":34.973946},{"id":2894443,"name":"topchiyev","country":"ua","lat":50.491245,"lon":34.504507},{"id":2866467,"name":"fisuny","country":"ua","lat":49.699893,"lon":34.836734},{"id":2863334,"name":"chapayevo","country":"ua","lat":49.741842,"lon":34.983695},{"id":2898182,"name":"voynovka","country":"ua","lat":49.65529,"lon":35.0186},{"id":2859198,"name":"alenina","country":"ua","lat":50.376389,"lon":34.525},{"id":2896216,"name":"velikaya rublevka","country":"ua","lat":49.892511,"lon":34.81069},{"id":2867211,"name":"gnilosorovka","country":"ua","lat":50.088333,"lon":34.847778},{"id":2885105,"name":"petrovskogo","country":"ua","lat":49.566667,"lon":35.383333},{"id":2864359,"name":"chutove","country":"ua","lat":49.710416,"lon":35.160255},{"id":2873617,"name":"kotelevka","country":"ua","lat":50.037355,"lon":34.948762},{"id":2879268,"name":"mirnoye","country":"ua","lat":50.034632,"lon":35.380797},{"id":2891657,"name":"solonitsevka","country":"ua","lat":49.887329,"lon":34.699325},{"id":2890618,"name":"shurovo","country":"ua","lat":50.485184,"lon":35.356047},{"id":2873466,"name":"koshmanovka","country":"ua","lat":49.52474,"lon":34.97392},{"id":2890246,"name":"shevchenkovskiy","country":"ua","lat":49.6,"lon":35.2},{"id":2867094,"name":"glinskoye","country":"ua","lat":50.023541,"lon":34.65889},{"id":2888833,"name":"rybalskoye","country":"ua","lat":50.249999,"lon":34.681442},{"id":2890839,"name":"sitnikono","country":"ua","lat":50.090556,"lon":35.096944},{"id":2859015,"name":"akhtyrka","country":"ua","lat":50.310359,"lon":34.898787},{"id":2878446,"name":"mashchanka","country":"ua","lat":50.432869,"lon":34.815372},{"id":2870028,"name":"kantimirovka","country":"ua","lat":49.699612,"lon":35.004248}]});