callback({"markets":[{"id":1255998,"name":"pokole","country":"id","lat":3.4457,"lon":125.5379},{"id":1266782,"name":"saling","country":"id","lat":3.3644,"lon":125.6105},{"id":1204579,"name":"kentuhang","country":"id","lat":3.4988,"lon":125.5271},{"id":1293142,"name":"tetara","country":"id","lat":3.4922,"lon":125.6377},{"id":1132967,"name":"aha","country":"id","lat":3.4587,"lon":125.6569},{"id":1154396,"name":"bowonguwung","country":"id","lat":3.4501,"lon":125.6317},{"id":1233401,"name":"nanae","country":"id","lat":3.4192,"lon":125.6685},{"id":1184671,"name":"hangke","country":"id","lat":3.4959,"lon":125.6585},{"id":1292413,"name":"tenda","country":"id","lat":3.4686,"lon":125.647},{"id":1218120,"name":"lengane","country":"id","lat":3.404,"lon":125.6247},{"id":1172988,"name":"dolosang","country":"id","lat":3.3426,"lon":125.6135},{"id":1213623,"name":"laine","country":"id","lat":3.4288,"lon":125.5921},{"id":1254547,"name":"pintareng","country":"id","lat":3.4485,"lon":125.6354},{"id":1192475,"name":"kalagheng","country":"id","lat":3.4992,"lon":125.6376},{"id":1145901,"name":"batulonde","country":"id","lat":3.468,"lon":125.5917},{"id":1154390,"name":"bowongbulo","country":"id","lat":3.3894,"lon":125.601},{"id":1194657,"name":"kaluitung","country":"id","lat":3.3765,"lon":125.6051},{"id":1192607,"name":"kalangki","country":"id","lat":3.4341,"lon":125.568},{"id":1139046,"name":"balaukaleak","country":"id","lat":3.4417,"lon":125.6256},{"id":1294356,"name":"tiwude","country":"id","lat":3.4604,"lon":125.6937},{"id":1244766,"name":"pangueng","country":"id","lat":3.4224,"lon":125.5284},{"id":1154358,"name":"bouwango","country":"id","lat":3.4552,"lon":125.705},{"id":1235005,"name":"ngalipaeng satu","country":"id","lat":3.3897,"lon":125.6184},{"id":1285812,"name":"tamako","country":"id","lat":3.4571,"lon":125.5079},{"id":1133388,"name":"akeuhote","country":"id","lat":3.496,"lon":125.5924},{"id":1184603,"name":"hamisang","country":"id","lat":3.384,"lon":125.5925},{"id":1224539,"name":"manganitukadio","country":"id","lat":3.365,"lon":125.6162},{"id":1279784,"name":"songenunu","country":"id","lat":3.4217,"lon":125.5884},{"id":1169201,"name":"dampelos","country":"id","lat":3.4317,"lon":125.566},{"id":1279783,"name":"songengkelung","country":"id","lat":3.4876,"lon":125.6389},{"id":1249553,"name":"patung","country":"id","lat":3.4635,"lon":125.6514},{"id":1227187,"name":"mawira","country":"id","lat":3.4046,"lon":125.6547},{"id":1252552,"name":"pepu","country":"id","lat":3.4808,"lon":125.6681},{"id":1266855,"name":"saloerang","country":"id","lat":3.466667,"lon":125.65},{"id":1146773,"name":"bebalang","country":"id","lat":3.3408,"lon":125.5733},{"id":1216826,"name":"lebongasu","country":"id","lat":3.4737,"lon":125.5879},{"id":1192726,"name":"kalawatu","country":"id","lat":3.466667,"lon":125.5},{"id":1154398,"name":"boworaeng","country":"id","lat":3.4568,"lon":125.6976},{"id":1211638,"name":"kumoto","country":"id","lat":3.4754,"lon":125.7097},{"id":1208353,"name":"komoele","country":"id","lat":3.4394,"lon":125.5295},{"id":1147318,"name":"belae","country":"id","lat":3.4922,"lon":125.6033},{"id":1135254,"name":"aralaeng","country":"id","lat":3.3937,"lon":125.5781},{"id":1200453,"name":"kawiwi","country":"id","lat":3.4301,"lon":125.6285},{"id":1194726,"name":"kaluwatu","country":"id","lat":3.4402,"lon":125.5715},{"id":1234563,"name":"nenanga","country":"id","lat":3.3378,"lon":125.5681},{"id":1224208,"name":"mananawokulur","country":"id","lat":3.4291,"lon":125.6682},{"id":1144493,"name":"bariri","country":"id","lat":3.4494,"lon":125.6137},{"id":1289543,"name":"tariang","country":"id","lat":3.3934,"lon":125.6505},{"id":1285610,"name":"taloarane","country":"id","lat":3.4616,"lon":125.5743},{"id":1144253,"name":"barangkupa","country":"id","lat":3.4179,"lon":125.534},{"id":1154384,"name":"bowone","country":"id","lat":3.489,"lon":125.6535},{"id":1138935,"name":"balane","country":"id","lat":3.3886,"lon":125.6407},{"id":1174084,"name":"dumarutuhe","country":"id","lat":3.467,"lon":125.7093},{"id":1146018,"name":"batunderang","country":"id","lat":3.3579,"lon":125.607},{"id":1228130,"name":"mendaku","country":"id","lat":3.3621,"lon":125.5781},{"id":1149028,"name":"betau","country":"id","lat":3.3799,"lon":125.5956},{"id":1286481,"name":"tambung","country":"id","lat":3.4528,"lon":125.6658},{"id":1254409,"name":"pindangapeng","country":"id","lat":3.44079,"lon":125.582604},{"id":1223564,"name":"malahepo","country":"id","lat":3.42,"lon":125.5666},{"id":1278601,"name":"soawuhu","country":"id","lat":3.4241,"lon":125.6479},{"id":1223914,"name":"malisade","country":"id","lat":3.466,"lon":125.6343},{"id":1229540,"name":"mihuse","country":"id","lat":3.4984,"lon":125.6576},{"id":1205669,"name":"ketareng","country":"id","lat":3.3894,"lon":125.6297},{"id":1149609,"name":"binala","country":"id","lat":3.469,"lon":125.5207},{"id":1215570,"name":"lapango","country":"id","lat":3.3974,"lon":125.5921},{"id":1169030,"name":"dalokaweng","country":"id","lat":3.4425,"lon":125.6681},{"id":1185097,"name":"hesang","country":"id","lat":3.4456,"lon":125.5048},{"id":1168924,"name":"dakupang","country":"id","lat":3.3662,"lon":125.5726},{"id":1224453,"name":"mandoi","country":"id","lat":3.4782,"lon":125.6225},{"id":1168775,"name":"dago","country":"id","lat":3.4397,"lon":125.5636},{"id":1251464,"name":"pempulu","country":"id","lat":3.4315,"lon":125.6008},{"id":1222368,"name":"lumihi","country":"id","lat":3.4756,"lon":125.6646},{"id":1224037,"name":"mamase","country":"id","lat":3.4321,"lon":125.5746},{"id":1218144,"name":"lenggoang","country":"id","lat":3.3775,"lon":125.641},{"id":1251001,"name":"pelelangeng","country":"id","lat":3.4996,"lon":125.5346},{"id":1268635,"name":"sapaeng","country":"id","lat":3.339,"lon":125.5733},{"id":1293204,"name":"tetilade","country":"id","lat":3.4496,"lon":125.5935},{"id":1299069,"name":"tompohe","country":"id","lat":3.4216,"lon":125.5956},{"id":1243187,"name":"pananaru","country":"id","lat":3.437,"lon":125.5474},{"id":1146855,"name":"bebu","country":"id","lat":3.4188,"lon":125.5371},{"id":1223171,"name":"mahiwu","country":"id","lat":3.4657,"lon":125.5654},{"id":1199951,"name":"katawakeng","country":"id","lat":3.4076,"lon":125.5851},{"id":1154391,"name":"bowongdingkaleng","country":"id","lat":3.3997,"lon":125.6053},{"id":1256001,"name":"pokol","country":"id","lat":3.4481,"lon":125.5077},{"id":1302387,"name":"ulungpeliang","country":"id","lat":3.4854,"lon":125.5267},{"id":1217232,"name":"lehupu","country":"id","lat":3.4179,"lon":125.6645},{"id":1216246,"name":"lawang","country":"id","lat":3.4068,"lon":125.5686},{"id":1235003,"name":"ngalipaeng dua","country":"id","lat":3.3913,"lon":125.6194},{"id":1176007,"name":"engsahange","country":"id","lat":3.4976,"lon":125.6464},{"id":1254410,"name":"pindang","country":"id","lat":3.4647,"lon":125.5913},{"id":1232896,"name":"nagha 2","country":"id","lat":3.4701,"lon":125.5017},{"id":1193914,"name":"kalinda","country":"id","lat":3.44,"lon":125.5226},{"id":1217225,"name":"lehimi","country":"id","lat":3.3866,"lon":125.6462},{"id":1149993,"name":"birahi","country":"id","lat":3.4852,"lon":125.6128},{"id":1222005,"name":"lumahado","country":"id","lat":3.4521,"lon":125.5191},{"id":1208158,"name":"koleta","country":"id","lat":3.4094,"lon":125.566},{"id":1147685,"name":"bembanuhe","country":"id","lat":3.1819,"lon":125.5083},{"id":1147145,"name":"behongan","country":"id","lat":3.173,"lon":125.5169},{"id":1168931,"name":"dalako","country":"id","lat":3.1838,"lon":125.5136},{"id":1229066,"name":"metegihe","country":"id","lat":3.3471,"lon":125.6145},{"id":1301629,"name":"tuwa","country":"id","lat":3.4451,"lon":125.5113},{"id":1147086,"name":"beenglaut","country":"id","lat":3.4766,"lon":125.7289},{"id":1217403,"name":"lelipang","country":"id","lat":3.484,"lon":125.5307},{"id":1184391,"name":"hadakele","country":"id","lat":3.3885,"lon":125.593},{"id":1146585,"name":"bawuniang","country":"id","lat":3.401447,"lon":125.588417},{"id":1267726,"name":"sampakang","country":"id","lat":3.4736,"lon":125.5802},{"id":1285507,"name":"taleko","country":"id","lat":3.1701,"lon":125.5008},{"id":1150192,"name":"biwai","country":"id","lat":3.477,"lon":125.666},{"id":1149703,"name":"binebas","country":"id","lat":3.4902,"lon":125.6384},{"id":1228320,"name":"menggawa","country":"id","lat":3.4421,"lon":125.5196},{"id":1215617,"name":"lapepahe","country":"id","lat":3.4177,"lon":125.5722},{"id":1300836,"name":"tumalede","country":"id","lat":3.4183,"lon":125.6258},{"id":1260011,"name":"punting","country":"id","lat":3.3982,"lon":125.5557},{"id":1152250,"name":"boho","country":"id","lat":3.1858,"lon":125.5237},{"id":1223391,"name":"makalekuhe","country":"id","lat":3.421695,"lon":125.542872},{"id":1169506,"name":"dapela","country":"id","lat":3.4269,"lon":125.5789},{"id":1139045,"name":"balau","country":"id","lat":3.4638,"lon":125.6082},{"id":1200303,"name":"kawa","country":"id","lat":3.4738,"lon":125.6639},{"id":1218143,"name":"lenggis","country":"id","lat":3.375,"lon":125.6376},{"id":1146430,"name":"batuwahong","country":"id","lat":3.378248,"lon":125.586976},{"id":1246007,"name":"paralelle","country":"id","lat":3.0669,"lon":125.5006},{"id":1169507,"name":"dapepahe","country":"id","lat":3.4384,"lon":125.6601},{"id":1250272,"name":"pedine","country":"id","lat":3.441,"lon":125.537}]});