callback({"markets":[{"id":2365294,"name":"avyakskoye","country":"ru","lat":57.133136,"lon":73.287764},{"id":2387860,"name":"chugunly","country":"ru","lat":56.526305,"lon":72.754746},{"id":2533850,"name":"tashetkany","country":"ru","lat":57.4068,"lon":72.8054},{"id":2368273,"name":"basly","country":"ru","lat":57.009075,"lon":72.782475},{"id":2408569,"name":"ishkul","country":"ru","lat":56.516667,"lon":73.3},{"id":2488089,"name":"petelina","country":"ru","lat":57.4276,"lon":72.6947},{"id":2365396,"name":"ayev","country":"ru","lat":56.9296,"lon":72.6267},{"id":2566387,"name":"zaborskaya","country":"ru","lat":57.233333,"lon":72.716667},{"id":2534499,"name":"taychi","country":"ru","lat":57.328889,"lon":73.206111},{"id":2383363,"name":"bystrushka","country":"ru","lat":57.35,"lon":72.533333},{"id":2385645,"name":"chernetsovka","country":"ru","lat":56.551386,"lon":72.519872},{"id":2543211,"name":"uki","country":"ru","lat":56.991135,"lon":72.622724},{"id":2445153,"name":"lipovka","country":"ru","lat":57.232,"lon":73.4442},{"id":2370447,"name":"belyakovka","country":"ru","lat":56.683333,"lon":72.783333},{"id":2401561,"name":"gorbunovo","country":"ru","lat":57.1532,"lon":73.2016},{"id":2490457,"name":"plotnikovka","country":"ru","lat":57.283333,"lon":73.35},{"id":2573159,"name":"zudilova","country":"ru","lat":56.965091,"lon":72.531818},{"id":2546485,"name":"ust-shish","country":"ru","lat":57.3258,"lon":73.3836},{"id":2384172,"name":"chaunino","country":"ru","lat":57.146346,"lon":73.08177},{"id":2373906,"name":"bogdanovskiy","country":"ru","lat":57.033333,"lon":73.45},{"id":2569170,"name":"zavyalovo","country":"ru","lat":57.146172,"lon":73.440792},{"id":2376771,"name":"bolshiye uki","country":"ru","lat":56.946857,"lon":72.630283},{"id":2392460,"name":"doronino","country":"ru","lat":57.4595,"lon":72.8444},{"id":2474566,"name":"novo-romanovskiy","country":"ru","lat":56.983333,"lon":73.166667},{"id":2451340,"name":"malinovskiy","country":"ru","lat":56.571221,"lon":73.165596},{"id":2366572,"name":"baksheyevo","country":"ru","lat":57.3985,"lon":72.9988},{"id":2517120,"name":"shukhovo","country":"ru","lat":57.234167,"lon":73.488611},{"id":2415827,"name":"kaygarly","country":"ru","lat":57.4551,"lon":72.905},{"id":2409390,"name":"ivanov mys","country":"ru","lat":57.3847,"lon":73.1078},{"id":2464611,"name":"nagorno-ayevsk","country":"ru","lat":57.3971,"lon":72.9474},{"id":2474102,"name":"novonikolsk","country":"ru","lat":57.3391,"lon":73.1736},{"id":2365415,"name":"aylinka","country":"ru","lat":57.3536,"lon":73.4435},{"id":2544441,"name":"uraly","country":"ru","lat":57.070057,"lon":72.963932},{"id":2397305,"name":"firstovo","country":"ru","lat":57.039612,"lon":72.883719},{"id":2495512,"name":"pospelova","country":"ru","lat":56.877557,"lon":72.78018},{"id":2572103,"name":"zimnyaya","country":"ru","lat":57.366667,"lon":73.266667},{"id":2385828,"name":"chernokolskaya","country":"ru","lat":56.694693,"lon":72.833356},{"id":2474131,"name":"novonikolskoye","country":"ru","lat":57.116667,"lon":72.75},{"id":2511489,"name":"sergovka","country":"ru","lat":57.05,"lon":73.016667},{"id":2368669,"name":"bayby","country":"ru","lat":57.4592,"lon":72.5427},{"id":2413835,"name":"karaulnaya","country":"ru","lat":56.683333,"lon":72.716667},{"id":2508289,"name":"sarina","country":"ru","lat":56.516667,"lon":73.35},{"id":2541764,"name":"tuzakly","country":"ru","lat":57.2497,"lon":73.3719},{"id":2369934,"name":"belogrivka","country":"ru","lat":56.625751,"lon":72.834999},{"id":2532422,"name":"tabory","country":"ru","lat":57.3473,"lon":73.3344},{"id":2386885,"name":"chiganinskiy","country":"ru","lat":57.45,"lon":73.316667},{"id":2551624,"name":"verkhniye uki","country":"ru","lat":56.77574,"lon":72.771876}]});