callback({"markets":[{"id":3055446,"name":"sultanabad","country":"uz","lat":40.7708333,"lon":72.9763889},{"id":1550477,"name":"kugart","country":"kg","lat":41.1333333,"lon":73.4},{"id":1550886,"name":"spasskiy","country":"kg","lat":41.0166667,"lon":72.9833333},{"id":1550088,"name":"guzar","country":"kg","lat":40.5666667,"lon":73.1333333},{"id":1550594,"name":"mady","country":"kg","lat":40.5388889,"lon":72.9458333},{"id":3053348,"name":"khodzhaabad","country":"uz","lat":40.6694444,"lon":72.5597222},{"id":1550494,"name":"(( kurbantal-mady ))","country":"kg","lat":40.5833333,"lon":72.9166667},{"id":1550121,"name":"irisu","country":"kg","lat":41.0166667,"lon":73.4},{"id":1550608,"name":"massy","country":"kg","lat":41.0666667,"lon":72.6333333},{"id":1550348,"name":"khadyrsha","country":"kg","lat":40.8333333,"lon":73.0},{"id":3054622,"name":"orday","country":"uz","lat":40.5786111,"lon":72.6575},{"id":1550822,"name":"savay","country":"kg","lat":40.75,"lon":72.9833333},{"id":1550637,"name":"mogol","country":"kg","lat":41.3,"lon":73.0333333},{"id":1549987,"name":"dzhalpak-sary","country":"kg","lat":41.15,"lon":73.0833333},{"id":3052865,"name":"(( karakchi ))","country":"uz","lat":40.6166667,"lon":72.6333333},{"id":1550338,"name":"kenzhekul","country":"kg","lat":40.6388889,"lon":72.8119444},{"id":1549658,"name":"alash","country":"kg","lat":41.2666667,"lon":72.6666667},{"id":1550484,"name":"kulyugen","country":"kg","lat":41.1166667,"lon":72.7},{"id":1550624,"name":"mekka-turpak","country":"kg","lat":41.0833333,"lon":72.7666667},{"id":3051929,"name":"dartak","country":"uz","lat":40.8158333,"lon":72.8311111},{"id":1550691,"name":"oktyabr\u0027","country":"kg","lat":40.6833333,"lon":73.4666667},{"id":1549681,"name":"aman-ail","country":"kg","lat":41.0333333,"lon":72.9666667},{"id":1550435,"name":"kol\u0027me","country":"kg","lat":41.0833333,"lon":72.7},{"id":1551140,"name":"zimovka kara-bulak","country":"kg","lat":41.1666667,"lon":73.2333333},{"id":3052802,"name":"kapa","country":"uz","lat":40.7166667,"lon":72.5333333},{"id":1549597,"name":"ak-dzhar","country":"kg","lat":40.8,"lon":73.45},{"id":1550560,"name":"kyzylungungir","country":"kg","lat":41.3666667,"lon":73.0666667},{"id":3051561,"name":"buloqbashi","country":"uz","lat":40.6280556,"lon":72.5019444},{"id":3054418,"name":"nar-bata","country":"uz","lat":40.7833333,"lon":72.9166667},{"id":1550049,"name":"dzhonkungey","country":"kg","lat":41.1833333,"lon":73.35},{"id":1550140,"name":"jangy-kyshtak","country":"kg","lat":40.5369444,"lon":72.7766667},{"id":1550506,"name":"kutchi","country":"kg","lat":40.7,"lon":72.9},{"id":3055598,"name":"tashata","country":"uz","lat":40.5644444,"lon":72.61},{"id":3052106,"name":"dzhalakunduk","country":"uz","lat":40.7,"lon":72.6},{"id":3054658,"name":"pakhtaabad","country":"uz","lat":40.5786111,"lon":72.555},{"id":1549998,"name":"dzhangyaryk","country":"kg","lat":40.6666667,"lon":73.1166667},{"id":1550073,"name":"gaday-aryk","country":"kg","lat":41.0166667,"lon":73.0666667},{"id":1550290,"name":"kashkasu","country":"kg","lat":41.3166667,"lon":73.2},{"id":1550618,"name":"mazar-bulak","country":"kg","lat":41.1166667,"lon":73.2666667},{"id":1550284,"name":"kashgar","country":"kg","lat":40.6208333,"lon":72.8305556},{"id":1551039,"name":"tuya-lyash","country":"kg","lat":40.8833333,"lon":72.95},{"id":1550590,"name":"lyubinskiy","country":"kg","lat":41.15,"lon":73.2833333},{"id":1549696,"name":"arkhangel\u0027skiy","country":"kg","lat":41.1666667,"lon":73.3333333},{"id":1550032,"name":"dzhida","country":"kg","lat":40.85,"lon":72.9166667},{"id":3054170,"name":"mamir-ravat","country":"uz","lat":40.7166667,"lon":72.8},{"id":3055662,"name":"(( tegerak ))","country":"uz","lat":40.6,"lon":72.5333333},{"id":1549981,"name":"dyykan-kyshtak","country":"kg","lat":40.5141667,"lon":72.7872222},{"id":3051103,"name":"aral","country":"uz","lat":40.85,"lon":72.6},{"id":3051863,"name":"chukur","country":"uz","lat":40.9166667,"lon":72.5333333},{"id":1549672,"name":"alim-tepe","country":"kg","lat":40.6158333,"lon":72.7683333},{"id":1549780,"name":"blagoveshchenka","country":"kg","lat":40.9833333,"lon":72.95},{"id":1549825,"name":"chagym","country":"kg","lat":41.0666667,"lon":72.5833333},{"id":1550828,"name":"saz","country":"kg","lat":41.2333333,"lon":73.3},{"id":1550859,"name":"shidyr","country":"kg","lat":41.0833333,"lon":72.7166667},{"id":3055420,"name":"sufi-kashlak","country":"uz","lat":40.7225,"lon":72.6336111},{"id":3051668,"name":"changhir tosh","country":"uz","lat":40.8583333,"lon":72.5719444},{"id":1549984,"name":"dzhalal-abad","country":"kg","lat":40.9333333,"lon":73.0},{"id":3054336,"name":"mukur","country":"uz","lat":40.7833333,"lon":72.7833333},{"id":1551077,"name":"urumbash","country":"kg","lat":41.2,"lon":73.4},{"id":3053916,"name":"kurpa","country":"uz","lat":40.5769444,"lon":72.755},{"id":3054963,"name":"sal\u0027pe","country":"uz","lat":40.6280556,"lon":72.5969444},{"id":1551037,"name":"turt-kul\u0027","country":"kg","lat":40.7833333,"lon":73.3},{"id":1549713,"name":"avgandala","country":"kg","lat":41.2833333,"lon":73.0333333},{"id":1550657,"name":"naukent","country":"kg","lat":41.05,"lon":72.5666667},{"id":1550297,"name":"katranke","country":"kg","lat":41.2,"lon":73.3166667},{"id":1550916,"name":"suzak","country":"kg","lat":40.9,"lon":72.9},{"id":1550823,"name":"saydi-kum","country":"kg","lat":40.95,"lon":72.6},{"id":3056369,"name":"yuzhnyj-alamyshik","country":"uz","lat":40.7613889,"lon":72.6105556},{"id":1550600,"name":"mama-sady","country":"kg","lat":41.0666667,"lon":73.05},{"id":3055701,"name":"teshiktash","country":"uz","lat":40.8833333,"lon":72.5666667},{"id":1550256,"name":"kara-su","country":"kg","lat":40.7,"lon":72.8666667},{"id":1550482,"name":"kulat","country":"kg","lat":40.9833333,"lon":72.7666667},{"id":1549720,"name":"bagysh","country":"kg","lat":41.0166667,"lon":73.0833333},{"id":1551084,"name":"uzbek-gava","country":"kg","lat":41.2666667,"lon":72.8333333},{"id":1550376,"name":"kipchak","country":"kg","lat":40.7,"lon":73.1},{"id":3053276,"name":"khasankavak","country":"uz","lat":40.7333333,"lon":72.7},{"id":1550354,"name":"khazret-ayub","country":"kg","lat":40.95,"lon":73.0166667},{"id":1551108,"name":"yalgyz-yangak","country":"kg","lat":41.1,"lon":73.1833333},{"id":1549769,"name":"beshbadom","country":"kg","lat":41.2166667,"lon":72.9333333},{"id":1550267,"name":"kara-tyube","country":"kg","lat":41.05,"lon":72.7166667},{"id":1550268,"name":"karatyube","country":"kg","lat":40.6047222,"lon":72.965},{"id":1549849,"name":"charbak","country":"kg","lat":41.25,"lon":72.9833333},{"id":1550821,"name":"sassyk","country":"kg","lat":40.7833333,"lon":73.45},{"id":1549974,"name":"dushman","country":"kg","lat":40.9833333,"lon":72.6833333},{"id":3050816,"name":"abdullabiy","country":"uz","lat":40.7833333,"lon":72.75},{"id":1550086,"name":"gul\u0027ma","country":"kg","lat":41.0833333,"lon":72.6666667},{"id":1550228,"name":"karakol","country":"kg","lat":41.2333333,"lon":73.0666667},{"id":1549695,"name":"arimdzhan","country":"kg","lat":41.0333333,"lon":72.5666667},{"id":3054947,"name":"sakaldy","country":"uz","lat":40.9833333,"lon":72.5333333},{"id":1550507,"name":"kutchu","country":"kg","lat":40.9833333,"lon":73.0333333},{"id":1551057,"name":"uch-tapkyr","country":"kg","lat":40.95,"lon":73.2666667},{"id":1549827,"name":"chakan","country":"kg","lat":40.9833333,"lon":72.75},{"id":3053386,"name":"(( khodzhalyar ))","country":"uz","lat":40.6,"lon":72.6666667},{"id":1550202,"name":"karacha","country":"kg","lat":41.1,"lon":72.8},{"id":3051467,"name":"beshtal","country":"uz","lat":40.6144444,"lon":72.7016667},{"id":1550044,"name":"dzhirgatal","country":"kg","lat":41.1,"lon":73.2166667},{"id":1549846,"name":"changortash","country":"kg","lat":40.8666667,"lon":72.8333333},{"id":1550720,"name":"osh","country":"kg","lat":40.5294444,"lon":72.79},{"id":1550862,"name":"shirali","country":"kg","lat":40.75,"lon":73.2666667},{"id":1550242,"name":"karamart","country":"kg","lat":41.2166667,"lon":73.1333333},{"id":3056123,"name":"voroshilovo","country":"uz","lat":40.7333333,"lon":72.8833333},{"id":1549635,"name":"aktauk","country":"kg","lat":41.2166667,"lon":73.1},{"id":1549754,"name":"begovat","country":"kg","lat":40.8666667,"lon":72.9666667},{"id":1549924,"name":"chuka-tepe","country":"kg","lat":40.9,"lon":73.0},{"id":1550076,"name":"gavrilovka","country":"kg","lat":41.05,"lon":73.05},{"id":1550965,"name":"taukent","country":"kg","lat":40.6427778,"lon":72.9294444},{"id":1550377,"name":"kirgizgava","country":"kg","lat":41.2,"lon":72.8333333},{"id":1550653,"name":"nariman","country":"kg","lat":40.5541667,"lon":72.7911111},{"id":1550843,"name":"shaltak","country":"kg","lat":40.5333333,"lon":73.0333333},{"id":3054675,"name":"palvan-kandy","country":"uz","lat":40.75,"lon":72.6333333},{"id":1550128,"name":"ishma","country":"kg","lat":40.5833333,"lon":73.0166667},{"id":1550758,"name":"pokrovskoye","country":"kg","lat":40.7,"lon":73.15},{"id":1550206,"name":"kara-dekhkan","country":"kg","lat":40.7666667,"lon":73.4},{"id":1550357,"name":"khodyrsha-mugal\u0027","country":"kg","lat":40.7333333,"lon":73.1},{"id":3053428,"name":"khonobod","country":"uz","lat":40.7961111,"lon":73.0047222},{"id":1550459,"name":"koshkenchi","country":"kg","lat":41.0166667,"lon":73.05},{"id":3055783,"name":"tugla","country":"uz","lat":40.95,"lon":72.55},{"id":3054692,"name":"pao imeni kirova","country":"uz","lat":40.6475,"lon":72.6002778},{"id":1550428,"name":"kok-yangak","country":"kg","lat":41.0333333,"lon":73.2},{"id":1550736,"name":"(( pakyr-abad ))","country":"kg","lat":40.5833333,"lon":72.9833333},{"id":1550293,"name":"kashka-terek","country":"kg","lat":40.7833333,"lon":73.1833333},{"id":1550351,"name":"(( khasan-chek ))","country":"kg","lat":40.5666667,"lon":72.8833333},{"id":1550851,"name":"shark","country":"kg","lat":40.5541667,"lon":72.8766667},{"id":1550237,"name":"kara-kul\u0027ja","country":"kg","lat":40.6833333,"lon":73.45},{"id":1550246,"name":"kara-sadak","country":"kg","lat":40.7666667,"lon":73.1},{"id":1551088,"name":"uzkend","country":"kg","lat":40.7666667,"lon":73.3},{"id":1549603,"name":"akhman","country":"kg","lat":41.0,"lon":72.8},{"id":1551071,"name":"unkur","country":"kg","lat":40.5166667,"lon":73.2833333},{"id":1551040,"name":"tuzbel\u0027","country":"kg","lat":40.5666667,"lon":73.35},{"id":3051214,"name":"babi","country":"uz","lat":41.0166667,"lon":72.5166667},{"id":1549730,"name":"bash-bulak","country":"kg","lat":40.5122222,"lon":72.9658333},{"id":1549758,"name":"bel\u0027- kyshtak","country":"kg","lat":40.5602778,"lon":72.6811111},{"id":3052444,"name":"gumchu-bak","country":"uz","lat":40.6666667,"lon":72.7166667},{"id":1550635,"name":"mirza-aki","country":"kg","lat":40.75,"lon":73.4166667},{"id":1550544,"name":"kyzylsangir","country":"kg","lat":40.6333333,"lon":73.1166667},{"id":1550181,"name":"kampyr-ravat","country":"kg","lat":40.7833333,"lon":73.1333333},{"id":1550263,"name":"karatay","country":"kg","lat":40.5166667,"lon":73.0166667},{"id":3053511,"name":"kipchak","country":"uz","lat":40.8,"lon":72.8833333},{"id":1549702,"name":"arslanbob","country":"kg","lat":41.3333333,"lon":72.9333333},{"id":1551017,"name":"topu","country":"kg","lat":40.95,"lon":73.3},{"id":3053041,"name":"kashkar","country":"uz","lat":40.9333333,"lon":72.5666667},{"id":1549574,"name":"akbash","country":"kg","lat":40.9833333,"lon":72.9666667},{"id":1550037,"name":"dzhilandy","country":"kg","lat":40.8166667,"lon":73.3},{"id":1551135,"name":"zarger","country":"kg","lat":40.8166667,"lon":73.3333333},{"id":1549953,"name":"dmitriyevskoye","country":"kg","lat":41.1333333,"lon":73.3333333},{"id":1550292,"name":"kashka-terek","country":"kg","lat":41.15,"lon":73.1333333},{"id":1549692,"name":"aral-vakhym","country":"kg","lat":41.0166667,"lon":72.6666667},{"id":1550753,"name":"podachi","country":"kg","lat":40.9666667,"lon":72.65},{"id":1550362,"name":"khodzharabad","country":"kg","lat":40.95,"lon":72.6166667},{"id":1549611,"name":"ak-mechet\u0027-aral","country":"kg","lat":40.8666667,"lon":72.65},{"id":1551051,"name":"uchi-kur","country":"kg","lat":40.5166667,"lon":73.2},{"id":1550593,"name":"madaniyat","country":"kg","lat":40.5902778,"lon":72.8663889},{"id":1549778,"name":"bish-agach","country":"kg","lat":41.05,"lon":72.6166667},{"id":1550515,"name":"kyzkol","country":"kg","lat":41.1,"lon":73.0833333},{"id":3051979,"name":"dekhkan-chek","country":"uz","lat":40.7666667,"lon":72.8333333},{"id":1550667,"name":"niyaz","country":"kg","lat":41.0166667,"lon":72.95},{"id":1550693,"name":"oktyabr\u0027skoye","country":"kg","lat":41.05,"lon":73.1},{"id":1549768,"name":"beshbadam","country":"kg","lat":41.15,"lon":72.8666667},{"id":3053924,"name":"kuruke","country":"uz","lat":40.8333333,"lon":72.6333333},{"id":1550712,"name":"orto-malay","country":"kg","lat":41.05,"lon":73.2},{"id":1550687,"name":"nura","country":"kg","lat":40.9,"lon":73.1833333},{"id":3053714,"name":"koshtepa","country":"uz","lat":40.6463889,"lon":72.6486111},{"id":3054858,"name":"qurghontepa","country":"uz","lat":40.7266667,"lon":72.7591667},{"id":3053013,"name":"karnaychi","country":"uz","lat":40.5969444,"lon":72.6258333},{"id":1550928,"name":"(( tala ))","country":"kg","lat":40.5333333,"lon":72.75},{"id":3051169,"name":"aushka","country":"uz","lat":40.95,"lon":72.5166667},{"id":1550190,"name":"karaalma","country":"kg","lat":41.1833333,"lon":73.3166667},{"id":1549752,"name":"bazar-kurgan","country":"kg","lat":41.0333333,"lon":72.75},{"id":3052790,"name":"kangly","country":"uz","lat":40.8,"lon":72.8166667},{"id":1550737,"name":"pamyat\u0027 il\u0027icha","country":"kg","lat":40.7833333,"lon":73.3833333},{"id":1551110,"name":"yanabadam","country":"kg","lat":41.1166667,"lon":72.7833333},{"id":1550304,"name":"kaynar","country":"kg","lat":40.6,"lon":73.1166667},{"id":3052194,"name":"dzhida-mazar","country":"uz","lat":40.8,"lon":72.7333333},{"id":1549637,"name":"ak-terek","country":"kg","lat":40.9666667,"lon":73.1666667},{"id":3054621,"name":"(( orday-moynak ))","country":"uz","lat":40.5833333,"lon":72.55},{"id":1550579,"name":"leninskoye","country":"kg","lat":40.6833333,"lon":73.1833333},{"id":3054649,"name":"oyim","country":"uz","lat":40.8241667,"lon":72.7413889},{"id":1550951,"name":"tash-bulak","country":"kg","lat":41.1666667,"lon":72.9333333},{"id":1550881,"name":"sovetskoye","country":"kg","lat":41.0666667,"lon":72.7333333},{"id":1550222,"name":"kara-kel\u0027","country":"kg","lat":40.75,"lon":73.2333333},{"id":1551128,"name":"yuvash","country":"kg","lat":40.6,"lon":72.9166667},{"id":3052010,"name":"dilkushad","country":"uz","lat":40.5952778,"lon":72.6688889},{"id":3056325,"name":"yerqishloq","country":"uz","lat":40.6044444,"lon":72.7322222},{"id":3054187,"name":"manyak","country":"uz","lat":40.6066667,"lon":72.6511111},{"id":1550509,"name":"kuturgan","country":"kg","lat":40.9333333,"lon":73.4666667}]});