callback({"markets":[{"id":1874572,"name":"el ramonal","country":"mx","lat":21.141667,"lon":-87.916667},{"id":1868587,"name":"cupul","country":"mx","lat":21.158333,"lon":-88.1875},{"id":1908971,"name":"san pedro juaez","country":"mx","lat":21.1625,"lon":-87.85},{"id":1864923,"name":"chechmil","country":"mx","lat":20.775,"lon":-87.966667},{"id":1917672,"name":"x-can","country":"mx","lat":20.833333,"lon":-87.716667},{"id":1881652,"name":"kunuku","country":"mx","lat":20.833333,"lon":-88.083333},{"id":1857333,"name":"actuncoh","country":"mx","lat":20.925,"lon":-88.116667},{"id":1865715,"name":"chuntzalan","country":"mx","lat":21.25,"lon":-88.4375},{"id":1893767,"name":"naranjal","country":"mx","lat":20.958333,"lon":-87.933333},{"id":1891227,"name":"manuel cepeda peraza","country":"mx","lat":21.233333,"lon":-87.658333},{"id":1865614,"name":"chuc-ac","country":"mx","lat":21.133333,"lon":-88.316667},{"id":1918121,"name":"yahpita","country":"mx","lat":21.05,"lon":-88.083333},{"id":1881651,"name":"kunkunul","country":"mx","lat":20.633333,"lon":-88.3},{"id":1910251,"name":"santa maria grande","country":"mx","lat":20.816667,"lon":-88.316667},{"id":1869269,"name":"dzit ox rosado","country":"mx","lat":21.166667,"lon":-88.4},{"id":1897922,"name":"pixoy","country":"mx","lat":20.7,"lon":-88.283333},{"id":1866163,"name":"cixu","country":"mx","lat":20.883333,"lon":-88.233333},{"id":1857155,"name":"acancun","country":"mx","lat":21.233333,"lon":-88.283333},{"id":1904564,"name":"sahcaba de medina","country":"mx","lat":20.666667,"lon":-88.383333},{"id":1892861,"name":"misne balan","country":"mx","lat":21.3,"lon":-87.8},{"id":1918028,"name":"xpanha toro","country":"mx","lat":21.316667,"lon":-88.1},{"id":1914136,"name":"tesoco","country":"mx","lat":20.7,"lon":-88.083333},{"id":1912068,"name":"sucil","country":"mx","lat":20.566667,"lon":-88.283333},{"id":1879964,"name":"idzinte","country":"mx","lat":21.033333,"lon":-88.033333},{"id":1917678,"name":"x-catzim","country":"mx","lat":20.716667,"lon":-87.816667},{"id":1918624,"name":"zacbo","country":"mx","lat":21.466667,"lon":-87.625},{"id":1916242,"name":"uayma","country":"mx","lat":20.733333,"lon":-88.316667},{"id":1912270,"name":"tahcabo","country":"mx","lat":21.05,"lon":-88.066667},{"id":1911159,"name":"san vicente","country":"mx","lat":20.983333,"lon":-88.316667},{"id":1894163,"name":"noh-ha","country":"mx","lat":21.133333,"lon":-88.466667},{"id":1912069,"name":"sucopo","country":"mx","lat":21.15,"lon":-88.066667},{"id":1918146,"name":"yalcon","country":"mx","lat":20.670833,"lon":-88.15},{"id":1869334,"name":"echeverria","country":"mx","lat":20.8125,"lon":-87.725},{"id":1861622,"name":"buena esperanza","country":"mx","lat":21.3,"lon":-87.966667},{"id":1890763,"name":"macucam","country":"mx","lat":21.283333,"lon":-87.95},{"id":1909901,"name":"santa eleuteria","country":"mx","lat":20.683333,"lon":-88.3125},{"id":1898359,"name":"pom","country":"mx","lat":21.05,"lon":-88.433333},{"id":1918077,"name":"xuilu","country":"mx","lat":20.916667,"lon":-88.416667},{"id":1917977,"name":"xolopel","country":"mx","lat":21.116667,"lon":-87.833333},{"id":1893514,"name":"mucel","country":"mx","lat":20.891667,"lon":-87.829167},{"id":1893626,"name":"nabalam","country":"mx","lat":20.883333,"lon":-88.016667},{"id":1918458,"name":"yucatan","country":"mx","lat":21.2125,"lon":-87.741667},{"id":1913257,"name":"tejas","country":"mx","lat":21.416667,"lon":-87.833333},{"id":1881576,"name":"kaua","country":"mx","lat":20.616667,"lon":-88.416667},{"id":1914585,"name":"tikuch","country":"mx","lat":20.683333,"lon":-88.116667},{"id":1879906,"name":"hunmuch","country":"mx","lat":21.1,"lon":-88.45},{"id":1864658,"name":"chan san antonio","country":"mx","lat":21.216667,"lon":-88.25},{"id":1918145,"name":"yalcoba","country":"mx","lat":20.816667,"lon":-88.066667},{"id":1916237,"name":"tzula","country":"mx","lat":21.0,"lon":-88.333333},{"id":1864621,"name":"chancalotmul","country":"mx","lat":21.35,"lon":-88.483333},{"id":1866336,"name":"coba","country":"mx","lat":20.516667,"lon":-87.65},{"id":1917863,"name":"xocen","country":"mx","lat":20.566667,"lon":-88.15},{"id":1864632,"name":"chanchen","country":"mx","lat":20.508333,"lon":-87.691667},{"id":1869278,"name":"dzonot ake","country":"mx","lat":21.233333,"lon":-87.9375},{"id":1890930,"name":"mahaycab","country":"mx","lat":21.004167,"lon":-88.408333},{"id":1908071,"name":"san luis tzuc-tuk","country":"mx","lat":21.145833,"lon":-87.858333},{"id":1869281,"name":"dzonot carretero","country":"mx","lat":21.333333,"lon":-87.883333},{"id":1895456,"name":"otial","country":"mx","lat":20.566667,"lon":-88.433333},{"id":1865650,"name":"chuluco","country":"mx","lat":20.783333,"lon":-87.716667},{"id":1907837,"name":"san laureano","country":"mx","lat":21.4,"lon":-88.383333},{"id":1880225,"name":"itzimte","country":"mx","lat":21.066667,"lon":-88.05},{"id":1864873,"name":"chauaco","country":"mx","lat":20.766667,"lon":-87.75},{"id":1861036,"name":"benito juaez","country":"mx","lat":21.25,"lon":-87.7},{"id":1864634,"name":"chanchen","country":"mx","lat":21.3,"lon":-88.416667},{"id":1917780,"name":"ximab","country":"mx","lat":20.758333,"lon":-87.866667},{"id":1893160,"name":"monte cristo","country":"mx","lat":21.366667,"lon":-88.208333},{"id":1860370,"name":"balantun","country":"mx","lat":20.783333,"lon":-88.433333},{"id":1881536,"name":"kanalbitun","country":"mx","lat":20.7,"lon":-88.416667},{"id":1917646,"name":"xbojom","country":"mx","lat":20.5625,"lon":-88.479167},{"id":1917665,"name":"xcanchenchen","country":"mx","lat":20.879167,"lon":-88.016667},{"id":1857332,"name":"actunchen","country":"mx","lat":21.333333,"lon":-87.983333},{"id":1918230,"name":"yaxcucul","country":"mx","lat":20.783333,"lon":-88.25},{"id":1918069,"name":"x-uch","country":"mx","lat":20.804167,"lon":-88.133333},{"id":1869259,"name":"dzinuo","country":"mx","lat":20.641667,"lon":-88.25},{"id":1870002,"name":"el alamo","country":"mx","lat":21.0375,"lon":-87.654167},{"id":1868413,"name":"cueva","country":"mx","lat":21.433333,"lon":-88.4},{"id":1909570,"name":"santa barbara","country":"mx","lat":20.7,"lon":-88.216667},{"id":1914743,"name":"titzimin","country":"mx","lat":21.15,"lon":-88.15},{"id":1918392,"name":"yok hom","country":"mx","lat":20.966667,"lon":-88.25},{"id":1918220,"name":"yaxcheku","country":"mx","lat":21.2,"lon":-87.9375},{"id":1894524,"name":"nueva york","country":"mx","lat":21.066667,"lon":-87.983333},{"id":1893521,"name":"muchucux","country":"mx","lat":20.633333,"lon":-88.45},{"id":1864919,"name":"chebalam","country":"mx","lat":20.55,"lon":-88.416667},{"id":1869274,"name":"dzodzil","country":"mx","lat":20.716667,"lon":-87.870833},{"id":1868328,"name":"cuenca lechera","country":"mx","lat":21.25,"lon":-88.341667},{"id":1910558,"name":"santa rosa concepcion","country":"mx","lat":21.15,"lon":-87.666667},{"id":1906424,"name":"san hipilio","country":"mx","lat":21.183333,"lon":-87.658333},{"id":1917575,"name":"xalau","country":"mx","lat":20.666667,"lon":-88.0},{"id":1911710,"name":"sisbicchen","country":"mx","lat":20.783333,"lon":-87.833333},{"id":1865356,"name":"chindzonot","country":"mx","lat":20.516667,"lon":-88.416667},{"id":1918357,"name":"yoactun","country":"mx","lat":20.7375,"lon":-87.75},{"id":1914748,"name":"tixcacalcupul","country":"mx","lat":20.533333,"lon":-88.266667},{"id":1918395,"name":"yokozonot presentado","country":"mx","lat":20.9375,"lon":-87.866667},{"id":1905338,"name":"san antonio macan","country":"mx","lat":21.3625,"lon":-88.125},{"id":1881521,"name":"kalach viejo","country":"mx","lat":21.283333,"lon":-87.9},{"id":1914754,"name":"tixcancab","country":"mx","lat":21.033333,"lon":-87.85},{"id":1893672,"name":"nacuche","country":"mx","lat":20.920833,"lon":-88.3},{"id":1869284,"name":"dzonot","country":"mx","lat":21.033333,"lon":-87.933333},{"id":1900111,"name":"ramonal","country":"mx","lat":20.758333,"lon":-87.8},{"id":1881650,"name":"kunche","country":"mx","lat":20.916667,"lon":-88.325},{"id":1894766,"name":"nyo x can","country":"mx","lat":20.866667,"lon":-87.595833},{"id":1879907,"name":"hunmuch santa maria","country":"mx","lat":21.1125,"lon":-88.45},{"id":1865775,"name":"chuytab","country":"mx","lat":21.066667,"lon":-88.166667},{"id":1918376,"name":"yodzonot","country":"mx","lat":21.05,"lon":-88.275},{"id":1865095,"name":"chichimila","country":"mx","lat":20.616667,"lon":-88.216667},{"id":1907271,"name":"san jose paz","country":"mx","lat":21.3,"lon":-88.433333},{"id":1894816,"name":"ochachich","country":"mx","lat":21.283333,"lon":-87.966667},{"id":1912948,"name":"tebon","country":"mx","lat":20.95,"lon":-88.233333},{"id":1909219,"name":"san rafael","country":"mx","lat":20.633333,"lon":-88.483333},{"id":1869230,"name":"dzamtun","country":"mx","lat":20.55,"lon":-88.116667},{"id":1881585,"name":"kikil","country":"mx","lat":21.183333,"lon":-88.166667},{"id":1908875,"name":"san pedro chenchela","country":"mx","lat":20.866667,"lon":-88.3125},{"id":1872575,"name":"el ideal","country":"mx","lat":20.875,"lon":-87.55},{"id":1904877,"name":"samaria","country":"mx","lat":21.266667,"lon":-87.75},{"id":1915262,"name":"tohopku","country":"mx","lat":20.65,"lon":-88.466667},{"id":1861342,"name":"bolisha","country":"mx","lat":21.35,"lon":-87.833333},{"id":1907420,"name":"san juan chen","country":"mx","lat":20.925,"lon":-87.7375},{"id":1893914,"name":"n.c.p.e. san francisco","country":"mx","lat":21.2,"lon":-88.466667},{"id":1913367,"name":"temaxax","country":"mx","lat":21.316667,"lon":-87.966667},{"id":1884272,"name":"la libertad","country":"mx","lat":21.216667,"lon":-87.795833},{"id":1898285,"name":"pocoboch","country":"mx","lat":20.95,"lon":-88.116667},{"id":1881540,"name":"kancaba","country":"mx","lat":21.216667,"lon":-88.216667},{"id":1864660,"name":"chan santa cruz","country":"mx","lat":20.520833,"lon":-88.0625},{"id":1904519,"name":"saccaba","country":"mx","lat":21.083333,"lon":-88.1},{"id":1917700,"name":"xculucmul","country":"mx","lat":21.2,"lon":-88.116667},{"id":1907567,"name":"san juan del rio","country":"mx","lat":21.45,"lon":-88.155556},{"id":1916225,"name":"tzonotake","country":"mx","lat":21.233333,"lon":-88.0},{"id":1882297,"name":"la candelaria","country":"mx","lat":21.425,"lon":-88.391667},{"id":1888480,"name":"loche","country":"mx","lat":21.35,"lon":-88.15},{"id":1884275,"name":"la librada","country":"mx","lat":21.45,"lon":-88.375},{"id":1877352,"name":"fransisco villa","country":"mx","lat":21.233333,"lon":-87.691667},{"id":1869826,"name":"ekbalab","country":"mx","lat":20.9,"lon":-88.15},{"id":1864035,"name":"cenote azul","country":"mx","lat":21.270833,"lon":-87.716667},{"id":1865652,"name":"chulutan","country":"mx","lat":20.566667,"lon":-87.966667},{"id":1917831,"name":"xkilimil","country":"mx","lat":21.15,"lon":-87.816667},{"id":1918056,"name":"x-tut","country":"mx","lat":20.866667,"lon":-87.966667},{"id":1862175,"name":"calatmul","country":"mx","lat":21.016667,"lon":-88.183333},{"id":1881113,"name":"josefita","country":"mx","lat":21.366667,"lon":-88.333333},{"id":1862967,"name":"canamui","country":"mx","lat":21.4,"lon":-87.733333},{"id":1911711,"name":"sisbichen","country":"mx","lat":20.8,"lon":-87.9},{"id":1867823,"name":"crucero","country":"mx","lat":20.55,"lon":-88.333333},{"id":1864667,"name":"chan tres reyes","country":"mx","lat":20.633333,"lon":-87.620833},{"id":1896186,"name":"panaba","country":"mx","lat":21.283333,"lon":-88.266667},{"id":1918388,"name":"yokchec","country":"mx","lat":21.2,"lon":-88.3},{"id":1918027,"name":"xpalib","country":"mx","lat":21.35,"lon":-88.3},{"id":1881647,"name":"kulux","country":"mx","lat":21.433333,"lon":-87.716667},{"id":1881644,"name":"kukila","country":"mx","lat":21.033333,"lon":-88.316667},{"id":1869229,"name":"dzalbay","country":"mx","lat":20.833333,"lon":-88.05},{"id":1881189,"name":"joteoch","country":"mx","lat":20.7,"lon":-87.833333},{"id":1912936,"name":"teapa","country":"mx","lat":21.2,"lon":-87.545833},{"id":1876675,"name":"espita","country":"mx","lat":21.016667,"lon":-88.316667},{"id":1869253,"name":"dzidzya","country":"mx","lat":21.3,"lon":-88.333333},{"id":1916538,"name":"valladolid","country":"mx","lat":20.683333,"lon":-88.2},{"id":1917818,"name":"x-kalax","country":"mx","lat":21.391667,"lon":-88.0},{"id":1909707,"name":"santa clara","country":"mx","lat":20.775,"lon":-87.883333},{"id":1864450,"name":"chacanot","country":"mx","lat":20.566667,"lon":-88.366667},{"id":1918046,"name":"xtina","country":"mx","lat":21.266667,"lon":-88.15},{"id":1905711,"name":"sancen","country":"mx","lat":20.85,"lon":-88.266667},{"id":1907906,"name":"san lorenzo","country":"mx","lat":20.683333,"lon":-88.416667},{"id":1916419,"name":"uspibil","country":"mx","lat":20.770833,"lon":-88.004167},{"id":1864920,"name":"chebalan","country":"mx","lat":20.516667,"lon":-88.366667},{"id":1866887,"name":"colonia yucatan","country":"mx","lat":21.25,"lon":-87.633333},{"id":1917738,"name":"xicinchac","country":"mx","lat":20.883333,"lon":-88.283333},{"id":1894608,"name":"nuevo leon","country":"mx","lat":21.266667,"lon":-87.616667},{"id":1864938,"name":"chemax","country":"mx","lat":20.65,"lon":-87.933333},{"id":1871945,"name":"el eden","country":"mx","lat":21.045833,"lon":-87.679167},{"id":1912276,"name":"tahmuy","country":"mx","lat":20.7625,"lon":-88.141667},{"id":1888531,"name":"lol-be","country":"mx","lat":20.5,"lon":-87.933333},{"id":1869266,"name":"dzitnup","country":"mx","lat":20.633333,"lon":-88.25},{"id":1917713,"name":"xeb","country":"mx","lat":20.925,"lon":-88.233333},{"id":1864668,"name":"chan tres reyes","country":"mx","lat":21.001667,"lon":-87.691667},{"id":1907251,"name":"san jose montecristo","country":"mx","lat":21.0625,"lon":-87.6875},{"id":1863875,"name":"cavich","country":"mx","lat":20.691667,"lon":-87.8125},{"id":1878010,"name":"g.s. numero dos","country":"mx","lat":21.245833,"lon":-87.6},{"id":1881654,"name":"kuseb","country":"mx","lat":20.85,"lon":-87.880556},{"id":1887029,"name":"las palmas","country":"mx","lat":21.358333,"lon":-87.8125},{"id":1861344,"name":"bolmay","country":"mx","lat":20.55,"lon":-87.9375},{"id":1869242,"name":"dzibichen","country":"mx","lat":21.283333,"lon":-88.05},{"id":1894723,"name":"nuevo tesoco","country":"mx","lat":21.308333,"lon":-87.5625},{"id":1865392,"name":"chipepte","country":"mx","lat":21.483333,"lon":-87.533333},{"id":1905465,"name":"san arturo","country":"mx","lat":21.270833,"lon":-87.541667},{"id":1895722,"name":"palbalam","country":"mx","lat":20.733333,"lon":-87.816667},{"id":1904605,"name":"sajacanchen","country":"mx","lat":20.65,"lon":-87.616667},{"id":1896940,"name":"pebtun","country":"mx","lat":20.65,"lon":-88.25},{"id":1869245,"name":"dzicila","country":"mx","lat":21.016667,"lon":-88.25},{"id":1916181,"name":"tzama","country":"mx","lat":20.866667,"lon":-88.233333},{"id":1863855,"name":"catzin","country":"mx","lat":20.75,"lon":-87.816667},{"id":1916226,"name":"tzonotemezo","country":"mx","lat":21.041667,"lon":-87.95},{"id":1877056,"name":"felipe carrillo puerto","country":"mx","lat":21.170833,"lon":-87.725},{"id":1897687,"name":"pilar","country":"mx","lat":21.466667,"lon":-88.25},{"id":1913427,"name":"temozon","country":"mx","lat":20.8,"lon":-88.216667},{"id":1899746,"name":"punta laguna","country":"mx","lat":20.654167,"lon":-87.633333},{"id":1917645,"name":"xbella","country":"mx","lat":21.408333,"lon":-88.4375},{"id":1869280,"name":"dzonot boch","country":"mx","lat":21.316667,"lon":-87.916667},{"id":1918085,"name":"xuneb","country":"mx","lat":20.7,"lon":-88.0},{"id":1918042,"name":"xtejas","country":"mx","lat":20.875,"lon":-87.7625},{"id":1918038,"name":"x-quinientos","country":"mx","lat":21.466667,"lon":-88.183333},{"id":1907859,"name":"san lorenzo chiquilia","country":"mx","lat":21.0125,"lon":-87.904167},{"id":1915783,"name":"tres marias","country":"mx","lat":21.2,"lon":-87.659722},{"id":1912202,"name":"tacchebila","country":"mx","lat":20.9,"lon":-88.45},{"id":1916236,"name":"tzukmuc","country":"mx","lat":20.6,"lon":-88.45},{"id":1864645,"name":"chan eden","country":"mx","lat":21.283333,"lon":-88.383333},{"id":1890689,"name":"luz","country":"mx","lat":20.554167,"lon":-87.741667},{"id":1869233,"name":"dzeal","country":"mx","lat":20.566667,"lon":-88.4375},{"id":1881610,"name":"kinchakan","country":"mx","lat":21.316667,"lon":-88.033333},{"id":1908858,"name":"san pedro bacab","country":"mx","lat":21.3,"lon":-87.658333},{"id":1869287,"name":"dzonot pinto","country":"mx","lat":21.333333,"lon":-87.85},{"id":1869288,"name":"dzonot tigre","country":"mx","lat":21.25,"lon":-87.904167},{"id":1878011,"name":"g.s. numero tres","country":"mx","lat":21.2375,"lon":-87.583333},{"id":1861843,"name":"buytuc","country":"mx","lat":21.2,"lon":-88.066667},{"id":1905735,"name":"san cosme","country":"mx","lat":20.797222,"lon":-87.5},{"id":1912067,"name":"sucila","country":"mx","lat":21.15,"lon":-88.3125},{"id":1918397,"name":"yokuas","country":"mx","lat":21.066667,"lon":-88.383333},{"id":1918058,"name":"xualtes","country":"mx","lat":21.116667,"lon":-88.470833},{"id":1867598,"name":"cosancher","country":"mx","lat":20.658333,"lon":-87.7},{"id":1869267,"name":"dzit ox","country":"mx","lat":21.066667,"lon":-88.466667},{"id":1879048,"name":"hidalgo y cortes","country":"mx","lat":20.6,"lon":-87.666667},{"id":1890664,"name":"luis rosado","country":"mx","lat":21.1875,"lon":-87.633333},{"id":1864670,"name":"chan yokdzonot","country":"mx","lat":20.716667,"lon":-88.233333},{"id":1918396,"name":"yoktzonot","country":"mx","lat":20.916667,"lon":-88.433333},{"id":1898381,"name":"popolnah","country":"mx","lat":20.995833,"lon":-87.5625},{"id":1915697,"name":"trascorral","country":"mx","lat":21.016667,"lon":-87.754167},{"id":1864626,"name":"chan cenote","country":"mx","lat":20.983333,"lon":-87.783333},{"id":1894571,"name":"nuevo durango","country":"mx","lat":20.716667,"lon":-87.583333}]});