callback({"markets":[{"id":3162441,"name":"lufupa","country":"zr","lat":-10.6166667,"lon":24.9333333},{"id":3159511,"name":"kilawili","country":"zr","lat":-10.9166667,"lon":25.15},{"id":3166627,"name":"mwalikoma","country":"zr","lat":-11.1166667,"lon":24.6},{"id":3156355,"name":"kabisonga","country":"zr","lat":-10.6166667,"lon":25.15},{"id":371136,"name":"sakabinda","country":"cd","lat":-11.15,"lon":25.333333},{"id":368221,"name":"mulopwe ya kaloku","country":"cd","lat":-10.783333,"lon":24.816667},{"id":3166863,"name":"mwene-kalombe","country":"zr","lat":-10.7833333,"lon":24.7666667},{"id":3166866,"name":"mwene-kasanga","country":"zr","lat":-10.55,"lon":24.6666667},{"id":353646,"name":"benjamin","country":"cd","lat":-10.5,"lon":25.2},{"id":359149,"name":"kakwata","country":"cd","lat":-10.616667,"lon":24.85},{"id":3157432,"name":"kamoto","country":"zr","lat":-10.7219444,"lon":25.4294444},{"id":360292,"name":"kasalangani","country":"cd","lat":-10.666667,"lon":24.55},{"id":3139598,"name":"kakesa","country":"zm","lat":-11.3833333,"lon":24.6833333},{"id":3157614,"name":"kanema","country":"zr","lat":-10.8666667,"lon":24.7666667},{"id":374164,"name":"yamfwa","country":"cd","lat":-10.85,"lon":24.566667},{"id":3150681,"name":"bangula","country":"zr","lat":-10.5666667,"lon":24.6666667},{"id":3164071,"name":"matoka","country":"zr","lat":-10.9333333,"lon":25.4666667},{"id":3168886,"name":"sakalezi","country":"zr","lat":-10.5166667,"lon":24.8333333},{"id":3166527,"name":"muvunda tshiwewe","country":"zr","lat":-10.8833333,"lon":25.2166667},{"id":3161113,"name":"koury","country":"zr","lat":-10.6644444,"lon":25.3288889},{"id":369140,"name":"mwene-majamu","country":"cd","lat":-10.866667,"lon":24.583333},{"id":358035,"name":"ilunga","country":"cd","lat":-10.751389,"lon":25.369722},{"id":3169639,"name":"shimishi","country":"zr","lat":-10.8802778,"lon":25.3652778},{"id":3168921,"name":"sake","country":"zr","lat":-10.9,"lon":25.1666667},{"id":3144221,"name":"mukangani","country":"zm","lat":-11.3666667,"lon":25.2666667},{"id":360373,"name":"kasekalesa","country":"cd","lat":-10.65,"lon":24.933333},{"id":3166998,"name":"namadilo","country":"zr","lat":-11.0,"lon":24.7833333},{"id":3166353,"name":"musumpwe","country":"zr","lat":-10.8744444,"lon":25.2502778},{"id":3169955,"name":"swana-banza","country":"zr","lat":-10.9333333,"lon":24.85},{"id":3170613,"name":"tshikopo","country":"zr","lat":-10.9,"lon":25.4666667},{"id":3168885,"name":"sakaleshi","country":"zr","lat":-10.9333333,"lon":24.7166667},{"id":365977,"name":"manga-manga","country":"cd","lat":-10.852778,"lon":25.452778},{"id":368789,"name":"muvunda","country":"cd","lat":-10.883333,"lon":25.216667},{"id":3164105,"name":"matunga","country":"zr","lat":-11.0333333,"lon":25.0166667},{"id":3166482,"name":"mutuila","country":"zr","lat":-10.6833333,"lon":24.55},{"id":3168848,"name":"saidi","country":"zr","lat":-10.9,"lon":25.2833333},{"id":3168852,"name":"saimbwanda","country":"zr","lat":-10.95,"lon":24.65},{"id":364998,"name":"lumpande","country":"cd","lat":-10.533333,"lon":25.216667},{"id":3165259,"name":"mose-satshi-hongo","country":"zr","lat":-10.95,"lon":25.35},{"id":3139685,"name":"kalamba","country":"zm","lat":-11.4833333,"lon":25.2666667},{"id":371107,"name":"sagastshile","country":"cd","lat":-11.083333,"lon":25.466667},{"id":356073,"name":"cipolat","country":"cd","lat":-10.584722,"lon":25.445833},{"id":3170840,"name":"tshitala","country":"zr","lat":-10.75,"lon":24.65},{"id":3170392,"name":"tshakamalwa","country":"zr","lat":-10.9166667,"lon":25.0333333},{"id":3154230,"name":"djoni","country":"zr","lat":-10.7244444,"lon":25.3880556},{"id":369223,"name":"nabanza","country":"cd","lat":-10.9,"lon":24.783333},{"id":369129,"name":"mwene-kasanga","country":"cd","lat":-10.55,"lon":24.666667},{"id":373607,"name":"walemba","country":"cd","lat":-10.644167,"lon":25.285556},{"id":3166960,"name":"nabanza","country":"zr","lat":-10.9,"lon":24.7833333},{"id":3168873,"name":"sakabinda","country":"zr","lat":-11.15,"lon":25.3333333},{"id":359695,"name":"kamoto","country":"cd","lat":-10.721944,"lon":25.429444},{"id":362239,"name":"kingamyambo","country":"cd","lat":-10.660556,"lon":25.391389},{"id":3163307,"name":"makemani","country":"zr","lat":-10.5333333,"lon":24.9},{"id":3166318,"name":"musokatanda","country":"zr","lat":-10.9166667,"lon":25.0833333},{"id":372222,"name":"swana-mukanzu","country":"cd","lat":-11.033333,"lon":25.266667},{"id":357351,"name":"gangula","country":"cd","lat":-10.566667,"lon":24.666667},{"id":3170430,"name":"tshantshangombe","country":"zr","lat":-11.1833333,"lon":24.5666667},{"id":364704,"name":"lufupa","country":"cd","lat":-10.616667,"lon":24.933333},{"id":372631,"name":"tshababa","country":"cd","lat":-10.633333,"lon":24.55},{"id":3160543,"name":"kisote","country":"zr","lat":-10.9613889,"lon":25.4625},{"id":371299,"name":"samukinda","country":"cd","lat":-10.653333,"lon":25.468611},{"id":362806,"name":"kisote","country":"cd","lat":-10.961389,"lon":25.4625},{"id":3170647,"name":"tshilembalemba","country":"zr","lat":-10.7166667,"lon":24.6},{"id":3151156,"name":"beleka","country":"zr","lat":-11.35,"lon":24.5333333},{"id":361128,"name":"kengere","country":"cd","lat":-11.166667,"lon":25.466667},{"id":365448,"name":"magasin","country":"cd","lat":-10.632778,"lon":25.258889},{"id":372876,"name":"tshikopo","country":"cd","lat":-10.9,"lon":25.466667},{"id":368602,"name":"musonoie","country":"cd","lat":-10.683333,"lon":25.433333},{"id":3165958,"name":"mulopwe ya kaloku","country":"zr","lat":-10.7833333,"lon":24.8166667},{"id":3161382,"name":"kyambele","country":"zr","lat":-11.3166667,"lon":25.45},{"id":360080,"name":"kanzenze","country":"cd","lat":-10.516667,"lon":25.2},{"id":3161376,"name":"kyala","country":"zr","lat":-10.6644444,"lon":25.2902778},{"id":3161374,"name":"kyabukamba","country":"zr","lat":-10.5327778,"lon":25.4702778},{"id":365570,"name":"makemani","country":"cd","lat":-10.533333,"lon":24.9},{"id":3159976,"name":"kingamyambo","country":"zr","lat":-10.6605556,"lon":25.3913889},{"id":3158677,"name":"kayembe","country":"zr","lat":-10.5666667,"lon":24.75},{"id":3170368,"name":"tshababa","country":"zr","lat":-10.6333333,"lon":24.55},{"id":363639,"name":"kyala","country":"cd","lat":-10.664444,"lon":25.290278},{"id":3153811,"name":"cipolat","country":"zr","lat":-10.5847222,"lon":25.4458333},{"id":368191,"name":"mulonda-funda","country":"cd","lat":-11.1,"lon":25.466667},{"id":369126,"name":"mwene-kalombe","country":"cd","lat":-10.783333,"lon":24.766667},{"id":359660,"name":"kamimbi","country":"cd","lat":-10.658056,"lon":25.453056},{"id":3154009,"name":"dikepa","country":"zr","lat":-10.6,"lon":24.8666667},{"id":3136861,"name":"caenby","country":"zm","lat":-11.3666667,"lon":25.25},{"id":3139004,"name":"ikungu","country":"zm","lat":-11.4666667,"lon":24.55},{"id":3139608,"name":"kakoma","country":"zm","lat":-11.3,"lon":25.2166667},{"id":3170595,"name":"tshikapula","country":"zr","lat":-10.9333333,"lon":24.9166667},{"id":369261,"name":"namadilo","country":"cd","lat":-11.0,"lon":24.783333},{"id":3153400,"name":"bumbu","country":"zr","lat":-11.0,"lon":25.2333333},{"id":366334,"name":"matoka","country":"cd","lat":-10.933333,"lon":25.466667},{"id":372219,"name":"swana-kafumba","country":"cd","lat":-10.566667,"lon":24.616667},{"id":3166877,"name":"mwene-majamu","country":"zr","lat":-10.8666667,"lon":24.5833333},{"id":3158951,"name":"kiala","country":"zr","lat":-10.65,"lon":25.4333333},{"id":3166340,"name":"musonoi","country":"zr","lat":-10.6833333,"lon":25.4333333},{"id":3165937,"name":"mulongo funga","country":"zr","lat":-11.1,"lon":25.4666667},{"id":366127,"name":"marino","country":"cd","lat":-10.625,"lon":25.417778},{"id":371149,"name":"sakalezi","country":"cd","lat":-10.516667,"lon":24.833333},{"id":3158029,"name":"kasalangani","country":"zr","lat":-10.6666667,"lon":24.55},{"id":371184,"name":"sake","country":"cd","lat":-10.9,"lon":25.166667},{"id":3145009,"name":"mushinshi","country":"zm","lat":-11.3833333,"lon":25.0833333},{"id":3167888,"name":"nzilo i","country":"zr","lat":-10.5,"lon":25.4666667},{"id":3140402,"name":"kanyama","country":"zm","lat":-11.4333333,"lon":24.75},{"id":3158865,"name":"kengere","country":"zr","lat":-11.1666667,"lon":25.4666667},{"id":371902,"name":"shimishi","country":"cd","lat":-10.880278,"lon":25.365278},{"id":361214,"name":"kiala","country":"cd","lat":-10.65,"lon":25.433333},{"id":372220,"name":"swana-malemba","country":"cd","lat":-10.716667,"lon":25.116667},{"id":3156886,"name":"kakwata","country":"zr","lat":-10.6166667,"lon":24.85},{"id":3161387,"name":"kyawimbi","country":"zr","lat":-10.5333333,"lon":25.1833333},{"id":372858,"name":"tshikapula","country":"cd","lat":-10.933333,"lon":24.916667},{"id":361774,"name":"kilawili","country":"cd","lat":-10.916667,"lon":25.15},{"id":3154073,"name":"dingoma","country":"zr","lat":-10.7,"lon":24.5666667},{"id":368616,"name":"musumpwe","country":"cd","lat":-10.874444,"lon":25.250278},{"id":3157346,"name":"kamboyi","country":"zr","lat":-10.6166667,"lon":25.4833333},{"id":371111,"name":"saidi","country":"cd","lat":-10.9,"lon":25.283333},{"id":363650,"name":"kyawimbi","country":"cd","lat":-10.533333,"lon":25.183333},{"id":3156601,"name":"kafupa","country":"zr","lat":-10.9,"lon":25.3},{"id":3144237,"name":"mukate","country":"zm","lat":-11.35,"lon":24.7833333},{"id":3157397,"name":"kamimbi","country":"zr","lat":-10.6580556,"lon":25.4530556},{"id":3140351,"name":"kankunku","country":"zm","lat":-11.2833333,"lon":25.15},{"id":359609,"name":"kamboyi","country":"cd","lat":-10.616667,"lon":25.483333},{"id":356492,"name":"djoni","country":"cd","lat":-10.724444,"lon":25.388056},{"id":3154232,"name":"djori","country":"zr","lat":-10.7552778,"lon":25.3858333},{"id":3170568,"name":"tshifwembe","country":"zr","lat":-10.65,"lon":24.5666667},{"id":373660,"name":"waseka","country":"cd","lat":-10.916667,"lon":25.083333},{"id":3147375,"name":"samanjata","country":"zm","lat":-11.2666667,"lon":25.0666667},{"id":3169036,"name":"samukinda","country":"zr","lat":-10.6533333,"lon":25.4686111},{"id":372655,"name":"tshakamalwa","country":"cd","lat":-10.916667,"lon":25.033333},{"id":3169956,"name":"swana-kafumba","country":"zr","lat":-10.5666667,"lon":24.6166667},{"id":356271,"name":"dikepa","country":"cd","lat":-10.6,"lon":24.866667},{"id":3171901,"name":"yamfwa","country":"zr","lat":-10.85,"lon":24.5666667},{"id":3163714,"name":"manga-manga","country":"zr","lat":-10.8527778,"lon":25.4527778},{"id":363376,"name":"koury","country":"cd","lat":-10.664444,"lon":25.328889},{"id":3160945,"name":"kolwezi","country":"zr","lat":-10.7166667,"lon":25.4725},{"id":358615,"name":"kabisanga","country":"cd","lat":-10.616667,"lon":25.15},{"id":372218,"name":"swana-banza","country":"cd","lat":-10.933333,"lon":24.85},{"id":355662,"name":"bumbu","country":"cd","lat":-11.0,"lon":25.233333},{"id":3168844,"name":"sagastshile","country":"zr","lat":-11.0833333,"lon":25.4666667},{"id":3163259,"name":"makalu","country":"zr","lat":-10.8333333,"lon":25.15},{"id":3168938,"name":"sakwalaha","country":"zr","lat":-11.1833333,"lon":25.3},{"id":360940,"name":"kayembe","country":"cd","lat":-10.566667,"lon":24.75},{"id":3171344,"name":"walemba","country":"zr","lat":-10.6441667,"lon":25.2855556},{"id":3145536,"name":"mwanauti","country":"zm","lat":-11.3,"lon":24.8666667},{"id":3169957,"name":"swana-malemba","country":"zr","lat":-10.7166667,"lon":25.1166667},{"id":365522,"name":"makalu","country":"cd","lat":-10.833333,"lon":25.15},{"id":363637,"name":"kyabukamba","country":"cd","lat":-10.532778,"lon":25.470278},{"id":3163864,"name":"marino","country":"zr","lat":-10.625,"lon":25.4177778},{"id":3146833,"name":"nyamutinta","country":"zm","lat":-11.4166667,"lon":24.8333333},{"id":372910,"name":"tshilembalemba","country":"cd","lat":-10.716667,"lon":24.6},{"id":371148,"name":"sakaleshi","country":"cd","lat":-10.933333,"lon":24.716667},{"id":3170583,"name":"tshikaji","country":"zr","lat":-10.5333333,"lon":24.7666667},{"id":358738,"name":"kabundji","country":"cd","lat":-10.983333,"lon":25.466667},{"id":353418,"name":"beleka","country":"cd","lat":-11.35,"lon":24.533333},{"id":371201,"name":"sakwalaha","country":"cd","lat":-11.183333,"lon":25.3},{"id":372693,"name":"tshantshangombe","country":"cd","lat":-11.183333,"lon":24.566667},{"id":356494,"name":"djori","country":"cd","lat":-10.755278,"lon":25.385833},{"id":370151,"name":"nzilo i","country":"cd","lat":-10.5,"lon":25.466667},{"id":3144005,"name":"mtamga","country":"zm","lat":-11.2833333,"lon":25.0166667},{"id":373138,"name":"tshiwayi","country":"cd","lat":-10.944444,"lon":25.306389},{"id":3169959,"name":"swana-mukanzu","country":"zr","lat":-11.0333333,"lon":25.2666667},{"id":366368,"name":"matunga","country":"cd","lat":-11.033333,"lon":25.016667},{"id":3139192,"name":"jimbamba","country":"zm","lat":-11.2666667,"lon":25.0833333},{"id":3145263,"name":"muwana","country":"zm","lat":-11.3833333,"lon":24.6666667},{"id":361231,"name":"kiambele","country":"cd","lat":-11.316667,"lon":25.45},{"id":3138139,"name":"chipoto","country":"zm","lat":-11.3,"lon":25.2666667},{"id":3153802,"name":"casimiri","country":"zr","lat":-10.8,"lon":25.0833333},{"id":368890,"name":"mwalikoma","country":"cd","lat":-11.116667,"lon":24.6},{"id":356064,"name":"casimiri","country":"cd","lat":-10.8,"lon":25.083333},{"id":3170875,"name":"tshiwayi","country":"zr","lat":-10.9444444,"lon":25.3063889},{"id":3163185,"name":"magasin","country":"zr","lat":-10.6327778,"lon":25.2588889},{"id":3157891,"name":"kapenda","country":"zr","lat":-10.55,"lon":24.75},{"id":3142612,"name":"makapu","country":"zm","lat":-11.2833333,"lon":25.1833333},{"id":3147507,"name":"samuwana","country":"zm","lat":-11.4333333,"lon":24.8},{"id":368745,"name":"mutuila","country":"cd","lat":-10.683333,"lon":24.55},{"id":359877,"name":"kanema","country":"cd","lat":-10.866667,"lon":24.766667},{"id":363208,"name":"kolwezi","country":"cd","lat":-10.716667,"lon":25.4725},{"id":360054,"name":"kanuki","country":"cd","lat":-10.85,"lon":25.25},{"id":3162735,"name":"lumpande","country":"zr","lat":-10.5333333,"lon":25.2166667},{"id":372831,"name":"tshifwembe","country":"cd","lat":-10.65,"lon":24.566667},{"id":368376,"name":"munolenze","country":"cd","lat":-10.8,"lon":25.3},{"id":373142,"name":"tshiwilu","country":"cd","lat":-10.95,"lon":24.933333},{"id":3170879,"name":"tshiwilu","country":"zr","lat":-10.95,"lon":24.9333333},{"id":3157817,"name":"kanzenze","country":"zr","lat":-10.5166667,"lon":25.2},{"id":371905,"name":"shinamwezi","country":"cd","lat":-10.7,"lon":24.566667},{"id":372846,"name":"tshikaji","country":"cd","lat":-10.533333,"lon":24.766667},{"id":3158110,"name":"kasekalesa","country":"zr","lat":-10.65,"lon":24.9333333},{"id":3155772,"name":"ilunga","country":"zr","lat":-10.7513889,"lon":25.3697222},{"id":3166631,"name":"mwalula","country":"zr","lat":-10.9833333,"lon":25.4666667}]});