callback({"markets":[{"id":2534168,"name":"tatarskiy taymobash","country":"ru","lat":56.216214,"lon":52.482094},{"id":2377001,"name":"bolshoye almetyevo","country":"ru","lat":55.886188,"lon":51.734579},{"id":2424080,"name":"klyuch truda","country":"ru","lat":55.5277,"lon":51.8661},{"id":2370136,"name":"belous","country":"ru","lat":55.857,"lon":52.4776},{"id":2467752,"name":"nikolskaya vala","country":"ru","lat":56.255845,"lon":52.058021},{"id":2469552,"name":"nizhniye yurashi","country":"ru","lat":55.9693,"lon":51.7746},{"id":2412204,"name":"kamennoye","country":"ru","lat":56.037247,"lon":52.020458},{"id":2423078,"name":"kizner","country":"ru","lat":56.274888,"lon":51.507996},{"id":2457197,"name":"melekes","country":"ru","lat":55.592856,"lon":52.177205},{"id":2463498,"name":"musabay-zavod","country":"ru","lat":55.510626,"lon":52.402844},{"id":2532205,"name":"syugi-kaksya","country":"ru","lat":56.447987,"lon":52.009886},{"id":2559803,"name":"yadygar","country":"ru","lat":55.8675,"lon":51.7616},{"id":2477410,"name":"novyy multan","country":"ru","lat":56.408667,"lon":51.736311},{"id":2403250,"name":"grakhovo","country":"ru","lat":56.05017,"lon":51.967584},{"id":2382077,"name":"burdy","country":"ru","lat":55.514088,"lon":52.292609},{"id":2522594,"name":"sosmak","country":"ru","lat":56.284012,"lon":51.912812},{"id":2548813,"name":"vasilyevo","country":"ru","lat":56.234382,"lon":51.798958},{"id":2508383,"name":"sarsaz-bli","country":"ru","lat":55.5337,"lon":51.7894},{"id":2494679,"name":"porym","country":"ru","lat":56.003752,"lon":51.982994},{"id":2448926,"name":"lyuga","country":"ru","lat":56.432734,"lon":51.946801},{"id":2382076,"name":"burdybash","country":"ru","lat":55.5127,"lon":52.3392},{"id":2493651,"name":"polyana","country":"ru","lat":56.366667,"lon":52.216667},{"id":2534108,"name":"tatarskiye chelny","country":"ru","lat":55.859573,"lon":52.222142},{"id":2469797,"name":"nizhniy russkiy kuyuk","country":"ru","lat":56.066667,"lon":51.8},{"id":2551772,"name":"verkhniy kokshan","country":"ru","lat":56.113256,"lon":52.124194},{"id":2377954,"name":"bolshoye yelovo","country":"ru","lat":55.792373,"lon":51.562471},{"id":2380854,"name":"bryushli","country":"ru","lat":55.926011,"lon":51.965122},{"id":2375770,"name":"bolshaya yeryksa","country":"ru","lat":56.024625,"lon":52.205448},{"id":2434746,"name":"kreshchenoye mazino","country":"ru","lat":55.5986,"lon":52.3089},{"id":2464280,"name":"naberezhnyye chelny","country":"ru","lat":55.725451,"lon":52.411221},{"id":2478101,"name":"nynek","country":"ru","lat":56.224008,"lon":51.949133},{"id":2374362,"name":"bolchikly","country":"ru","lat":55.553148,"lon":51.819597},{"id":2493614,"name":"polyakovo","country":"ru","lat":56.176546,"lon":51.880832},{"id":2532534,"name":"tagil","country":"ru","lat":56.0,"lon":51.5},{"id":2405415,"name":"gusevka","country":"ru","lat":55.8146,"lon":52.1996},{"id":2527523,"name":"staryy shurnyak","country":"ru","lat":55.883333,"lon":51.566667},{"id":2470183,"name":"nizhnyaya kiznerka","country":"ru","lat":56.45681,"lon":51.724703},{"id":2404523,"name":"gruzdlevka","country":"ru","lat":55.85,"lon":51.9},{"id":2557589,"name":"voznesenskiy","country":"ru","lat":56.216667,"lon":52.366667},{"id":2378401,"name":"bolshoy shurnyak","country":"ru","lat":55.882737,"lon":51.565824},{"id":2415469,"name":"katekshur","country":"ru","lat":56.333333,"lon":52.133333},{"id":2527158,"name":"staryye kopki","country":"ru","lat":56.461089,"lon":51.636554},{"id":2522855,"name":"sosnovyy yurash","country":"ru","lat":55.9316,"lon":51.7524},{"id":2470055,"name":"nizhnyaya chabya","country":"ru","lat":56.3,"lon":51.533333},{"id":2387290,"name":"chirshi","country":"ru","lat":55.707986,"lon":51.510892},{"id":2449816,"name":"maksimkovo","country":"ru","lat":55.9524,"lon":52.3488},{"id":2416466,"name":"kazyli","country":"ru","lat":55.7046,"lon":51.6311},{"id":2421729,"name":"kinyagil","country":"ru","lat":56.392915,"lon":52.236186},{"id":2571301,"name":"zhirnovskiy kordon","country":"ru","lat":56.133333,"lon":51.916667},{"id":2525100,"name":"staraya murzikha","country":"ru","lat":55.7358,"lon":51.6448},{"id":2379315,"name":"borok","country":"ru","lat":55.546949,"lon":51.679132},{"id":2454851,"name":"mari-vozzhay","country":"ru","lat":56.012568,"lon":52.109393},{"id":2368682,"name":"baydankino","country":"ru","lat":55.51617,"lon":51.695662},{"id":2361641,"name":"ananino","country":"ru","lat":55.7286,"lon":52.1226},{"id":2446120,"name":"loloshur-vozzhi","country":"ru","lat":55.997254,"lon":51.772515},{"id":2527353,"name":"staryy karmyzh","country":"ru","lat":56.175963,"lon":51.841498},{"id":2562371,"name":"yekaberdino","country":"ru","lat":55.97929,"lon":52.327999},{"id":2406821,"name":"ilinskaya","country":"ru","lat":56.156423,"lon":52.267309},{"id":2542795,"name":"udmurtskoye gondyrevo","country":"ru","lat":56.121455,"lon":52.248828},{"id":2407034,"name":"ilnet","country":"ru","lat":56.014859,"lon":52.238942},{"id":2366275,"name":"bakcha-saray","country":"ru","lat":55.5528,"lon":52.086},{"id":2357854,"name":"abalach","country":"ru","lat":55.9378,"lon":52.045696},{"id":2406646,"name":"ilichevskiy","country":"ru","lat":55.852,"lon":52.4168},{"id":2527579,"name":"staryy utchan","country":"ru","lat":56.164335,"lon":52.339435},{"id":2508078,"name":"saramak udmurtskiy","country":"ru","lat":56.027984,"lon":51.559351},{"id":2416877,"name":"kerekes","country":"ru","lat":55.5122,"lon":51.9849},{"id":2534220,"name":"tatarskoye tekashevo","country":"ru","lat":55.9623,"lon":52.4391},{"id":2522093,"name":"solyanur","country":"ru","lat":56.051468,"lon":51.726385},{"id":2517854,"name":"siby russkiye","country":"ru","lat":56.3,"lon":52.2},{"id":2490707,"name":"pocheshur-kaksi","country":"ru","lat":56.344321,"lon":52.186263},{"id":2527125,"name":"staryye kaksi","country":"ru","lat":56.264857,"lon":52.257823},{"id":2526760,"name":"staroye utyaganovo","country":"ru","lat":55.905498,"lon":51.828671},{"id":2508199,"name":"saraykino","country":"ru","lat":55.9136,"lon":51.7845},{"id":2552872,"name":"verkhnyaya tyzhma","country":"ru","lat":56.301925,"lon":51.771741},{"id":2475913,"name":"novoye grishkino","country":"ru","lat":55.9829,"lon":51.9597},{"id":2515644,"name":"shingalchi","country":"ru","lat":55.513462,"lon":51.821029},{"id":2406741,"name":"ilinka","country":"ru","lat":55.6433,"lon":51.7247},{"id":2363742,"name":"arkhangelskoye","country":"ru","lat":55.988296,"lon":52.02405},{"id":2533712,"name":"tarlovka","country":"ru","lat":55.716667,"lon":52.3},{"id":2376692,"name":"bolshiye siby","country":"ru","lat":56.333774,"lon":52.247607},{"id":2472014,"name":"novaya yeykla","country":"ru","lat":55.555304,"lon":52.133462},{"id":2375385,"name":"bolshaya pudga","country":"ru","lat":56.48694,"lon":52.112372},{"id":2454622,"name":"mari-gondyrevo","country":"ru","lat":56.104143,"lon":52.249736},{"id":2504894,"name":"russkiye adam-uchi","country":"ru","lat":56.079745,"lon":52.051134},{"id":2463064,"name":"munayka","country":"ru","lat":55.891635,"lon":52.257014},{"id":2537206,"name":"tokmashka","country":"ru","lat":55.7773,"lon":51.6182},{"id":2552018,"name":"verkhniy shurnyak","country":"ru","lat":55.8595,"lon":51.603},{"id":2560201,"name":"yakovlevo","country":"ru","lat":55.743606,"lon":51.558489},{"id":2398599,"name":"gari","country":"ru","lat":55.869236,"lon":52.026078},{"id":2374958,"name":"bolshaya kachka","country":"ru","lat":55.819389,"lon":51.959931},{"id":2568335,"name":"zarechnyy","country":"ru","lat":56.031421,"lon":51.887336},{"id":2361107,"name":"alnashi","country":"ru","lat":56.187378,"lon":52.479185},{"id":2551972,"name":"verkhniy russkiy kuyuk","country":"ru","lat":56.080163,"lon":51.781519},{"id":2423019,"name":"kizelovo-udmurtskoye","country":"ru","lat":56.116667,"lon":52.466667},{"id":2531781,"name":"syam-kaksi","country":"ru","lat":56.256047,"lon":52.352727},{"id":2364510,"name":"asiner","country":"ru","lat":56.408376,"lon":51.662306},{"id":2527603,"name":"staryy zakamskiy","country":"ru","lat":55.5603,"lon":51.528},{"id":2531403,"name":"svinogorye","country":"ru","lat":55.60884,"lon":51.554131},{"id":2423822,"name":"klyatle","country":"ru","lat":55.5429,"lon":51.8518},{"id":2521256,"name":"sokolki pristan","country":"ru","lat":55.545466,"lon":51.508483},{"id":2476986,"name":"novyye kopki","country":"ru","lat":56.45,"lon":51.6},{"id":2379395,"name":"borovetskoye","country":"ru","lat":55.775463,"lon":52.425427},{"id":2517491,"name":"shuril","country":"ru","lat":56.241485,"lon":52.265775},{"id":2471608,"name":"novaya oshmest","country":"ru","lat":56.351909,"lon":52.088949},{"id":2385211,"name":"cherenga","country":"ru","lat":55.676261,"lon":51.508763},{"id":2452673,"name":"maltsevo","country":"ru","lat":55.746242,"lon":52.174689},{"id":2544145,"name":"umyak","country":"ru","lat":55.927503,"lon":51.530451},{"id":2368939,"name":"bayteryakovo","country":"ru","lat":56.079555,"lon":52.426777},{"id":2562545,"name":"yelabuga","country":"ru","lat":55.761274,"lon":52.064931},{"id":2438543,"name":"kurakovo","country":"ru","lat":55.983784,"lon":52.358299},{"id":2440725,"name":"kuznetsovo","country":"ru","lat":55.933333,"lon":51.9},{"id":2426196,"name":"koltymak","country":"ru","lat":56.184336,"lon":52.244583},{"id":2376983,"name":"bolshoye afanasovo","country":"ru","lat":55.605414,"lon":51.776854},{"id":2447090,"name":"ludzi-shudzi","country":"ru","lat":56.455805,"lon":52.444309},{"id":2542675,"name":"udalovo","country":"ru","lat":55.883333,"lon":51.883333},{"id":2365287,"name":"avtozavodskiy rayon","country":"ru","lat":55.7,"lon":52.316667},{"id":2507228,"name":"saltykovka","country":"ru","lat":55.8392,"lon":52.247},{"id":2426822,"name":"komsomolets","country":"ru","lat":55.5842,"lon":52.4895},{"id":2359835,"name":"alan","country":"ru","lat":55.5778,"lon":51.8489},{"id":2415048,"name":"kashayevo","country":"ru","lat":55.5062,"lon":51.85},{"id":2372485,"name":"biklyan","country":"ru","lat":55.5918,"lon":51.9742},{"id":2536192,"name":"tikhonovo","country":"ru","lat":55.804014,"lon":52.235191},{"id":2534136,"name":"tatarskiy kokshan","country":"ru","lat":56.030734,"lon":52.273835},{"id":2402228,"name":"gornyye yurashi","country":"ru","lat":55.9471,"lon":51.7461},{"id":2448047,"name":"lvovskiy","country":"ru","lat":56.347215,"lon":51.579628},{"id":2487265,"name":"pervomayskoye","country":"ru","lat":55.766667,"lon":52.116667},{"id":2421737,"name":"kinyaus","country":"ru","lat":56.345393,"lon":52.03617},{"id":2529095,"name":"studenyy klyuch","country":"ru","lat":55.766667,"lon":51.983333},{"id":2454880,"name":"mariyskoye tekashevo","country":"ru","lat":55.97,"lon":52.422},{"id":2515464,"name":"shilnebash","country":"ru","lat":55.641222,"lon":52.494263},{"id":2366860,"name":"baldeyka","country":"ru","lat":56.20308,"lon":51.531683},{"id":2375513,"name":"bolshaya shilna","country":"ru","lat":55.793309,"lon":52.478287},{"id":2398504,"name":"garankino","country":"ru","lat":55.9722,"lon":52.1612},{"id":2462629,"name":"mozhga","country":"ru","lat":56.374511,"lon":52.255426},{"id":2445632,"name":"lnozavod","country":"ru","lat":56.45,"lon":52.3},{"id":2526981,"name":"staryy argabash","country":"ru","lat":56.168973,"lon":51.640676},{"id":2494602,"name":"porshur","country":"ru","lat":56.025128,"lon":51.705762},{"id":2406949,"name":"ilkino","country":"ru","lat":55.9379,"lon":52.2197},{"id":2541799,"name":"tuzmo-chabya","country":"ru","lat":56.200269,"lon":51.599481},{"id":2369375,"name":"bekhterevo","country":"ru","lat":55.832147,"lon":52.118848},{"id":2563026,"name":"yelkibayevo","country":"ru","lat":56.036593,"lon":52.436549},{"id":2438724,"name":"kureggurt","country":"ru","lat":56.45,"lon":52.216667},{"id":2527401,"name":"staryy kuklyuk","country":"ru","lat":55.907229,"lon":51.598572},{"id":2527008,"name":"staryy berezek","country":"ru","lat":56.33239,"lon":52.440659},{"id":2559836,"name":"yagi-kaksi","country":"ru","lat":56.091788,"lon":51.951946},{"id":2562048,"name":"yefemovskiy","country":"ru","lat":56.392013,"lon":52.134063},{"id":2515472,"name":"shilninskiy zavod","country":"ru","lat":55.7852,"lon":52.4214},{"id":2533909,"name":"tashlyk","country":"ru","lat":55.500697,"lon":51.806134},{"id":2525358,"name":"staraya yumya","country":"ru","lat":56.032348,"lon":52.374135},{"id":2542003,"name":"tylovay russkiy","country":"ru","lat":56.052881,"lon":52.141515},{"id":2527061,"name":"staryye armaly","country":"ru","lat":55.7856,"lon":51.7725},{"id":2443012,"name":"lekarevo","country":"ru","lat":55.784111,"lon":51.81491},{"id":2386765,"name":"chezhest-kaksi","country":"ru","lat":56.3599,"lon":52.372805},{"id":2480841,"name":"orlokova","country":"ru","lat":55.724697,"lon":52.371762},{"id":2449339,"name":"makarovka","country":"ru","lat":56.163925,"lon":52.079859},{"id":2457891,"name":"meshcheryakovo","country":"ru","lat":55.986777,"lon":51.73109},{"id":2438416,"name":"kuperle","country":"ru","lat":55.572212,"lon":52.40914},{"id":2375609,"name":"bolshaya tarlovka","country":"ru","lat":55.798295,"lon":52.013217},{"id":2477411,"name":"novyy musabay","country":"ru","lat":55.5589,"lon":52.2229},{"id":2457552,"name":"mendeleyevsk","country":"ru","lat":55.908185,"lon":52.290472},{"id":2551595,"name":"verkhniye suksy","country":"ru","lat":55.59486,"lon":52.272403},{"id":2440947,"name":"kvatchi","country":"ru","lat":56.396632,"lon":52.365691},{"id":2527307,"name":"staryye yuberi","country":"ru","lat":56.290057,"lon":52.30794},{"id":2365387,"name":"ayduan-chabya","country":"ru","lat":56.207584,"lon":51.670601},{"id":2533138,"name":"tanayka","country":"ru","lat":55.740755,"lon":51.914513},{"id":2364492,"name":"ashpaykovo","country":"ru","lat":55.9522,"lon":52.3195},{"id":2365248,"name":"avlash","country":"ru","lat":55.545448,"lon":52.011873},{"id":2431676,"name":"kozmodemyansk","country":"ru","lat":55.967697,"lon":51.9138},{"id":2433762,"name":"krasnyye chelny","country":"ru","lat":55.7,"lon":52.35},{"id":2554538,"name":"vishur","country":"ru","lat":56.199229,"lon":51.908173},{"id":2483725,"name":"pakshur","country":"ru","lat":56.466667,"lon":52.05},{"id":2476761,"name":"novyy biklyan","country":"ru","lat":55.6244,"lon":52.1753},{"id":2412133,"name":"kamennaya gora","country":"ru","lat":56.283384,"lon":51.823292},{"id":2469937,"name":"nizhniy vishur","country":"ru","lat":56.406004,"lon":52.309206},{"id":2469657,"name":"nizhniy kuklyuk","country":"ru","lat":55.9305,"lon":51.5941},{"id":2361109,"name":"alnetsk","country":"ru","lat":56.316667,"lon":52.133333},{"id":2508233,"name":"sardan","country":"ru","lat":56.412927,"lon":52.067488},{"id":2459785,"name":"mishkino","country":"ru","lat":55.9254,"lon":52.086},{"id":2368764,"name":"baygulovo","country":"ru","lat":55.503564,"lon":51.721574},{"id":2449256,"name":"makan-pelga","country":"ru","lat":56.15363,"lon":51.836557},{"id":2477184,"name":"novyye yuberi","country":"ru","lat":56.301921,"lon":52.336676},{"id":2508077,"name":"saramak mari","country":"ru","lat":56.033333,"lon":51.583333},{"id":2501605,"name":"razzhivino","country":"ru","lat":55.866667,"lon":51.916667},{"id":2564545,"name":"yevlevo","country":"ru","lat":55.5199,"lon":52.2366},{"id":2527463,"name":"staryy oshmes","country":"ru","lat":56.364761,"lon":52.087172},{"id":2441667,"name":"laka-tyzhma","country":"ru","lat":56.263345,"lon":51.524863},{"id":2430134,"name":"kosteneyevo","country":"ru","lat":55.698933,"lon":51.595811},{"id":2368571,"name":"batyrevo","country":"ru","lat":55.9459,"lon":51.68},{"id":2527598,"name":"staryy yurash","country":"ru","lat":55.908292,"lon":51.733213},{"id":2372422,"name":"bigbay","country":"ru","lat":56.366667,"lon":52.283333},{"id":2459773,"name":"mishka ovrag","country":"ru","lat":55.919,"lon":51.6016},{"id":2363340,"name":"aravaz-pelga","country":"ru","lat":56.201196,"lon":51.832754},{"id":2411927,"name":"kamayevo","country":"ru","lat":56.006379,"lon":52.332253},{"id":2361052,"name":"almaly","country":"ru","lat":55.5054,"lon":52.1783},{"id":2374832,"name":"bolshaya dubovka","country":"ru","lat":56.483333,"lon":52.2},{"id":2461925,"name":"morty","country":"ru","lat":55.811206,"lon":51.724047},{"id":2467084,"name":"nikashnovka","country":"ru","lat":55.5598,"lon":52.0732},{"id":2517501,"name":"shurkale","country":"ru","lat":55.556337,"lon":52.436462},{"id":2557672,"name":"vozzhayka","country":"ru","lat":56.149534,"lon":52.143419},{"id":2520873,"name":"sobolevo","country":"ru","lat":55.6608,"lon":51.8111},{"id":2468964,"name":"nizhneye kotnyrevo","country":"ru","lat":56.10792,"lon":52.401567},{"id":2567682,"name":"zamostnyye kaksi","country":"ru","lat":56.272257,"lon":52.246028},{"id":2564934,"name":"yudruk","country":"ru","lat":56.322359,"lon":52.324211},{"id":2453939,"name":"mamayevo","country":"ru","lat":55.9728,"lon":51.8491},{"id":2550825,"name":"verkhneye alnashi","country":"ru","lat":56.207411,"lon":52.413222},{"id":2418855,"name":"khlystovo","country":"ru","lat":55.803457,"lon":51.965542},{"id":2372592,"name":"bilyar","country":"ru","lat":56.213693,"lon":52.182946},{"id":2440039,"name":"kuvady","country":"ru","lat":55.580554,"lon":52.298109},{"id":2394895,"name":"dyum-dyum-tatarskiy","country":"ru","lat":55.851523,"lon":51.556236},{"id":2389392,"name":"davkino","country":"ru","lat":56.240802,"lon":51.912337},{"id":2451764,"name":"maloye afanasovo","country":"ru","lat":55.595206,"lon":51.739959},{"id":2468002,"name":"nikoshnovka","country":"ru","lat":55.564661,"lon":52.05165},{"id":2557295,"name":"votskiy yurash","country":"ru","lat":55.975,"lon":51.7441},{"id":2513516,"name":"shaytanovo","country":"ru","lat":55.866667,"lon":52.333333},{"id":2507878,"name":"sannikovo","country":"ru","lat":56.231739,"lon":52.185433},{"id":2477575,"name":"novyy russkiy syugail","country":"ru","lat":56.422676,"lon":52.120406},{"id":2425986,"name":"kolosovka","country":"ru","lat":55.774294,"lon":51.937806},{"id":2542800,"name":"udmurt-vozzhay","country":"ru","lat":55.9969,"lon":52.0575},{"id":2447267,"name":"lugovoy","country":"ru","lat":55.7091,"lon":52.1539},{"id":2388058,"name":"chulya","country":"ru","lat":56.449822,"lon":51.83396},{"id":2565386,"name":"yuri-kaksi","country":"ru","lat":56.25,"lon":52.35},{"id":2542789,"name":"udmurtskiy taymobash","country":"ru","lat":56.259345,"lon":52.46113},{"id":2408622,"name":"ishteryakovo","country":"ru","lat":55.53616,"lon":51.952035},{"id":2513074,"name":"sharberda","country":"ru","lat":55.9667,"lon":51.6016},{"id":2368954,"name":"baytuganovo","country":"ru","lat":55.953,"lon":52.2281},{"id":2520836,"name":"sobolekovo","country":"ru","lat":55.637401,"lon":51.886282},{"id":2552383,"name":"verkhnyaya igra","country":"ru","lat":55.950031,"lon":52.10413},{"id":2508312,"name":"sarkuz","country":"ru","lat":56.389987,"lon":51.688089},{"id":2388630,"name":"chyabya","country":"ru","lat":55.6373,"lon":51.8412},{"id":2530315,"name":"suntsovo","country":"ru","lat":56.473887,"lon":52.077503},{"id":2414424,"name":"karmankovo","country":"ru","lat":55.9481,"lon":52.2891},{"id":2513210,"name":"sharshada","country":"ru","lat":56.241407,"lon":52.410381},{"id":2468537,"name":"nizhnekamskiy","country":"ru","lat":55.636571,"lon":51.824474},{"id":2386764,"name":"chezhebash","country":"ru","lat":56.370024,"lon":52.449192},{"id":2410679,"name":"kadikovo","country":"ru","lat":56.126908,"lon":52.408707},{"id":2376174,"name":"bolshiye armaly","country":"ru","lat":55.775459,"lon":51.765083},{"id":2548194,"name":"varali","country":"ru","lat":56.072437,"lon":52.294162},{"id":2476091,"name":"novoye minkino","country":"ru","lat":55.5457,"lon":51.6391},{"id":2527306,"name":"staryye yerykly","country":"ru","lat":55.6225,"lon":52.2412},{"id":2530524,"name":"surovka","country":"ru","lat":55.6281,"lon":52.3866},{"id":2524239,"name":"sredniy syryan","country":"ru","lat":56.189176,"lon":52.049368},{"id":2496236,"name":"pozoyelevo","country":"ru","lat":55.776191,"lon":52.224646},{"id":2426941,"name":"komyak","country":"ru","lat":56.325465,"lon":51.974157},{"id":2451653,"name":"malorechinskiy","country":"ru","lat":55.826,"lon":51.8666},{"id":2375041,"name":"bolshaya klyuchevka","country":"ru","lat":56.183333,"lon":52.166667},{"id":2532207,"name":"syuginskiy","country":"ru","lat":56.444694,"lon":52.227628},{"id":2441002,"name":"kydach","country":"ru","lat":56.461689,"lon":51.910246},{"id":2551489,"name":"verkhniye kvatchi","country":"ru","lat":56.4,"lon":52.4},{"id":2524950,"name":"staraya igra","country":"ru","lat":55.9331,"lon":52.1474},{"id":2537091,"name":"toima","country":"ru","lat":56.011104,"lon":52.39318},{"id":2365455,"name":"aytalon","country":"ru","lat":55.823877,"lon":51.552426},{"id":2411322,"name":"kalinino","country":"ru","lat":55.5548,"lon":52.1635},{"id":2551554,"name":"verkhniye pinyachi","country":"ru","lat":55.5032,"lon":52.1116},{"id":2510907,"name":"sentyak","country":"ru","lat":55.703825,"lon":51.716324},{"id":2440256,"name":"kuyuk","country":"ru","lat":55.8724,"lon":51.7831},{"id":2442694,"name":"lebedevka","country":"ru","lat":56.024843,"lon":51.897448},{"id":2424316,"name":"knyazhevo","country":"ru","lat":55.9356,"lon":51.6651},{"id":2564146,"name":"yeroshkino","country":"ru","lat":56.235867,"lon":51.991941},{"id":2433706,"name":"krasnyy bor","country":"ru","lat":55.5486,"lon":51.6119},{"id":2527560,"name":"staryy tryk","country":"ru","lat":56.357481,"lon":51.545626},{"id":2364844,"name":"atiaz","country":"ru","lat":55.951647,"lon":51.635302},{"id":2359250,"name":"akhtuba","country":"ru","lat":55.622976,"lon":51.825081},{"id":2542788,"name":"udmurtskiy syugail","country":"ru","lat":56.413532,"lon":52.171918},{"id":2497954,"name":"prosti","country":"ru","lat":55.654806,"lon":51.963497},{"id":2370714,"name":"bemyzh","country":"ru","lat":56.146175,"lon":51.716958},{"id":2477762,"name":"novyy zakamskiy","country":"ru","lat":55.5517,"lon":51.5412},{"id":2517939,"name":"sidorovka","country":"ru","lat":55.654228,"lon":52.328156},{"id":2555753,"name":"volodar-mozhga","country":"ru","lat":56.416667,"lon":52.333333},{"id":2385358,"name":"cherkasovo","country":"ru","lat":55.887498,"lon":51.631248},{"id":2446958,"name":"lubyanka","country":"ru","lat":56.133333,"lon":51.666667},{"id":2511729,"name":"setyakovo","country":"ru","lat":55.944748,"lon":52.398006},{"id":2524047,"name":"sredneye utyaganovo","country":"ru","lat":55.933333,"lon":51.85},{"id":2527590,"name":"staryy yagul","country":"ru","lat":56.370425,"lon":51.628953},{"id":2551261,"name":"verkhniy bemyzh","country":"ru","lat":56.227549,"lon":51.715291},{"id":2372874,"name":"bizyaki","country":"ru","lat":55.928814,"lon":52.450932},{"id":2524374,"name":"srednyaya tyzhma","country":"ru","lat":56.294086,"lon":51.677033},{"id":2435653,"name":"krugloye pole","country":"ru","lat":55.654548,"lon":52.177057},{"id":2527449,"name":"staryy multan","country":"ru","lat":56.420593,"lon":51.770318},{"id":2369055,"name":"bazhenikha","country":"ru","lat":55.965052,"lon":51.511446},{"id":2527303,"name":"staryye yatchi","country":"ru","lat":56.000838,"lon":51.658746},{"id":2471531,"name":"novaya murzikha","country":"ru","lat":55.739547,"lon":51.668465},{"id":2526398,"name":"staroye grishkino","country":"ru","lat":55.940208,"lon":52.260685},{"id":2455326,"name":"martysh","country":"ru","lat":55.5532,"lon":51.9643},{"id":2477726,"name":"novyy utchan","country":"ru","lat":56.167017,"lon":52.381042},{"id":2372954,"name":"blagodatnoye","country":"ru","lat":55.9957,"lon":51.8678},{"id":2405486,"name":"gushchino","country":"ru","lat":56.38337,"lon":52.342996},{"id":2468350,"name":"nizheye asanovo","country":"ru","lat":56.088303,"lon":52.497173},{"id":2475326,"name":"novotroitskaya","country":"ru","lat":56.265873,"lon":51.766186},{"id":2360188,"name":"aleksandrovo","country":"ru","lat":56.318572,"lon":52.357908},{"id":2469507,"name":"nizhniye suyksu","country":"ru","lat":55.612878,"lon":52.293223},{"id":2473070,"name":"novogorskoye","country":"ru","lat":56.077668,"lon":52.173812}]});