callback({"markets":[{"id":2852968,"name":"kibohehe","country":"tz","lat":-3.3,"lon":37.2},{"id":2851658,"name":"engare nairobi","country":"tz","lat":-3.05,"lon":37.0},{"id":2850899,"name":"arusha","country":"tz","lat":-3.3666667,"lon":36.6833333},{"id":2854201,"name":"lariboro","country":"tz","lat":-2.9833333,"lon":36.7},{"id":2853056,"name":"kidia","country":"tz","lat":-3.3,"lon":37.4},{"id":2858141,"name":"shiri","country":"tz","lat":-3.3333333,"lon":37.2666667},{"id":2853543,"name":"kirua","country":"tz","lat":-3.3,"lon":37.4666667},{"id":2855398,"name":"mdawi","country":"tz","lat":-3.3,"lon":37.4166667},{"id":2857658,"name":"olturoto","country":"tz","lat":-3.3333333,"lon":36.6833333},{"id":2854208,"name":"lekuruki","country":"tz","lat":-3.25,"lon":36.9666667},{"id":2858372,"name":"tinga tinga","country":"tz","lat":-2.9833333,"lon":36.9666667},{"id":2857655,"name":"ol molog","country":"tz","lat":-2.8666667,"lon":37.1333333},{"id":2854092,"name":"kware","country":"tz","lat":-3.2833333,"lon":37.15},{"id":2856072,"name":"mowo","country":"tz","lat":-3.3,"lon":37.45},{"id":2853544,"name":"kirua vunjo","country":"tz","lat":-3.3333333,"lon":37.45},{"id":2854519,"name":"mabire","country":"tz","lat":-3.2666667,"lon":37.2166667},{"id":2854497,"name":"lyamungu","country":"tz","lat":-3.25,"lon":37.2333333},{"id":2858780,"name":"weru weru","country":"tz","lat":-3.3166667,"lon":37.25},{"id":2856909,"name":"namro","country":"tz","lat":-3.2666667,"lon":37.4},{"id":2854325,"name":"longido","country":"tz","lat":-2.7333333,"lon":36.6833333},{"id":2850928,"name":"baloti","country":"tz","lat":-3.25,"lon":37.1166667},{"id":2857079,"name":"nduruma chini","country":"tz","lat":-3.4833333,"lon":36.8},{"id":1548876,"name":"namanga","country":"ke","lat":-2.55,"lon":36.7833333},{"id":2858202,"name":"sinya","country":"tz","lat":-2.7833333,"lon":37.0333333},{"id":2855030,"name":"masama","country":"tz","lat":-3.2333333,"lon":37.1833333},{"id":2856066,"name":"moschi","country":"tz","lat":-3.35,"lon":37.3333333},{"id":2852982,"name":"kibongoto","country":"tz","lat":-3.1833333,"lon":37.1},{"id":2854888,"name":"mandaka","country":"tz","lat":-3.4333333,"lon":37.4},{"id":2857130,"name":"ngateu","country":"tz","lat":-3.3333333,"lon":36.65},{"id":2854540,"name":"machame","country":"tz","lat":-3.2,"lon":37.2333333},{"id":2851747,"name":"ghombon","country":"tz","lat":-3.25,"lon":37.4833333},{"id":2855154,"name":"maua","country":"tz","lat":-3.3,"lon":37.4833333},{"id":1546669,"name":"amboseli","country":"ke","lat":-2.6666667,"lon":37.2833333},{"id":2853880,"name":"komakya","country":"tz","lat":-3.3166667,"lon":37.4333333},{"id":2857124,"name":"ngare nanyuki","country":"tz","lat":-3.15,"lon":36.85},{"id":2855004,"name":"marombosa","country":"tz","lat":-3.3666667,"lon":36.6666667},{"id":2855865,"name":"mkulat","country":"tz","lat":-3.3166667,"lon":36.5666667},{"id":2858605,"name":"usa","country":"tz","lat":-3.3666667,"lon":36.85},{"id":2858587,"name":"uru east","country":"tz","lat":-3.2833333,"lon":37.3833333},{"id":2858279,"name":"sungate","country":"tz","lat":-3.0166667,"lon":36.75},{"id":2857657,"name":"olmotonyi","country":"tz","lat":-3.3166667,"lon":36.6333333},{"id":2858591,"name":"uru","country":"tz","lat":-3.2833333,"lon":37.35},{"id":2853460,"name":"kioga","country":"tz","lat":-3.35,"lon":36.6833333},{"id":2854212,"name":"lemira","country":"tz","lat":-3.2,"lon":37.15},{"id":2851645,"name":"emaoi","country":"tz","lat":-3.3166667,"lon":36.65},{"id":2856189,"name":"msaranga","country":"tz","lat":-3.3333333,"lon":37.3666667},{"id":2858225,"name":"sokon","country":"tz","lat":-3.3666667,"lon":36.7},{"id":2857769,"name":"poli","country":"tz","lat":-3.3333333,"lon":36.8},{"id":2858454,"name":"tuvaila","country":"tz","lat":-3.3666667,"lon":36.9},{"id":2850950,"name":"barangata","country":"tz","lat":-3.1833333,"lon":37.25},{"id":2852983,"name":"kibosho","country":"tz","lat":-3.25,"lon":37.3166667},{"id":2851655,"name":"endoinet","country":"tz","lat":-2.9166667,"lon":37.4333333},{"id":2858040,"name":"sanya juu","country":"tz","lat":-3.1833333,"lon":37.0666667},{"id":2851020,"name":"boma ya ngombe","country":"tz","lat":-3.3333333,"lon":37.15},{"id":2857291,"name":"nkoanrua","country":"tz","lat":-3.35,"lon":36.7666667},{"id":2852712,"name":"karangai","country":"tz","lat":-3.4833333,"lon":36.8666667},{"id":2856858,"name":"namanga","country":"tz","lat":-2.55,"lon":36.7666667},{"id":2853421,"name":"kingori","country":"tz","lat":-3.2833333,"lon":36.9833333},{"id":2857649,"name":"old moshi","country":"tz","lat":-3.3166667,"lon":37.4},{"id":2851646,"name":"enaboishu","country":"tz","lat":-3.35,"lon":36.7}]});