callback({"markets":[{"id":2371385,"name":"berezovka","country":"ru","lat":43.933333,"lon":134.233333},{"id":2473887,"name":"novo-mikhaylovskoye","country":"ru","lat":44.249722,"lon":133.856667},{"id":2380402,"name":"breyevka","country":"ru","lat":43.826389,"lon":133.869444},{"id":2560970,"name":"yanmutkhouza","country":"ru","lat":43.696667,"lon":133.929722},{"id":2387871,"name":"chuguyevka","country":"ru","lat":44.165278,"lon":133.863333},{"id":2498452,"name":"pshenitsyno","country":"ru","lat":44.085833,"lon":133.665833},{"id":2542553,"name":"uborka","country":"ru","lat":44.397222,"lon":134.103889},{"id":2410232,"name":"izvilinka","country":"ru","lat":43.897222,"lon":133.937778},{"id":2557822,"name":"vtoraya malaza","country":"ru","lat":43.5,"lon":133.516667},{"id":2381821,"name":"bulyga-fadeyevo","country":"ru","lat":44.034722,"lon":133.883889},{"id":2459313,"name":"mineralnoye","country":"ru","lat":44.394444,"lon":133.597222},{"id":2443279,"name":"lenino","country":"ru","lat":44.216944,"lon":134.428333},{"id":2472822,"name":"novochuguyevka","country":"ru","lat":44.226944,"lon":133.8425},{"id":2363793,"name":"arkhipovka","country":"ru","lat":43.738889,"lon":133.861111},{"id":2429093,"name":"korovinka","country":"ru","lat":44.383333,"lon":134.366667},{"id":2567609,"name":"zametnoye","country":"ru","lat":44.344167,"lon":133.939444},{"id":2456964,"name":"medvezhiy kut","country":"ru","lat":43.809167,"lon":133.701111},{"id":2531899,"name":"sydagou","country":"ru","lat":43.883333,"lon":133.966667},{"id":2569683,"name":"zelenoye","country":"ru","lat":43.559444,"lon":133.614722},{"id":2552303,"name":"verkhnyaya breyevka","country":"ru","lat":43.790556,"lon":133.8325},{"id":2540152,"name":"tsetkovka","country":"ru","lat":44.207778,"lon":133.806667},{"id":2362782,"name":"antonovka","country":"ru","lat":44.353056,"lon":134.351389},{"id":2548342,"name":"varpakhovka","country":"ru","lat":44.409444,"lon":134.051944},{"id":2456037,"name":"matveyevka","country":"ru","lat":44.1625,"lon":133.75}]});