callback({"markets":[{"id":2495916,"name":"povarnya berpi","country":"ru","lat":67.666667,"lon":152.2},{"id":2382057,"name":"burdukhsut","country":"ru","lat":68.4,"lon":151.6},{"id":2487685,"name":"peschanoye","country":"ru","lat":68.233333,"lon":152.133333},{"id":2529303,"name":"suchchun","country":"ru","lat":68.266667,"lon":152.333333},{"id":2372852,"name":"biyes-tayakh","country":"ru","lat":67.75,"lon":152.166667},{"id":2531025,"name":"svatoy","country":"ru","lat":67.95,"lon":151.9},{"id":2395469,"name":"elgelyakh","country":"ru","lat":68.033333,"lon":151.916667},{"id":2421454,"name":"kieng-kyuyel","country":"ru","lat":68.083333,"lon":152.333333},{"id":2563551,"name":"yenzha","country":"ru","lat":68.383333,"lon":151.75},{"id":2363881,"name":"armantsy","country":"ru","lat":68.283333,"lon":151.8},{"id":2532321,"name":"syvatay","country":"ru","lat":68.083333,"lon":152.0},{"id":2547637,"name":"vakhgol","country":"ru","lat":68.083333,"lon":151.8},{"id":2542645,"name":"uchugey-kyuyel","country":"ru","lat":68.3,"lon":151.9},{"id":2566169,"name":"yyasty","country":"ru","lat":67.916667,"lon":151.583333}]});