callback({"markets":[{"id":405220,"name":"baquedano","country":"cl","lat":-23.333333,"lon":-69.85},{"id":407823,"name":"mejillones","country":"cl","lat":-23.1,"lon":-70.45},{"id":408233,"name":"pedro de valdivia","country":"cl","lat":-22.6,"lon":-69.666667},{"id":405016,"name":"algorta","country":"cl","lat":-22.833333,"lon":-69.816667},{"id":408036,"name":"oficina los dones","country":"cl","lat":-22.7,"lon":-69.783333},{"id":408746,"name":"refresco","country":"cl","lat":-23.416667,"lon":-69.766667},{"id":405857,"name":"cobija","country":"cl","lat":-22.55,"lon":-70.266667},{"id":407853,"name":"michilla","country":"cl","lat":-22.733333,"lon":-70.266667},{"id":406616,"name":"gatico","country":"cl","lat":-22.516667,"lon":-70.233333},{"id":405399,"name":"campamento esmeralda","country":"cl","lat":-22.933333,"lon":-69.816667}]});