callback({"markets":[{"id":405411,"name":"canadon bombalot","country":"cl","lat":-52.266667,"lon":-71.183333},{"id":133994,"name":"punta del monte","country":"ar","lat":-51.634608,"lon":-71.313413},{"id":130119,"name":"el zurdo","country":"ar","lat":-51.998097,"lon":-71.207629},{"id":134868,"name":"santa sofia ranch","country":"ar","lat":-51.801971,"lon":-70.993127},{"id":130579,"name":"gaypon","country":"ar","lat":-51.966667,"lon":-71.466667}]});