callback({"markets":[{"id":1127839,"name":"rem","country":"hu","lat":46.247261,"lon":19.141394},{"id":2344002,"name":"bogojevo","country":"rs","lat":45.530556,"lon":19.132778},{"id":1128352,"name":"sarpilis","country":"hu","lat":46.248572,"lon":18.742386},{"id":2349199,"name":"kossuthfalva","country":"rs","lat":45.868889,"lon":19.466111},{"id":1093717,"name":"erdod","country":"hr","lat":45.505,"lon":19.0638889},{"id":1115235,"name":"beda","country":"hu","lat":45.933333,"lon":18.766667},{"id":1117504,"name":"domboripuszta","country":"hu","lat":46.433333,"lon":18.9},{"id":1131326,"name":"valaspuszta","country":"hu","lat":46.05,"lon":19.233333},{"id":1118971,"name":"fuzes","country":"hu","lat":46.351873,"lon":19.464135},{"id":1117902,"name":"erdosmarok","country":"hu","lat":46.055011,"lon":18.546361},{"id":1118586,"name":"felsoterezhalom","country":"hu","lat":46.366667,"lon":19.233333},{"id":1116441,"name":"csardahegy","country":"hu","lat":46.466667,"lon":18.65},{"id":1118540,"name":"felsoszentivan","country":"hu","lat":46.197127,"lon":19.186855},{"id":1130337,"name":"terezhalom","country":"hu","lat":46.316667,"lon":19.366667},{"id":1124480,"name":"marazapuszta","country":"hu","lat":46.083333,"lon":18.533333},{"id":2351865,"name":"nova crvenka","country":"rs","lat":45.695278,"lon":19.486667},{"id":1125241,"name":"muller tanya","country":"hu","lat":46.28364,"lon":19.194203},{"id":1121084,"name":"jegenyessziget","country":"hu","lat":46.466667,"lon":18.683333},{"id":1121011,"name":"janosmajor","country":"hu","lat":46.483333,"lon":18.9},{"id":1122059,"name":"kety","country":"hu","lat":46.439497,"lon":18.524227},{"id":2353268,"name":"prigrevica sveti ivon","country":"rs","lat":45.678611,"lon":19.086667},{"id":1127512,"name":"pusztakajmad","country":"hu","lat":46.432632,"lon":18.687395},{"id":2356635,"name":"veliki salas","country":"rs","lat":45.576111,"lon":18.979167},{"id":1115373,"name":"belsoriha","country":"hu","lat":46.005616,"lon":18.749905},{"id":1118233,"name":"feketefoldek","country":"hu","lat":46.083333,"lon":19.416667},{"id":1131472,"name":"varszeg","country":"hu","lat":46.444765,"lon":18.884094},{"id":1128543,"name":"sioagard","country":"hu","lat":46.392715,"lon":18.653362},{"id":1126055,"name":"nyekipuszta","country":"hu","lat":46.2,"lon":18.75},{"id":1099065,"name":"popovac","country":"hr","lat":45.8091667,"lon":18.6583333},{"id":1128202,"name":"sancdulo","country":"hu","lat":46.183333,"lon":19.416667},{"id":1091255,"name":"bare","country":"hr","lat":45.5308333,"lon":18.5597222},{"id":1116473,"name":"csaszartoltes","country":"hu","lat":46.421944,"lon":19.183611},{"id":1120990,"name":"janoshalma","country":"hu","lat":46.298611,"lon":19.325833},{"id":1121385,"name":"kanda","country":"hu","lat":46.033333,"lon":18.733333},{"id":1097607,"name":"monostor","country":"hr","lat":45.77,"lon":18.6036111},{"id":1123562,"name":"kunfeherto","country":"hu","lat":46.360914,"lon":19.41454},{"id":1131261,"name":"vadasok","country":"hu","lat":46.3,"lon":19.333333},{"id":1114611,"name":"bacsszentagyorgyi tanyak","country":"hu","lat":45.966667,"lon":19.05},{"id":2349687,"name":"kupuszina","country":"rs","lat":45.736111,"lon":19.009722},{"id":1129479,"name":"szentmarton ujpuszta","country":"hu","lat":45.885236,"lon":18.514002},{"id":1114210,"name":"alsoszallas","country":"hu","lat":46.066667,"lon":18.766667},{"id":1117634,"name":"dunapart","country":"hu","lat":46.283333,"lon":19.0},{"id":1124667,"name":"matetelkitanyak","country":"hu","lat":46.179524,"lon":19.259007},{"id":1121083,"name":"jegenyes puszta","country":"hu","lat":46.495174,"lon":18.714712},{"id":1117475,"name":"dohanyos telep","country":"hu","lat":46.333333,"lon":19.133333},{"id":1125796,"name":"nagytormaspuszta","country":"hu","lat":46.455109,"lon":18.567974},{"id":1093719,"name":"erdut","country":"hr","lat":45.5263889,"lon":19.0602778},{"id":1130768,"name":"totvolgy","country":"hu","lat":46.318348,"lon":18.673526},{"id":1115446,"name":"berekaljapuszta","country":"hu","lat":46.251751,"lon":18.538603},{"id":1118158,"name":"farkasvolgy","country":"hu","lat":46.396778,"lon":18.531371},{"id":1122490,"name":"kiskunhalas","country":"hu","lat":46.434025,"lon":19.484795},{"id":1119473,"name":"grof-major","country":"hu","lat":46.2,"lon":19.466667},{"id":1097508,"name":"mirkovac","country":"hr","lat":45.7375,"lon":18.7988889},{"id":1100835,"name":"stare selo","country":"hr","lat":45.8136111,"lon":18.7380556},{"id":2354816,"name":"sivac","country":"rs","lat":45.704167,"lon":19.379722},{"id":1114168,"name":"also-patlan-puszta","country":"hu","lat":46.425661,"lon":18.594894},{"id":1117956,"name":"erreve","country":"hu","lat":46.25,"lon":18.983333},{"id":1118063,"name":"facankert","country":"hu","lat":46.446487,"lon":18.735744},{"id":1119242,"name":"gerjen","country":"hu","lat":46.492957,"lon":18.903807},{"id":1130925,"name":"ujberekpuszta","country":"hu","lat":46.260783,"lon":18.702662},{"id":1116482,"name":"csata","country":"hu","lat":46.016667,"lon":18.716667},{"id":1095709,"name":"kopacs","country":"hr","lat":45.6019444,"lon":18.7863889},{"id":2353875,"name":"relici","country":"rs","lat":45.871944,"lon":19.14},{"id":1120671,"name":"ifigeniamajor","country":"hu","lat":46.45,"lon":18.7},{"id":1129210,"name":"szedres","country":"hu","lat":46.47551,"lon":18.683052},{"id":1119151,"name":"gebhardtpuszta","country":"hu","lat":46.485236,"lon":18.90753},{"id":1118543,"name":"felsoszentivani tanyak","country":"hu","lat":46.2,"lon":19.2},{"id":1123341,"name":"kozepcsala","country":"hu","lat":46.436871,"lon":19.240149},{"id":1126658,"name":"palaticstanya","country":"hu","lat":46.383333,"lon":18.966667},{"id":1115902,"name":"bonyhadszerdahely","country":"hu","lat":46.324372,"lon":18.569329},{"id":1125643,"name":"nagynyarad","country":"hu","lat":45.944281,"lon":18.578457},{"id":2356382,"name":"ulmenau","country":"rs","lat":45.617222,"lon":19.269722},{"id":2351223,"name":"militics","country":"rs","lat":45.559167,"lon":19.207778},{"id":1126334,"name":"orbo","country":"hu","lat":46.261623,"lon":18.756102},{"id":2355129,"name":"srednji salasi","country":"rs","lat":45.751944,"lon":19.476111},{"id":1120913,"name":"izsakpuszta","country":"hu","lat":46.35753,"lon":18.960005},{"id":1101766,"name":"uglja","country":"hr","lat":45.535,"lon":18.5327778},{"id":1131525,"name":"vaskut","country":"hu","lat":46.107816,"lon":18.985141},{"id":1120376,"name":"himeshaza","country":"hu","lat":46.084665,"lon":18.571902},{"id":1129372,"name":"szentgalpuszta","country":"hu","lat":46.374791,"lon":18.626006},{"id":1114088,"name":"alsokovacsmajor","country":"hu","lat":46.45,"lon":18.9},{"id":1114138,"name":"alsonana","country":"hu","lat":46.251651,"lon":18.657396},{"id":1125345,"name":"nagybaracska","country":"hu","lat":46.042481,"lon":18.905901},{"id":1116289,"name":"ciko","country":"hu","lat":46.253487,"lon":18.55957},{"id":1119626,"name":"gyongyosoldal","country":"hu","lat":46.25,"lon":18.85},{"id":1125745,"name":"nagyszigetdulo","country":"hu","lat":46.1,"lon":18.866667},{"id":1116512,"name":"csebe","country":"hu","lat":45.969962,"lon":18.78472},{"id":2352278,"name":"pacir","country":"rs","lat":45.899444,"lon":19.441667},{"id":2355440,"name":"strilic","country":"rs","lat":45.7775,"lon":19.0875},{"id":1117814,"name":"emmamajor","country":"hu","lat":46.45,"lon":18.733333},{"id":2352017,"name":"obziri","country":"rs","lat":45.829722,"lon":19.145278},{"id":1116804,"name":"csikomajor","country":"hu","lat":46.2,"lon":18.766667},{"id":1120880,"name":"ivandarda","country":"hu","lat":45.832555,"lon":18.59123},{"id":2346532,"name":"ebersdorf","country":"rs","lat":45.614722,"lon":19.364444},{"id":1124665,"name":"matetelke","country":"hu","lat":46.161673,"lon":19.280373},{"id":1130620,"name":"tomorpuszta","country":"hu","lat":46.233333,"lon":18.733333},{"id":1116404,"name":"csanadikert major","country":"hu","lat":46.05,"lon":18.833333},{"id":1127341,"name":"porbol","country":"hu","lat":46.2,"lon":18.733333},{"id":1124366,"name":"majs","country":"hu","lat":45.905836,"lon":18.597518},{"id":1121287,"name":"kakaso","country":"hu","lat":46.347441,"lon":18.592878},{"id":1124230,"name":"madaras","country":"hu","lat":46.0587,"lon":19.26121},{"id":1127313,"name":"polgardi szolok","country":"hu","lat":46.466667,"lon":19.233333},{"id":1128795,"name":"staltertanya","country":"hu","lat":46.483333,"lon":19.083333},{"id":1118468,"name":"felsonana","country":"hu","lat":46.466807,"lon":18.52913},{"id":1116485,"name":"csatalja","country":"hu","lat":46.036664,"lon":18.946859},{"id":1123318,"name":"kovesdpuszta","country":"hu","lat":46.2,"lon":18.7},{"id":1117232,"name":"decs","country":"hu","lat":46.284285,"lon":18.760005},{"id":1128569,"name":"sneberg","country":"hu","lat":46.066667,"lon":18.666667},{"id":1130794,"name":"trischlerpuszta","country":"hu","lat":46.0,"lon":18.516667},{"id":1096731,"name":"lug","country":"hr","lat":45.6622222,"lon":18.7758333},{"id":1121781,"name":"kelesi szollok","country":"hu","lat":46.331182,"lon":19.267916},{"id":1098593,"name":"petrijevci","country":"hr","lat":45.6127778,"lon":18.5352778},{"id":1095042,"name":"jasenovac pustara","country":"hr","lat":45.7286111,"lon":18.7522222},{"id":1095969,"name":"kravice","country":"hr","lat":45.5666667,"lon":18.6},{"id":1098871,"name":"podolje","country":"hr","lat":45.815,"lon":18.7302778},{"id":1097952,"name":"novi bolman","country":"hr","lat":45.7247222,"lon":18.5397222},{"id":1098929,"name":"podunavlje pustara","country":"hr","lat":45.6308333,"lon":18.8138889},{"id":1095371,"name":"karoca","country":"hr","lat":45.7708333,"lon":18.8244444},{"id":1116511,"name":"csavolyi tanyak","country":"hu","lat":46.183333,"lon":19.15},{"id":1114612,"name":"bacsszentgyorgy","country":"hu","lat":45.972698,"lon":19.036224},{"id":1131022,"name":"ujmajor","country":"hu","lat":45.983333,"lon":18.866667},{"id":1100177,"name":"seles","country":"hr","lat":45.5166667,"lon":18.65},{"id":1091879,"name":"bresce","country":"hr","lat":45.5241667,"lon":18.6272222},{"id":1121767,"name":"kelebiadulo","country":"hu","lat":46.133333,"lon":19.466667},{"id":2343739,"name":"bereg","country":"rs","lat":45.921389,"lon":18.928889},{"id":2349809,"name":"lality","country":"rs","lat":45.52,"lon":19.363611},{"id":1116267,"name":"ciframajor","country":"hu","lat":46.215002,"lon":19.491259},{"id":1118420,"name":"felsokistelek","country":"hu","lat":46.466667,"lon":19.383333},{"id":2354068,"name":"rotweil","country":"rs","lat":45.658611,"lon":19.455556},{"id":1127148,"name":"petoi szolok","country":"hu","lat":46.13382,"lon":18.939054},{"id":1119428,"name":"gorogszo","country":"hu","lat":46.298268,"lon":18.679743},{"id":1092351,"name":"cemin","country":"hr","lat":45.6494444,"lon":18.6075},{"id":1122290,"name":"kiserdo","country":"hu","lat":46.315557,"lon":19.403677},{"id":1096574,"name":"livana","country":"hr","lat":45.5325,"lon":18.6252778},{"id":1095277,"name":"kamenac","country":"hr","lat":45.7711111,"lon":18.7052778},{"id":1100002,"name":"samatovci","country":"hr","lat":45.5963889,"lon":18.5038889},{"id":1126387,"name":"oregmajor","country":"hu","lat":46.15,"lon":19.283333},{"id":1098577,"name":"petlovac","country":"hr","lat":45.7583333,"lon":18.5280556},{"id":1123479,"name":"kulbogyiszlo","country":"hu","lat":46.383333,"lon":19.016667},{"id":1114240,"name":"alsotanyak","country":"hu","lat":46.466667,"lon":19.316667},{"id":1126780,"name":"papkerterdo","country":"hu","lat":46.083333,"lon":18.783333},{"id":1098313,"name":"ovcara cepinska","country":"hr","lat":45.5066667,"lon":18.5675},{"id":1117878,"name":"erdofu","country":"hu","lat":45.907778,"lon":18.761944},{"id":2354332,"name":"saponje","country":"rs","lat":45.814167,"lon":19.213889},{"id":1122340,"name":"kisgeresd","country":"hu","lat":46.128479,"lon":18.527146},{"id":1129392,"name":"szentimre alsopuszta","country":"hu","lat":46.116667,"lon":18.733333},{"id":1131272,"name":"vadaszmajor","country":"hu","lat":46.483333,"lon":18.733333},{"id":1120722,"name":"illocska","country":"hu","lat":45.800571,"lon":18.523196},{"id":1129986,"name":"szur","country":"hu","lat":46.098858,"lon":18.580192},{"id":1093366,"name":"dordev dvor","country":"hr","lat":45.6991667,"lon":18.5191667},{"id":1094698,"name":"herczeg-marok","country":"hr","lat":45.8411111,"lon":18.7694444},{"id":1125872,"name":"negyven","country":"hu","lat":46.483333,"lon":18.95},{"id":1115172,"name":"batmonostor","country":"hu","lat":46.102161,"lon":18.928499},{"id":1131661,"name":"versendi puszta","country":"hu","lat":45.983333,"lon":18.516667},{"id":1127838,"name":"remi tanyak","country":"hu","lat":46.25,"lon":19.15},{"id":1114139,"name":"alsonanai laiver","country":"hu","lat":46.25,"lon":18.666667},{"id":1122850,"name":"kobanya","country":"hu","lat":46.116667,"lon":18.533333},{"id":1122983,"name":"kolked","country":"hu","lat":45.950278,"lon":18.707778},{"id":1120483,"name":"homokmegy","country":"hu","lat":46.49002,"lon":19.073111},{"id":1129999,"name":"tabod","country":"hu","lat":46.375957,"lon":18.542768},{"id":1124643,"name":"martonszallas","country":"hu","lat":46.2,"lon":19.033333},{"id":1126187,"name":"oberek","country":"hu","lat":46.25,"lon":18.716667},{"id":1128951,"name":"szajk","country":"hu","lat":45.992651,"lon":18.534647},{"id":1119516,"name":"gurovica","country":"hu","lat":46.322411,"lon":18.660643},{"id":1129998,"name":"tabodszerdahely","country":"hu","lat":46.359236,"lon":18.546019},{"id":1123556,"name":"kunbajapuszta","country":"hu","lat":46.116667,"lon":19.416667},{"id":1121530,"name":"karasz","country":"hu","lat":46.35,"lon":18.883333},{"id":2353675,"name":"rancevo","country":"rs","lat":45.877222,"lon":19.117778},{"id":1116474,"name":"csaszartoltesi szollok","country":"hu","lat":46.45,"lon":19.2},{"id":1116662,"name":"cserhatdulo","country":"hu","lat":46.075691,"lon":18.734872},{"id":1115539,"name":"betekincspuszta","country":"hu","lat":46.216667,"lon":18.733333},{"id":1121073,"name":"jaukoi szollok","country":"hu","lat":46.170379,"lon":18.975909},{"id":2355762,"name":"szilagyi","country":"rs","lat":45.6475,"lon":19.068889},{"id":1114209,"name":"also szallas","country":"hu","lat":46.464764,"lon":18.949619},{"id":1117674,"name":"ebestanya","country":"hu","lat":46.133333,"lon":18.783333},{"id":1119532,"name":"guvana","country":"hu","lat":45.95,"lon":18.933333},{"id":1119828,"name":"hajosi szolok","country":"hu","lat":46.383333,"lon":19.166667},{"id":1102285,"name":"vlaskovic","country":"hr","lat":45.8177778,"lon":18.7194444},{"id":1131989,"name":"vorostelep","country":"hu","lat":45.95,"lon":18.716667},{"id":1091819,"name":"branjin vrh","country":"hr","lat":45.7961111,"lon":18.61},{"id":1118069,"name":"fadd","country":"hu","lat":46.464764,"lon":18.819246},{"id":1128930,"name":"szabo-tanya","country":"hu","lat":46.1,"lon":18.9},{"id":1098977,"name":"policer","country":"hr","lat":45.5269444,"lon":18.7038889},{"id":1091329,"name":"batina","country":"hr","lat":45.8461111,"lon":18.85},{"id":1116723,"name":"cserta","country":"hu","lat":46.2,"lon":18.883333},{"id":2350489,"name":"madarsko selo","country":"rs","lat":45.9425,"lon":19.314722},{"id":1097972,"name":"novi jagodnjak","country":"hr","lat":45.6980556,"lon":18.6069444},{"id":1126288,"name":"olegyenitanyak","country":"hu","lat":46.016667,"lon":19.166667},{"id":1091710,"name":"bolman","country":"hr","lat":45.7211111,"lon":18.5169444},{"id":1129186,"name":"szebeny","country":"hu","lat":46.131524,"lon":18.585914},{"id":1120247,"name":"hercegszabar","country":"hu","lat":46.045051,"lon":18.604854},{"id":1128246,"name":"sandortanyak","country":"hu","lat":46.027766,"lon":19.255463},{"id":1124657,"name":"matehazi major","country":"hu","lat":46.183333,"lon":19.166667},{"id":1127351,"name":"porkolabvolgy","country":"hu","lat":46.35,"lon":18.7},{"id":1094656,"name":"gusce","country":"hr","lat":45.5286111,"lon":18.5847222},{"id":1095156,"name":"josipovac","country":"hr","lat":45.5827778,"lon":18.5813889},{"id":1094293,"name":"gornji grad","country":"hr","lat":45.5483333,"lon":18.6616667},{"id":1120375,"name":"hillye","country":"hu","lat":46.457076,"lon":19.093232},{"id":1093782,"name":"foherczeglak","country":"hr","lat":45.8461111,"lon":18.6427778},{"id":1120087,"name":"hatarmajor","country":"hu","lat":46.341719,"lon":18.508006},{"id":1101539,"name":"tpolje","country":"hr","lat":45.8661111,"lon":18.7338889},{"id":1101493,"name":"topolik pustara","country":"hr","lat":45.6,"lon":18.65},{"id":1127813,"name":"rekettye","country":"hu","lat":46.433333,"lon":19.416667},{"id":1120496,"name":"homorud","country":"hu","lat":45.981389,"lon":18.792222},{"id":1093461,"name":"draz","country":"hr","lat":45.8422222,"lon":18.7886111},{"id":1097832,"name":"nemetin","country":"hr","lat":45.54,"lon":18.7736111},{"id":1130955,"name":"ujfokitanya","country":"hu","lat":46.383333,"lon":18.833333},{"id":1101666,"name":"tschepin","country":"hr","lat":45.5236111,"lon":18.5633333},{"id":1117572,"name":"dozsatelep","country":"hu","lat":46.266667,"lon":19.216667},{"id":1122741,"name":"kistelek","country":"hu","lat":46.4,"lon":19.433333},{"id":1121166,"name":"jozsefhazapuszta","country":"hu","lat":46.194247,"lon":19.08398},{"id":1131600,"name":"vemend","country":"hu","lat":46.156282,"lon":18.615335},{"id":1114614,"name":"bacsszolos","country":"hu","lat":46.15,"lon":19.45},{"id":2351339,"name":"misicevo","country":"rs","lat":45.991111,"lon":19.484722},{"id":1122914,"name":"kohegy","country":"hu","lat":46.11006,"lon":19.068592},{"id":1119324,"name":"goga","country":"hu","lat":46.35,"lon":18.816667},{"id":1120783,"name":"iparszollok","country":"hu","lat":46.433333,"lon":19.483333},{"id":1128438,"name":"sebesics","country":"hu","lat":46.116667,"lon":19.483333},{"id":1116018,"name":"borzsony","country":"hu","lat":46.286745,"lon":18.558941},{"id":1122805,"name":"kisvizslaktanya","country":"hu","lat":45.95,"lon":18.583333},{"id":1123742,"name":"lajverpuszta","country":"hu","lat":46.210992,"lon":18.690931},{"id":1127893,"name":"retitanya","country":"hu","lat":46.066667,"lon":18.866667},{"id":1126852,"name":"partalja","country":"hu","lat":46.466667,"lon":18.816667},{"id":1124027,"name":"lijosmajor","country":"hu","lat":45.965183,"lon":18.564031},{"id":1093553,"name":"dubosevica","country":"hr","lat":45.8894444,"lon":18.6966667},{"id":1119193,"name":"gemes","country":"hu","lat":46.416667,"lon":18.933333},{"id":1127310,"name":"polgardi","country":"hu","lat":46.483333,"lon":19.25},{"id":1125662,"name":"nagypandursziget","country":"hu","lat":46.166667,"lon":18.916667},{"id":1126440,"name":"orjeg","country":"hu","lat":46.466667,"lon":19.183333},{"id":1120799,"name":"irenszallas","country":"hu","lat":46.166667,"lon":19.283333},{"id":1130789,"name":"trefortpuszta","country":"hu","lat":46.159243,"lon":18.585522},{"id":1126520,"name":"osakpuszta","country":"hu","lat":46.316667,"lon":18.816667},{"id":1097038,"name":"malo knezevo","country":"hr","lat":45.8580556,"lon":18.6352778},{"id":1101178,"name":"svajcernica","country":"hr","lat":45.6486111,"lon":18.6805556},{"id":1121634,"name":"kaszalodulo","country":"hu","lat":46.416667,"lon":19.183333},{"id":1114087,"name":"alsokovacsgyop","country":"hu","lat":46.25548,"lon":19.480211},{"id":1101102,"name":"sumarine","country":"hr","lat":45.7791667,"lon":18.5808333},{"id":1102953,"name":"zlatna greda","country":"hr","lat":45.7216667,"lon":18.8655556},{"id":1100001,"name":"samar surduk","country":"hr","lat":45.8166667,"lon":18.7711111},{"id":2349268,"name":"kovacici","country":"rs","lat":45.732222,"lon":19.265278},{"id":1117660,"name":"dusnok","country":"hu","lat":46.390852,"lon":18.962955},{"id":1121024,"name":"janyapuszta","country":"hu","lat":46.42857,"lon":18.616247},{"id":1116422,"name":"csapasszallas","country":"hu","lat":46.15,"lon":19.25},{"id":1127144,"name":"petofitelep","country":"hu","lat":46.2,"lon":19.183333},{"id":1101767,"name":"ugljes","country":"hr","lat":45.6627778,"lon":18.6619444},{"id":1117714,"name":"egermalom","country":"hu","lat":46.166667,"lon":18.566667},{"id":1091470,"name":"bezdan","country":"hr","lat":45.6258333,"lon":18.6163889},{"id":1116546,"name":"cselegorcsony","country":"hu","lat":46.07095,"lon":18.626956},{"id":1092947,"name":"dobro polje","country":"hr","lat":45.5108333,"lon":18.8577778},{"id":1128344,"name":"sarosdulo","country":"hu","lat":46.283333,"lon":18.833333},{"id":1118248,"name":"feketekapu","country":"hu","lat":45.95,"lon":18.666667},{"id":1129208,"name":"szedresi telep","country":"hu","lat":46.483333,"lon":18.683333},{"id":1114319,"name":"angyaldomb","country":"hu","lat":46.383333,"lon":18.566667},{"id":1122298,"name":"kiserdotanya","country":"hu","lat":46.05,"lon":18.9},{"id":1121360,"name":"kalvaria","country":"hu","lat":46.183333,"lon":18.716667},{"id":1131662,"name":"versend","country":"hu","lat":45.996363,"lon":18.511655},{"id":1125226,"name":"mozs","country":"hu","lat":46.411956,"lon":18.756306},{"id":1123600,"name":"kuriakdulo","country":"hu","lat":46.179246,"lon":19.372494},{"id":1117217,"name":"davod","country":"hu","lat":45.995,"lon":18.917222},{"id":1129530,"name":"szeptolgyes","country":"hu","lat":46.333552,"lon":18.580953},{"id":1126655,"name":"palankihegy","country":"hu","lat":46.371108,"lon":18.687443},{"id":2353373,"name":"pujgeri","country":"rs","lat":45.849722,"lon":19.1525},{"id":1126659,"name":"palatinca","country":"hu","lat":46.260223,"lon":18.591735},{"id":2343065,"name":"apathin","country":"rs","lat":45.671111,"lon":18.984722},{"id":1097956,"name":"novi ceminac","country":"hr","lat":45.6758333,"lon":18.6405556},{"id":1115222,"name":"becsali-tanya","country":"hu","lat":46.433333,"lon":19.066667},{"id":1122680,"name":"kisszalla","country":"hu","lat":46.28009,"lon":19.489544},{"id":1118223,"name":"feked","country":"hu","lat":46.161908,"lon":18.558767},{"id":1124183,"name":"luischthal","country":"hu","lat":46.083333,"lon":18.666667},{"id":1125914,"name":"nemesnadudvar","country":"hu","lat":46.340505,"lon":19.051153},{"id":1095875,"name":"kozarac","country":"hr","lat":45.7191667,"lon":18.6761111},{"id":1127205,"name":"pincesor","country":"hu","lat":46.183333,"lon":18.733333},{"id":1094606,"name":"grovisce","country":"hr","lat":45.8230556,"lon":18.8269444},{"id":1114867,"name":"balitanya","country":"hu","lat":46.466667,"lon":18.883333},{"id":1095582,"name":"knezevi vinogradi","country":"hr","lat":45.7502778,"lon":18.7330556},{"id":1114156,"name":"alsooregszollok","country":"hu","lat":46.412088,"lon":19.458966},{"id":1129540,"name":"szeremle","country":"hu","lat":46.143718,"lon":18.881239},{"id":1114565,"name":"babarcpuszta","country":"hu","lat":46.032286,"lon":18.515335},{"id":1126828,"name":"paradicsompuszta","country":"hu","lat":46.375067,"lon":18.560481},{"id":1117904,"name":"erdosmecskei tanyak","country":"hu","lat":46.183333,"lon":18.516667},{"id":1092787,"name":"darda","country":"hr","lat":45.6280556,"lon":18.6997222},{"id":2354192,"name":"ruski krstur","country":"rs","lat":45.562778,"lon":19.415833},{"id":1120770,"name":"inoka","country":"hu","lat":46.416667,"lon":19.416667},{"id":2343824,"name":"bilici","country":"rs","lat":45.849167,"lon":19.121944},{"id":1114124,"name":"alsomezo","country":"hu","lat":45.966667,"lon":18.666667},{"id":1095645,"name":"kolodvar","country":"hr","lat":45.5094444,"lon":18.6613889},{"id":1130761,"name":"tottos","country":"hu","lat":45.915556,"lon":18.542222},{"id":1121779,"name":"keleshalom","country":"hu","lat":46.366667,"lon":19.25},{"id":1126219,"name":"ofalu","country":"hu","lat":46.22076,"lon":18.530953},{"id":1120248,"name":"hercegszanto","country":"hu","lat":45.95,"lon":18.939167},{"id":1097296,"name":"mece pustara","country":"hr","lat":45.6188889,"lon":18.7205556},{"id":2343309,"name":"bajmok","country":"rs","lat":45.967778,"lon":19.423333},{"id":1131230,"name":"uveghuta","country":"hu","lat":46.197759,"lon":18.590474},{"id":1125079,"name":"mocfa csarda","country":"hu","lat":46.374785,"lon":18.677411},{"id":1091818,"name":"branjina","country":"hr","lat":45.8269444,"lon":18.6925},{"id":1117784,"name":"elesd csarda","country":"hu","lat":46.017429,"lon":18.760195},{"id":1117198,"name":"daruhegy","country":"hu","lat":46.436204,"lon":19.095741},{"id":1121589,"name":"karolymajor","country":"hu","lat":45.833333,"lon":18.55},{"id":1121188,"name":"jozseftelek","country":"hu","lat":46.266667,"lon":19.033333},{"id":1129560,"name":"sziebertpuszta","country":"hu","lat":45.966667,"lon":18.516667},{"id":2344853,"name":"cicovi","country":"rs","lat":45.713611,"lon":19.126111},{"id":1118930,"name":"furesztanya","country":"hu","lat":46.0,"lon":18.566667},{"id":1114338,"name":"annamajor","country":"hu","lat":46.338388,"lon":18.762955},{"id":1094444,"name":"grabovac","country":"hr","lat":45.6972222,"lon":18.74},{"id":2343778,"name":"besdan","country":"rs","lat":45.852778,"lon":18.930556},{"id":1120102,"name":"hatfo-arvizkapu","country":"hu","lat":46.333333,"lon":18.85},{"id":1116793,"name":"csikeria","country":"hu","lat":46.128512,"lon":19.471304},{"id":2350756,"name":"mali stapar","country":"rs","lat":45.699722,"lon":19.320556},{"id":1123640,"name":"kutas","country":"hu","lat":46.0,"lon":18.783333},{"id":1120371,"name":"hild","country":"hu","lat":46.366667,"lon":19.1},{"id":1114588,"name":"bacsahna","country":"hu","lat":46.12648,"lon":19.332596},{"id":1114563,"name":"babarc","country":"hu","lat":46.005919,"lon":18.550256},{"id":1115065,"name":"bar","country":"hu","lat":46.053135,"lon":18.716438},{"id":1118941,"name":"furkotelep","country":"hu","lat":46.141905,"lon":18.727029},{"id":1113800,"name":"agostonpuszta","country":"hu","lat":46.383333,"lon":18.7},{"id":1129124,"name":"szarkas","country":"hu","lat":46.45699,"lon":19.278494},{"id":1114840,"name":"balazsszallas","country":"hu","lat":45.966667,"lon":18.8},{"id":1127472,"name":"pusztaapati","country":"hu","lat":46.476553,"lon":18.691343},{"id":1127879,"name":"retilegelo","country":"hu","lat":45.966667,"lon":18.7},{"id":1128382,"name":"sashevero","country":"hu","lat":46.216667,"lon":19.016667},{"id":1091505,"name":"bijelo brdo","country":"hr","lat":45.5172222,"lon":18.8708333},{"id":2357218,"name":"vukcevici","country":"rs","lat":45.734722,"lon":19.275278},{"id":1100900,"name":"stefankas","country":"hr","lat":45.7663889,"lon":18.6711111},{"id":1128396,"name":"satorhely","country":"hu","lat":45.941849,"lon":18.632933},{"id":2349529,"name":"kruschiwel","country":"rs","lat":45.932222,"lon":19.101667},{"id":1114597,"name":"bacsfapuszta","country":"hu","lat":45.991667,"lon":18.589444},{"id":1101744,"name":"tvrda","country":"hr","lat":45.5661111,"lon":18.7041667},{"id":1123052,"name":"kopalicadulo","country":"hu","lat":46.066667,"lon":18.633333},{"id":1098242,"name":"osik","country":"hr","lat":45.5511111,"lon":18.6938889},{"id":1119009,"name":"gabormajor","country":"hu","lat":46.333333,"lon":18.783333},{"id":1124479,"name":"maraza","country":"hu","lat":46.075328,"lon":18.512955},{"id":2346769,"name":"gaumarkt","country":"rs","lat":45.903333,"lon":19.063611},{"id":1096716,"name":"luc","country":"hr","lat":45.7841667,"lon":18.535},{"id":1124624,"name":"martinca","country":"hu","lat":46.15,"lon":18.683333},{"id":2346523,"name":"dzinicevi","country":"rs","lat":45.77,"lon":19.239444},{"id":1114175,"name":"alsoporboly","country":"hu","lat":46.183333,"lon":18.883333},{"id":1126199,"name":"ocseny","country":"hu","lat":46.313697,"lon":18.757493},{"id":1099770,"name":"rietdorf","country":"hr","lat":45.5652778,"lon":18.6497222},{"id":1120458,"name":"homokhaz","country":"hu","lat":46.486854,"lon":18.72667},{"id":1129043,"name":"szalmazohegydulo","country":"hu","lat":46.216667,"lon":19.383333},{"id":1115801,"name":"bograihatar","country":"hu","lat":46.292957,"lon":18.847049},{"id":1115901,"name":"bonyhad","country":"hu","lat":46.3,"lon":18.52905},{"id":1131777,"name":"vilmosmajor","country":"hu","lat":46.383333,"lon":18.616667},{"id":1122618,"name":"kispilis","country":"hu","lat":46.256567,"lon":18.744289},{"id":1119170,"name":"geimermalom","country":"hu","lat":46.316667,"lon":18.5},{"id":1123538,"name":"kulsoszentgyorgy","country":"hu","lat":46.32282,"lon":19.131948},{"id":1129266,"name":"szekszard","country":"hu","lat":46.350137,"lon":18.709051},{"id":1123123,"name":"kormepuszta","country":"hu","lat":46.465026,"lon":19.069846},{"id":1123878,"name":"leanyvar","country":"hu","lat":46.383753,"lon":18.664005},{"id":1114592,"name":"bacsbokod","country":"hu","lat":46.124996,"lon":19.156207},{"id":1131394,"name":"vardomb","country":"hu","lat":46.252013,"lon":18.685018},{"id":1101175,"name":"suza","country":"hr","lat":45.7830556,"lon":18.775},{"id":1124048,"name":"lippo","country":"hu","lat":45.862778,"lon":18.57},{"id":1121524,"name":"karapancsa","country":"hu","lat":45.9425,"lon":18.866389},{"id":1128554,"name":"sipsa","country":"hu","lat":46.366667,"lon":18.85},{"id":1115823,"name":"bokerdo","country":"hu","lat":45.916667,"lon":18.8},{"id":1115056,"name":"baratokmehese","country":"hu","lat":45.983333,"lon":18.8},{"id":2354431,"name":"schomburg","country":"rs","lat":45.774167,"lon":19.112222},{"id":2346627,"name":"filipowa","country":"rs","lat":45.554722,"lon":19.323611},{"id":1121325,"name":"kall","country":"hu","lat":46.372839,"lon":19.088236},{"id":1101409,"name":"tikves","country":"hr","lat":45.6716667,"lon":18.845},{"id":1122708,"name":"kistabod","country":"hu","lat":46.364859,"lon":18.533238},{"id":1114593,"name":"bacsbokodi tanyak","country":"hu","lat":46.116667,"lon":19.166667},{"id":1123782,"name":"lanycsok","country":"hu","lat":46.011699,"lon":18.621176},{"id":1119407,"name":"gorcsonyi puszta","country":"hu","lat":46.1,"lon":18.616667},{"id":1130904,"name":"udvar","country":"hu","lat":45.900556,"lon":18.659722},{"id":1102958,"name":"zmajevac","country":"hr","lat":45.7980556,"lon":18.8013889},{"id":1113776,"name":"agaserdo","country":"hu","lat":46.088925,"lon":18.802725},{"id":1121207,"name":"juliamajor","country":"hu","lat":46.494956,"lon":18.736485},{"id":2347954,"name":"hodschag","country":"rs","lat":45.506667,"lon":19.261111},{"id":1129082,"name":"szantopuszta","country":"hu","lat":46.338092,"lon":18.985903},{"id":2351194,"name":"milcici","country":"rs","lat":45.834444,"lon":19.174167},{"id":1117958,"name":"ersekhalma","country":"hu","lat":46.348667,"lon":19.124153},{"id":1120972,"name":"jankamajor","country":"hu","lat":46.25,"lon":19.483333},{"id":1119069,"name":"galhegy","country":"hu","lat":46.08695,"lon":18.741921},{"id":1122578,"name":"kisnyarad","country":"hu","lat":46.038092,"lon":18.564954},{"id":2345251,"name":"dedici","country":"rs","lat":45.714167,"lon":19.105556},{"id":1121183,"name":"jozsefpuszta","country":"hu","lat":46.344227,"lon":18.773911},{"id":1123151,"name":"korositanya","country":"hu","lat":46.116667,"lon":18.916667},{"id":1130591,"name":"tolma","country":"hu","lat":46.426765,"lon":18.782476},{"id":1128336,"name":"sarmezo","country":"hu","lat":46.316667,"lon":18.766667},{"id":1126177,"name":"oalmas","country":"hu","lat":46.133333,"lon":19.333333},{"id":1120855,"name":"istvanmajor","country":"hu","lat":46.302998,"lon":18.546667},{"id":1128333,"name":"sarmanpuszta","country":"hu","lat":46.283333,"lon":18.766667},{"id":2351668,"name":"nanadici","country":"rs","lat":45.837778,"lon":19.084167},{"id":1124958,"name":"mihalydomb","country":"hu","lat":46.388092,"lon":18.536378},{"id":2348718,"name":"kernei","country":"rs","lat":45.769722,"lon":19.277778},{"id":1126021,"name":"nyamand","country":"hu","lat":46.350952,"lon":18.742851},{"id":1127453,"name":"puspoklak","country":"hu","lat":46.111041,"lon":18.521721},{"id":1128092,"name":"rozsdasserpenyo","country":"hu","lat":46.23941,"lon":18.617762},{"id":1125062,"name":"miske","country":"hu","lat":46.446426,"lon":19.033079},{"id":1114595,"name":"bacsborsod","country":"hu","lat":46.098701,"lon":19.158056},{"id":2350715,"name":"mali bec","country":"rs","lat":45.785833,"lon":19.090556},{"id":1130175,"name":"tatahaza","country":"hu","lat":46.174075,"lon":19.300284},{"id":1125957,"name":"nemetmarok","country":"hu","lat":45.874237,"lon":18.508776},{"id":1124234,"name":"madaraszpuszta","country":"hu","lat":46.072679,"lon":19.283888},{"id":1131684,"name":"veszettkut","country":"hu","lat":46.093946,"lon":19.204162},{"id":1118064,"name":"facankerti major","country":"hu","lat":46.454378,"lon":18.746478},{"id":1115875,"name":"boly","country":"hu","lat":45.967222,"lon":18.518333},{"id":1117552,"name":"doromlas puszta","country":"hu","lat":46.400952,"lon":18.880002},{"id":1102976,"name":"zornice","country":"hr","lat":45.6886111,"lon":18.5408333},{"id":1118249,"name":"feketemajor","country":"hu","lat":46.25,"lon":19.433333},{"id":1117579,"name":"dragony","country":"hu","lat":46.316667,"lon":19.316667},{"id":1121783,"name":"keles","country":"hu","lat":46.366667,"lon":19.283333},{"id":1100085,"name":"sarvash","country":"hr","lat":45.5272222,"lon":18.8375},{"id":1129016,"name":"szalka","country":"hu","lat":46.275186,"lon":18.638376},{"id":1120887,"name":"ivankamajor","country":"hu","lat":46.297641,"lon":19.477853},{"id":1124053,"name":"liptod","country":"hu","lat":46.045982,"lon":18.515395},{"id":1132195,"name":"zomba","country":"hu","lat":46.410838,"lon":18.565767},{"id":2349016,"name":"kolut","country":"rs","lat":45.892778,"lon":18.929722},{"id":1121105,"name":"jeneserdopuszta","country":"hu","lat":46.133333,"lon":18.65},{"id":2355775,"name":"szonta","country":"rs","lat":45.594722,"lon":19.098056},{"id":1130936,"name":"ujdongokut","country":"hu","lat":46.283333,"lon":19.466667},{"id":1100175,"name":"selci","country":"hr","lat":45.5513889,"lon":18.5136111},{"id":1126002,"name":"noszlop","country":"hu","lat":46.365406,"lon":18.554763},{"id":1124759,"name":"medina","country":"hu","lat":46.474968,"lon":18.64336},{"id":1115190,"name":"batya","country":"hu","lat":46.487997,"lon":18.954188},{"id":1126723,"name":"palotabozsok","country":"hu","lat":46.126907,"lon":18.642018},{"id":1114119,"name":"alsomegy","country":"hu","lat":46.488822,"lon":19.122668},{"id":1126558,"name":"oszolok","country":"hu","lat":46.14286,"lon":19.443657},{"id":1122570,"name":"kismoragy","country":"hu","lat":46.236288,"lon":18.643899},{"id":1126951,"name":"pechtltanya","country":"hu","lat":46.4,"lon":19.116667},{"id":1126394,"name":"oreg-szollok","country":"hu","lat":46.43479,"lon":19.452428},{"id":1117488,"name":"dolinapuszta","country":"hu","lat":46.150381,"lon":18.676004},{"id":1123471,"name":"kukoricafold","country":"hu","lat":46.183333,"lon":19.3},{"id":2356235,"name":"tschonopel","country":"rs","lat":45.813333,"lon":19.251944},{"id":1122518,"name":"kislippo","country":"hu","lat":45.828797,"lon":18.534338},{"id":1123317,"name":"kovesdmajor","country":"hu","lat":46.066667,"lon":19.15},{"id":1117957,"name":"ersekcsanad","country":"hu","lat":46.253522,"lon":18.98457},{"id":1114304,"name":"andormajor","country":"hu","lat":46.393305,"lon":18.561779},{"id":1120377,"name":"himeshazi puszta","country":"hu","lat":46.083333,"lon":18.566667},{"id":1091962,"name":"brijest","country":"hr","lat":45.5205556,"lon":18.6719444},{"id":1093762,"name":"filakovi","country":"hr","lat":45.8302778,"lon":18.7675},{"id":1092462,"name":"ciboghat","country":"hr","lat":45.8147222,"lon":18.7538889},{"id":1114146,"name":"alsonyek","country":"hu","lat":46.201904,"lon":18.734475},{"id":1118530,"name":"felsoszallasok","country":"hu","lat":46.476956,"lon":18.937056},{"id":1127808,"name":"reiszallas","country":"hu","lat":46.183333,"lon":18.966667},{"id":2355675,"name":"svetozar milelic","country":"rs","lat":45.850278,"lon":19.206667},{"id":1123996,"name":"lhjosmajor","country":"hu","lat":46.483333,"lon":18.866667},{"id":1118222,"name":"feked","country":"hu","lat":46.45,"lon":19.033333},{"id":1115555,"name":"bezeredj","country":"hu","lat":46.482072,"lon":18.666807},{"id":1117554,"name":"dorytabod","country":"hu","lat":46.3601,"lon":18.525052},{"id":1119106,"name":"gara","country":"hu","lat":46.031944,"lon":19.042778},{"id":1128349,"name":"saros","country":"hu","lat":45.984167,"lon":18.736944},{"id":1115551,"name":"bezedekpuszta","country":"hu","lat":45.864668,"lon":18.586378},{"id":1126534,"name":"osukosd","country":"hu","lat":46.303522,"lon":18.942481},{"id":1115550,"name":"bezedek","country":"hu","lat":45.864722,"lon":18.586389},{"id":1120570,"name":"hosszufoldek","country":"hu","lat":46.033333,"lon":18.95},{"id":1127886,"name":"retipuszta","country":"hu","lat":46.15,"lon":18.933333},{"id":1126420,"name":"oregvajka","country":"hu","lat":46.416191,"lon":18.803712},{"id":1121685,"name":"katymar","country":"hu","lat":46.03398,"lon":19.209353},{"id":1119526,"name":"gutaipuszta","country":"hu","lat":46.45,"lon":18.816667},{"id":1117618,"name":"dunafalva","country":"hu","lat":46.074735,"lon":18.781423},{"id":2343550,"name":"batsch-monoschtor","country":"rs","lat":45.793611,"lon":18.935833},{"id":1117551,"name":"doromlas","country":"hu","lat":46.424186,"lon":18.843909},{"id":1116003,"name":"borza","country":"hu","lat":45.916667,"lon":18.65},{"id":1131829,"name":"viranyosdulo","country":"hu","lat":46.132667,"lon":19.016677},{"id":1118939,"name":"furko","country":"hu","lat":46.152189,"lon":18.750286},{"id":1091661,"name":"bogaljevci","country":"hr","lat":45.5025,"lon":19.0158333},{"id":1124638,"name":"martonhegy","country":"hu","lat":46.083333,"lon":18.766667},{"id":1115807,"name":"bogyiszlo","country":"hu","lat":46.386378,"lon":18.829621},{"id":1126341,"name":"ordas","country":"hu","lat":45.983333,"lon":18.683333},{"id":2347175,"name":"gornja rogatica","country":"rs","lat":45.807222,"lon":19.468333},{"id":2345422,"name":"djulafalva","country":"rs","lat":45.795556,"lon":19.380833},{"id":1113939,"name":"almas puszta","country":"hu","lat":46.3,"lon":18.683333},{"id":1124821,"name":"melykut","country":"hu","lat":46.215088,"lon":19.381024},{"id":2349460,"name":"krizanji","country":"rs","lat":45.802778,"lon":19.125278},{"id":1115996,"name":"borsoshatpuszta","country":"hu","lat":46.365811,"lon":18.962955},{"id":2355778,"name":"sztapar","country":"rs","lat":45.661389,"lon":19.205},{"id":1123707,"name":"ladomany","country":"hu","lat":46.315406,"lon":18.594116},{"id":1128427,"name":"schrempfmalom","country":"hu","lat":45.916667,"lon":18.55},{"id":1117641,"name":"dunaszekcso","country":"hu","lat":46.086631,"lon":18.758647},{"id":2352550,"name":"pekanovici","country":"rs","lat":45.7575,"lon":19.198056},{"id":1093234,"name":"donji grad","country":"hr","lat":45.5575,"lon":18.7347222},{"id":1123055,"name":"koparhat","country":"hu","lat":46.077908,"lon":18.828859},{"id":1117903,"name":"erdosmecske","country":"hu","lat":46.17749,"lon":18.511666},{"id":1123555,"name":"kunbaja","country":"hu","lat":46.084166,"lon":19.420841},{"id":1120749,"name":"imrehegy","country":"hu","lat":46.477436,"lon":19.312228},{"id":2347848,"name":"hadikfalva","country":"rs","lat":45.959444,"lon":19.035556},{"id":1119659,"name":"gyorgymajor","country":"hu","lat":46.448477,"lon":18.830953},{"id":1117418,"name":"dobokanagyjaras","country":"hu","lat":46.161007,"lon":19.365222},{"id":1096615,"name":"logor","country":"hr","lat":45.5261111,"lon":18.7155556},{"id":1120723,"name":"ilmamajor","country":"hu","lat":46.166667,"lon":19.233333},{"id":1119211,"name":"gerechat","country":"hu","lat":45.9,"lon":18.8},{"id":1131271,"name":"vadaszlaki szollok","country":"hu","lat":46.05,"lon":19.266667},{"id":1097436,"name":"milcici","country":"hr","lat":45.8344444,"lon":19.1741667},{"id":1123396,"name":"kozeptabod","country":"hu","lat":46.37871,"lon":18.545237},{"id":1123270,"name":"kovacsmajor","country":"hu","lat":46.466667,"lon":18.916667},{"id":1118074,"name":"fajsz","country":"hu","lat":46.416953,"lon":18.919427},{"id":1131315,"name":"vajkapuszta","country":"hu","lat":46.416382,"lon":18.859814},{"id":1114354,"name":"antallapos","country":"hu","lat":46.304076,"lon":19.186464},{"id":1125701,"name":"nagyrezet","country":"hu","lat":46.216667,"lon":18.85},{"id":2355106,"name":"srdani","country":"rs","lat":45.711389,"lon":19.169722},{"id":1130257,"name":"telekiszollok","country":"hu","lat":46.118147,"lon":19.424992},{"id":1117580,"name":"dragszel","country":"hu","lat":46.467496,"lon":19.039721},{"id":1095896,"name":"kozjak pustara","country":"hr","lat":45.675,"lon":18.8127778},{"id":1123941,"name":"lenes","country":"hu","lat":46.383333,"lon":18.933333},{"id":1097537,"name":"mitrovac","country":"hr","lat":45.7111111,"lon":18.7225},{"id":2350365,"name":"lugomerci","country":"rs","lat":45.722778,"lon":19.1525},{"id":1118490,"name":"felso-patlan-puszta","country":"hu","lat":46.440618,"lon":18.593276},{"id":2355218,"name":"stanisic","country":"rs","lat":45.94,"lon":19.165278},{"id":1128107,"name":"rudolfmajor","country":"hu","lat":46.497716,"lon":18.511813},{"id":1094963,"name":"jagodnja","country":"hr","lat":45.6991667,"lon":18.5769444},{"id":2346981,"name":"goge salasi","country":"rs","lat":45.791944,"lon":19.121667},{"id":1125721,"name":"nagysumar","country":"hu","lat":46.166667,"lon":19.05},{"id":1115157,"name":"bataapati","country":"hu","lat":46.221991,"lon":18.6007},{"id":1120412,"name":"hodunapuszta","country":"hu","lat":45.928056,"lon":18.828611},{"id":1128293,"name":"sarhat","country":"hu","lat":46.019903,"lon":18.798371},{"id":1126348,"name":"ordogmalom","country":"hu","lat":46.392184,"lon":18.518952},{"id":1123964,"name":"leperd","country":"hu","lat":46.167809,"lon":18.657435},{"id":1126476,"name":"orositanya","country":"hu","lat":46.15,"lon":18.883333},{"id":2353964,"name":"rigyicza","country":"rs","lat":45.986389,"lon":19.105},{"id":1115159,"name":"bata","country":"hu","lat":46.128641,"lon":18.770267},{"id":1126449,"name":"ormanypuszta","country":"hu","lat":45.888818,"lon":18.593992},{"id":1128598,"name":"somberek","country":"hu","lat":46.080477,"lon":18.658871},{"id":1093660,"name":"durdevo polje","country":"hr","lat":45.5563889,"lon":18.5677778},{"id":1101124,"name":"sunjocarda","country":"hr","lat":45.7858333,"lon":18.8555556},{"id":1121739,"name":"kecskes","country":"hu","lat":46.33224,"lon":19.226448},{"id":2346043,"name":"doroslovo","country":"rs","lat":45.608611,"lon":19.190556},{"id":1113979,"name":"alsoborzsony","country":"hu","lat":46.282352,"lon":18.57059},{"id":2342982,"name":"aleksa santic","country":"rs","lat":45.930833,"lon":19.329722},{"id":1095852,"name":"kotlina","country":"hr","lat":45.7911111,"lon":18.7366667},{"id":1125177,"name":"moragy","country":"hu","lat":46.215893,"lon":18.643187},{"id":1114012,"name":"alsodulo","country":"hu","lat":46.033333,"lon":19.066667},{"id":1123476,"name":"kukullamajor","country":"hu","lat":46.288611,"lon":19.152769},{"id":1124493,"name":"marczpuszta","country":"hu","lat":46.3,"lon":18.533333},{"id":1129432,"name":"szentkata","country":"hu","lat":46.312875,"lon":19.23213},{"id":1125120,"name":"mohacs","country":"hu","lat":45.993056,"lon":18.683056},{"id":1115979,"name":"borsodfoldekdulo","country":"hu","lat":46.0,"lon":18.916667},{"id":1098004,"name":"novo naselje","country":"hr","lat":45.5297222,"lon":18.83},{"id":1119827,"name":"hajos","country":"hu","lat":46.398611,"lon":19.120556},{"id":1119985,"name":"harc","country":"hu","lat":46.403554,"lon":18.617901},{"id":2346616,"name":"fernbah","country":"rs","lat":45.734444,"lon":19.171389},{"id":1100380,"name":"sirine","country":"hr","lat":45.7694444,"lon":18.5613889},{"id":1116133,"name":"budzsak","country":"hu","lat":45.944167,"lon":18.875833},{"id":1100626,"name":"sokolovac pustara","country":"hr","lat":45.7019444,"lon":18.7933333},{"id":1127228,"name":"piri sor","country":"hu","lat":46.155457,"lon":19.483425},{"id":1130406,"name":"tillpuszta","country":"hu","lat":46.1,"lon":19.166667},{"id":1115967,"name":"borota","country":"hu","lat":46.266039,"lon":19.22278},{"id":1101882,"name":"vardarac","country":"hr","lat":45.6275,"lon":18.7705556},{"id":1131910,"name":"vizslak","country":"hu","lat":45.933333,"lon":18.683333},{"id":1122766,"name":"kistolosidulo","country":"hu","lat":46.1,"lon":18.916667},{"id":1115738,"name":"bodohegy","country":"hu","lat":46.345377,"lon":18.673666},{"id":1128339,"name":"sarok","country":"hu","lat":45.842253,"lon":18.611865},{"id":2355837,"name":"tavankut","country":"rs","lat":46.033333,"lon":19.483333},{"id":1120257,"name":"herczoghtanya","country":"hu","lat":46.433333,"lon":18.783333},{"id":1116510,"name":"csavoly","country":"hu","lat":46.189167,"lon":19.146667},{"id":1100882,"name":"staro selo","country":"hr","lat":45.6511111,"lon":18.5641667},{"id":1116250,"name":"cernahat","country":"hu","lat":46.098941,"lon":19.081113},{"id":1127101,"name":"peterhat puszta","country":"hu","lat":46.483333,"lon":19.0},{"id":1091407,"name":"belje","country":"hr","lat":45.6069444,"lon":18.7438889},{"id":1114596,"name":"bacsborsodi tanyak","country":"hu","lat":46.116667,"lon":19.233333},{"id":1123836,"name":"laszlomajor","country":"hu","lat":46.4,"lon":18.514954},{"id":1118026,"name":"eszterpuszta","country":"hu","lat":46.218863,"lon":18.542043},{"id":1092349,"name":"ceminac","country":"hr","lat":45.6863889,"lon":18.6675},{"id":1127621,"name":"rabenschwanz","country":"hu","lat":46.266667,"lon":18.5},{"id":1102874,"name":"zeleno polje","country":"hr","lat":45.7697222,"lon":18.5038889},{"id":1115968,"name":"borotai tanyak","country":"hu","lat":46.266667,"lon":19.233333},{"id":1090968,"name":"adolfovac pusta","country":"hr","lat":45.5686111,"lon":18.6138889},{"id":1122925,"name":"kohntanya","country":"hu","lat":46.416667,"lon":18.566667},{"id":2350959,"name":"matatici","country":"rs","lat":45.703056,"lon":19.233889},{"id":1101745,"name":"tvrdavica","country":"hr","lat":45.5713889,"lon":18.6758333},{"id":1127342,"name":"porboly","country":"hu","lat":46.205619,"lon":18.812373},{"id":1114098,"name":"alsomajor","country":"hu","lat":46.21528,"lon":19.464655},{"id":1115161,"name":"bataszek","country":"hu","lat":46.193726,"lon":18.723074},{"id":1125161,"name":"monostoridulo","country":"hu","lat":46.1,"lon":18.983333},{"id":1128764,"name":"sosto","country":"hu","lat":46.466667,"lon":19.45},{"id":1120208,"name":"heislerpuszta","country":"hu","lat":46.421712,"lon":18.808196},{"id":1125225,"name":"mozsi tanyak","country":"hu","lat":46.4,"lon":18.766667},{"id":1114675,"name":"baja","country":"hu","lat":46.174957,"lon":18.956388},{"id":1127460,"name":"puspokpuszta","country":"hu","lat":46.010195,"lon":18.902189},{"id":1128820,"name":"sukosd","country":"hu","lat":46.28181,"lon":18.995241},{"id":1119457,"name":"graboc","country":"hu","lat":46.286741,"lon":18.61108},{"id":1094679,"name":"hagymas","country":"hr","lat":45.5288889,"lon":18.9505556},{"id":1095347,"name":"karanac","country":"hr","lat":45.7605556,"lon":18.6844444},{"id":1098888,"name":"podravlje","country":"hr","lat":45.5633333,"lon":18.7083333},{"id":1101737,"name":"tutek","country":"hr","lat":45.5305556,"lon":18.7136111},{"id":1128403,"name":"savanyumajor","country":"hu","lat":46.352256,"lon":19.138207},{"id":1118398,"name":"felsohomok","country":"hu","lat":46.066667,"lon":18.95}]});