callback({"markets":[{"id":134100,"name":"ranhuil","country":"ar","lat":-36.683333,"lon":-69.15},{"id":131474,"name":"la cortadera de moyano","country":"ar","lat":-36.6,"lon":-68.533333},{"id":132206,"name":"lonco vaca","country":"ar","lat":-36.65,"lon":-68.65},{"id":131164,"name":"jaguel de las chilcas","country":"ar","lat":-36.75,"lon":-69.0},{"id":127447,"name":"aguada del toro","country":"ar","lat":-36.64242,"lon":-68.549608},{"id":132634,"name":"matancilla","country":"ar","lat":-36.807813,"lon":-68.85121}]});