callback({"markets":[{"id":2526816,"name":"staroye zavrazhye","country":"ru","lat":56.7084,"lon":36.9765},{"id":2393259,"name":"dubna","country":"ru","lat":56.733333,"lon":37.166667},{"id":2449711,"name":"makovnitsy","country":"ru","lat":57.345556,"lon":37.211944},{"id":2425136,"name":"kokorikha","country":"ru","lat":57.1,"lon":37.416667},{"id":2531353,"name":"svezevo","country":"ru","lat":57.4269,"lon":37.2266},{"id":2449275,"name":"makarikha","country":"ru","lat":57.1991,"lon":36.8022},{"id":2377918,"name":"bolshoye vorobyevo","country":"ru","lat":57.4925,"lon":37.383889},{"id":2519711,"name":"slavkovo","country":"ru","lat":57.342778,"lon":37.040833},{"id":2379858,"name":"bosikovo","country":"ru","lat":57.3854,"lon":37.0801},{"id":2571442,"name":"zhizhimorikha","country":"ru","lat":57.2165,"lon":36.9299},{"id":2467146,"name":"nikifortsevo","country":"ru","lat":57.0684,"lon":37.0254},{"id":2442162,"name":"lartsevo","country":"ru","lat":56.833333,"lon":37.1},{"id":2452185,"name":"maloye novoselye","country":"ru","lat":56.766667,"lon":36.933333},{"id":2548124,"name":"vanteyevo","country":"ru","lat":57.2934,"lon":37.4932},{"id":2404887,"name":"gubtsevo","country":"ru","lat":57.3828,"lon":37.099},{"id":2378800,"name":"bordukovo","country":"ru","lat":57.045,"lon":36.8129},{"id":2573394,"name":"zverkovo","country":"ru","lat":57.1628,"lon":36.8185},{"id":2541658,"name":"tushnevo","country":"ru","lat":57.3457,"lon":37.1181},{"id":2480436,"name":"opranevo","country":"ru","lat":57.4647,"lon":36.7072},{"id":2516184,"name":"shishkino","country":"ru","lat":56.7913,"lon":36.5146},{"id":2426343,"name":"kolyubeyevo","country":"ru","lat":57.2823,"lon":37.0089},{"id":2486268,"name":"perechistoye","country":"ru","lat":57.2843,"lon":36.9613},{"id":2509144,"name":"sazhino","country":"ru","lat":56.6888,"lon":36.8419},{"id":2455242,"name":"martynikha","country":"ru","lat":57.4557,"lon":36.932},{"id":2564111,"name":"yerogneyevka","country":"ru","lat":57.4628,"lon":36.8697},{"id":2485101,"name":"paskino","country":"ru","lat":57.090556,"lon":37.084167},{"id":2379156,"name":"bor mikhalevskiy","country":"ru","lat":57.4736,"lon":36.8608},{"id":2532017,"name":"syrkino","country":"ru","lat":57.1481,"lon":37.2915},{"id":2531086,"name":"sverdlovo","country":"ru","lat":56.633333,"lon":36.616667},{"id":2423280,"name":"kleptsovo","country":"ru","lat":57.4408,"lon":37.2245},{"id":2406358,"name":"igumnovo","country":"ru","lat":57.1416,"lon":37.2931},{"id":2425783,"name":"kolodkino","country":"ru","lat":56.683,"lon":36.9949},{"id":2531748,"name":"svyatye","country":"ru","lat":56.816667,"lon":37.25},{"id":2542994,"name":"ugolki","country":"ru","lat":57.1278,"lon":36.7006},{"id":2486444,"name":"peremilovo","country":"ru","lat":57.3751,"lon":36.7495},{"id":2550111,"name":"verino","country":"ru","lat":56.977,"lon":36.8314},{"id":2538922,"name":"troitsa-kochki","country":"ru","lat":57.0,"lon":37.066667},{"id":2547235,"name":"uvarova","country":"ru","lat":56.616667,"lon":37.066667},{"id":2431251,"name":"kozhevnevo","country":"ru","lat":57.1109,"lon":37.0051},{"id":2458971,"name":"miklyayevo","country":"ru","lat":56.5634,"lon":36.9321},{"id":2426959,"name":"konakovo","country":"ru","lat":56.7,"lon":36.766667},{"id":2491425,"name":"podlesye","country":"ru","lat":57.3512,"lon":37.0388},{"id":2570143,"name":"zhabino","country":"ru","lat":57.3,"lon":36.7},{"id":2437678,"name":"kulikovo","country":"ru","lat":57.29,"lon":36.6877},{"id":2409725,"name":"iveshno","country":"ru","lat":57.416667,"lon":36.583333},{"id":2376642,"name":"bolshiye ruchi","country":"ru","lat":56.6,"lon":36.966667},{"id":2490678,"name":"pochapka","country":"ru","lat":57.2869,"lon":37.4246},{"id":2475937,"name":"novoye ivankovo","country":"ru","lat":56.75,"lon":37.2},{"id":2525408,"name":"starikova","country":"ru","lat":56.69489,"lon":37.309398},{"id":2476315,"name":"novoye stashchino","country":"ru","lat":57.4875,"lon":37.4727},{"id":2530567,"name":"sursovo","country":"ru","lat":56.792,"lon":36.7315},{"id":2403887,"name":"grigorovo","country":"ru","lat":57.3112,"lon":36.7171},{"id":2510069,"name":"seltsy","country":"ru","lat":57.1215,"lon":36.978},{"id":2528878,"name":"stroyevo","country":"ru","lat":56.883333,"lon":37.183333},{"id":2358155,"name":"abrosimovo","country":"ru","lat":57.0468,"lon":37.301},{"id":2362938,"name":"antyushino","country":"ru","lat":57.255,"lon":37.2885},{"id":2554903,"name":"vladyshino","country":"ru","lat":57.0058,"lon":37.2734},{"id":2384501,"name":"chekanovo","country":"ru","lat":57.364,"lon":36.9762},{"id":2387723,"name":"chublovo","country":"ru","lat":56.6541,"lon":36.8513},{"id":2505238,"name":"ryabinkino","country":"ru","lat":57.0865,"lon":36.7796},{"id":2519814,"name":"slezino","country":"ru","lat":57.0618,"lon":37.3927},{"id":2394355,"name":"duty","country":"ru","lat":57.1938,"lon":37.071},{"id":2529394,"name":"sudorina","country":"ru","lat":57.427222,"lon":36.763056},{"id":2363453,"name":"arefino","country":"ru","lat":57.4547,"lon":36.7431},{"id":2442886,"name":"lebzunovo","country":"ru","lat":57.2353,"lon":36.7163},{"id":2566529,"name":"zadniy dvor","country":"ru","lat":56.5505,"lon":36.8917},{"id":2405384,"name":"gusenki","country":"ru","lat":56.633333,"lon":37.466667},{"id":2510788,"name":"seninskoye","country":"ru","lat":56.6614,"lon":36.9518},{"id":2535382,"name":"terebotun","country":"ru","lat":57.383333,"lon":36.916667},{"id":2539553,"name":"trufanovo","country":"ru","lat":57.0012,"lon":37.2964},{"id":2457722,"name":"merilovo","country":"ru","lat":56.883333,"lon":36.816667},{"id":2377893,"name":"bolshoye vasilevo","country":"ru","lat":57.0038,"lon":37.2153},{"id":2376414,"name":"bolshiye kruttsy","country":"ru","lat":57.3476,"lon":37.4264},{"id":2404862,"name":"gubin ugol","country":"ru","lat":56.816667,"lon":37.2},{"id":2451082,"name":"malchikino","country":"ru","lat":57.216667,"lon":37.433333},{"id":2539711,"name":"tryastsino","country":"ru","lat":56.683333,"lon":36.566667},{"id":2467705,"name":"nikolo-yam","country":"ru","lat":57.133333,"lon":37.25},{"id":2370967,"name":"bereslavo","country":"ru","lat":57.116667,"lon":37.0},{"id":2511494,"name":"sergovo","country":"ru","lat":57.316667,"lon":36.916667},{"id":2475003,"name":"novoshino","country":"ru","lat":56.633333,"lon":36.7},{"id":2561250,"name":"yaroslavets","country":"ru","lat":57.1512,"lon":36.9734},{"id":2382351,"name":"burovichi","country":"ru","lat":57.0376,"lon":37.3228},{"id":2466018,"name":"neklyudovo","country":"ru","lat":57.137222,"lon":37.342778},{"id":2384534,"name":"chekhovo","country":"ru","lat":57.2948,"lon":36.6182},{"id":2428478,"name":"korino","country":"ru","lat":57.384,"lon":36.5716},{"id":2363074,"name":"aparnikovo","country":"ru","lat":57.183333,"lon":37.4},{"id":2522465,"name":"sorokopenino","country":"ru","lat":56.6716,"lon":36.8186},{"id":2464264,"name":"naberezhnaya","country":"ru","lat":57.116667,"lon":37.216667},{"id":2401919,"name":"gorka lenina","country":"ru","lat":57.3819,"lon":36.6462},{"id":2546983,"name":"utenino","country":"ru","lat":56.716667,"lon":37.366667},{"id":2393054,"name":"druzyayevo","country":"ru","lat":57.468,"lon":36.6694},{"id":2557615,"name":"voznesenskoye","country":"ru","lat":57.316667,"lon":37.166667},{"id":2495866,"name":"potupovo","country":"ru","lat":57.3047,"lon":37.4465},{"id":2466275,"name":"nemirovo","country":"ru","lat":57.410278,"lon":36.683889},{"id":2406956,"name":"ilkovo","country":"ru","lat":57.403,"lon":37.4415},{"id":2449891,"name":"maksimovskaya gorka","country":"ru","lat":57.4899,"lon":37.0563},{"id":2530633,"name":"sushchevo","country":"ru","lat":56.7697,"lon":36.5241},{"id":2521344,"name":"sokolovo-koshkarevo","country":"ru","lat":57.3192,"lon":37.4796},{"id":2390293,"name":"derevenka","country":"ru","lat":57.303,"lon":37.3634},{"id":2373168,"name":"blizhneye khoroshovo","country":"ru","lat":56.8274,"lon":36.6223},{"id":2491858,"name":"podterebovo","country":"ru","lat":56.5097,"lon":36.9057},{"id":2460639,"name":"mokhovoye vtoroye","country":"ru","lat":56.581,"lon":36.6781},{"id":2539267,"name":"trosukhino","country":"ru","lat":57.3394,"lon":37.1745},{"id":2400058,"name":"glukhino","country":"ru","lat":57.073,"lon":37.1509},{"id":2373783,"name":"bogatyrevo","country":"ru","lat":57.3384,"lon":36.7281},{"id":2500108,"name":"radnevo","country":"ru","lat":57.3303,"lon":37.0649},{"id":2479493,"name":"okulovo","country":"ru","lat":56.883333,"lon":36.733333},{"id":2415098,"name":"kashinka","country":"ru","lat":57.4688,"lon":36.5129},{"id":2499400,"name":"putyshino","country":"ru","lat":57.1446,"lon":36.9895},{"id":2359023,"name":"akatova","country":"ru","lat":57.133333,"lon":37.45},{"id":2549851,"name":"verbezhi","country":"ru","lat":57.45,"lon":36.583333},{"id":2535094,"name":"tempy","country":"ru","lat":56.633333,"lon":37.3},{"id":2453351,"name":"malyye ruchi","country":"ru","lat":56.5891,"lon":36.9659},{"id":2409871,"name":"iyevlevo","country":"ru","lat":57.2128,"lon":36.5077},{"id":2487288,"name":"pervomaysk","country":"ru","lat":56.588,"lon":36.6153},{"id":2491545,"name":"podolitsy","country":"ru","lat":57.4232,"lon":36.9905},{"id":2374281,"name":"bokarevo","country":"ru","lat":57.4436,"lon":36.9796},{"id":2571133,"name":"zhikhino","country":"ru","lat":57.2269,"lon":36.5701},{"id":2465942,"name":"negodyayevo","country":"ru","lat":56.6,"lon":36.933333},{"id":2558228,"name":"vvedenskoye","country":"ru","lat":57.2958,"lon":37.4279},{"id":2399899,"name":"glintsovo","country":"ru","lat":57.0314,"lon":36.9266},{"id":2411593,"name":"kalitsyno","country":"ru","lat":57.2929,"lon":37.0696},{"id":2435182,"name":"krivonogovo","country":"ru","lat":56.866667,"lon":37.366667},{"id":2515128,"name":"shevrigino","country":"ru","lat":57.2075,"lon":37.1191},{"id":2402844,"name":"gorychkino","country":"ru","lat":56.866667,"lon":37.15},{"id":2361678,"name":"anashkino","country":"ru","lat":56.9,"lon":36.533333},{"id":2540468,"name":"tsybino","country":"ru","lat":56.8731,"lon":36.8128},{"id":2485834,"name":"pechetovo","country":"ru","lat":57.1409,"lon":37.0039},{"id":2442882,"name":"lebzino","country":"ru","lat":56.733333,"lon":37.45},{"id":2378936,"name":"borisouskoye","country":"ru","lat":57.463889,"lon":36.996389},{"id":2475866,"name":"novoye domkino","country":"ru","lat":56.7,"lon":37.083333},{"id":2533702,"name":"tarlakovo","country":"ru","lat":56.6,"lon":36.916667},{"id":2414665,"name":"karpovskoye","country":"ru","lat":56.8492,"lon":36.6847},{"id":2456634,"name":"mazlovo","country":"ru","lat":57.0739,"lon":37.0462},{"id":2555937,"name":"voloskovo","country":"ru","lat":57.239444,"lon":36.676667},{"id":2373246,"name":"bludi","country":"ru","lat":57.1887,"lon":36.5631},{"id":2490886,"name":"podberezhe","country":"ru","lat":56.766667,"lon":37.166667},{"id":2459167,"name":"miloslavskoye","country":"ru","lat":57.4514,"lon":37.4759},{"id":2434239,"name":"krasnyy pakhar","country":"ru","lat":57.1408,"lon":36.5001},{"id":2444999,"name":"lipino","country":"ru","lat":56.65,"lon":37.133333},{"id":2364595,"name":"aspidnikovo","country":"ru","lat":57.2777,"lon":37.4083},{"id":2494381,"name":"popovskoye","country":"ru","lat":56.85,"lon":36.716667},{"id":2427988,"name":"koprilovo","country":"ru","lat":57.0533,"lon":37.0701},{"id":2550066,"name":"verezino","country":"ru","lat":57.35,"lon":37.366667},{"id":2456914,"name":"medvednoye","country":"ru","lat":57.4343,"lon":36.9805},{"id":2379857,"name":"boshvino","country":"ru","lat":57.253611,"lon":37.480556},{"id":2460905,"name":"mokshino","country":"ru","lat":56.581,"lon":36.5015},{"id":2435586,"name":"kruglitsa","country":"ru","lat":57.15,"lon":36.933333},{"id":2484274,"name":"panovka","country":"ru","lat":56.683333,"lon":37.416667},{"id":2391880,"name":"dolinki","country":"ru","lat":56.6549,"lon":36.7081},{"id":2558851,"name":"vyrkino","country":"ru","lat":57.2882,"lon":36.8108},{"id":2402616,"name":"gorozhankino","country":"ru","lat":57.1527,"lon":36.9563},{"id":2569091,"name":"zavody","country":"ru","lat":57.3464,"lon":37.0317},{"id":2421638,"name":"kimry","country":"ru","lat":56.866667,"lon":37.35},{"id":2423706,"name":"klitino","country":"ru","lat":57.3389,"lon":37.3506},{"id":2382984,"name":"byakovo","country":"ru","lat":57.3847,"lon":37.357},{"id":2536790,"name":"titkovo","country":"ru","lat":56.5183,"lon":36.7612},{"id":2372496,"name":"bikolovo","country":"ru","lat":57.1082,"lon":37.0233},{"id":2359711,"name":"akulovo","country":"ru","lat":57.3311,"lon":36.5534},{"id":2507497,"name":"samorezovo","country":"ru","lat":56.9183,"lon":36.6502},{"id":2437169,"name":"kukino","country":"ru","lat":57.3131,"lon":36.6282},{"id":2493967,"name":"ponizorye","country":"ru","lat":57.0524,"lon":37.3557},{"id":2374240,"name":"bogunino","country":"ru","lat":56.833333,"lon":37.316667},{"id":2451861,"name":"maloye chirikovo","country":"ru","lat":57.0776,"lon":37.0972},{"id":2513748,"name":"shchelkovo","country":"ru","lat":56.6091,"lon":36.6107},{"id":2389860,"name":"dementyevo","country":"ru","lat":57.3809,"lon":37.0479},{"id":2430728,"name":"kotovarovo","country":"ru","lat":57.0149,"lon":37.0472},{"id":2481532,"name":"osinovki","country":"ru","lat":56.6459,"lon":36.609},{"id":2424645,"name":"kochemli","country":"ru","lat":57.416667,"lon":37.016667},{"id":2365105,"name":"avdelikha","country":"ru","lat":57.1246,"lon":36.761},{"id":2484343,"name":"panskovo","country":"ru","lat":57.154167,"lon":36.818611},{"id":2385338,"name":"cherkasino","country":"ru","lat":57.1991,"lon":36.7685},{"id":2483983,"name":"paltsyno","country":"ru","lat":57.366667,"lon":37.233333},{"id":2399209,"name":"georgiyevskiy","country":"ru","lat":56.5162,"lon":36.9094},{"id":2399275,"name":"gerasimovo","country":"ru","lat":57.0076,"lon":37.0492},{"id":2399014,"name":"gaynovo","country":"ru","lat":57.048889,"lon":36.838056},{"id":2390938,"name":"dityatevo","country":"ru","lat":57.0715,"lon":36.7769},{"id":2526711,"name":"staroye stashchino","country":"ru","lat":57.4811,"lon":37.4768},{"id":2375708,"name":"bolshaya volga","country":"ru","lat":56.733333,"lon":37.15},{"id":2528797,"name":"strizhovo","country":"ru","lat":57.4461,"lon":36.7503},{"id":2477115,"name":"novyye shatrishchi","country":"ru","lat":57.0648,"lon":37.4858},{"id":2362014,"name":"andreytsevo","country":"ru","lat":56.766667,"lon":36.666667},{"id":2453366,"name":"malyye setki","country":"ru","lat":57.333333,"lon":36.816667},{"id":2562666,"name":"yeldino","country":"ru","lat":56.5667,"lon":36.5451},{"id":2432575,"name":"krasnenkoye","country":"ru","lat":57.2987,"lon":36.588},{"id":2474671,"name":"novosalovo","country":"ru","lat":57.1719,"lon":37.1241},{"id":2425471,"name":"kolentsevo","country":"ru","lat":57.2001,"lon":37.1125},{"id":2517850,"name":"siblovo","country":"ru","lat":57.215,"lon":36.6877},{"id":2518940,"name":"sivtsevo","country":"ru","lat":57.315,"lon":36.6523},{"id":2370551,"name":"belyayevo-goritskoye","country":"ru","lat":57.139,"lon":36.7748},{"id":2436141,"name":"kruzhkovo","country":"ru","lat":57.4801,"lon":37.4104},{"id":2409775,"name":"ivlevo","country":"ru","lat":57.35,"lon":36.533333},{"id":2530220,"name":"sumino","country":"ru","lat":57.42,"lon":37.2326},{"id":2367373,"name":"barannikovo","country":"ru","lat":56.55,"lon":37.033333},{"id":2487392,"name":"pervoye maya","country":"ru","lat":56.8554,"lon":36.6886},{"id":2488159,"name":"petrakovo","country":"ru","lat":57.302,"lon":36.6943},{"id":2565829,"name":"yuryevo-devichye","country":"ru","lat":56.7,"lon":36.65},{"id":2519441,"name":"skriplevo","country":"ru","lat":57.2084,"lon":36.8855},{"id":2427715,"name":"kontsevo","country":"ru","lat":56.9682,"lon":36.8367},{"id":2552907,"name":"verkhnyaya","country":"ru","lat":57.256667,"lon":37.139722},{"id":2570661,"name":"zhelnikha","country":"ru","lat":57.2675,"lon":36.7357},{"id":2497630,"name":"prokunino","country":"ru","lat":57.2764,"lon":36.9572},{"id":2384878,"name":"chentsy","country":"ru","lat":57.233333,"lon":37.416667},{"id":2517362,"name":"shumnovo","country":"ru","lat":56.716667,"lon":36.866667},{"id":2426060,"name":"kolpachikha","country":"ru","lat":57.2499,"lon":36.9924},{"id":2527198,"name":"staryye migloshchi","country":"ru","lat":57.1064,"lon":37.4942},{"id":2387948,"name":"chukhovo","country":"ru","lat":57.0748,"lon":36.7396},{"id":2394643,"name":"dyagilevo","country":"ru","lat":56.919,"lon":36.614},{"id":2571357,"name":"zhitishchi","country":"ru","lat":57.463,"lon":36.5212},{"id":2411323,"name":"kalinino","country":"ru","lat":57.0202,"lon":37.0499},{"id":2544226,"name":"unitskaya gorka","country":"ru","lat":57.4586,"lon":37.2357},{"id":2392090,"name":"domkino","country":"ru","lat":56.683333,"lon":37.066667},{"id":2526643,"name":"staroye savelovo","country":"ru","lat":56.883333,"lon":37.383333},{"id":2380399,"name":"brevnovo","country":"ru","lat":56.829,"lon":36.9859},{"id":2477109,"name":"novyye selishchi","country":"ru","lat":57.010556,"lon":37.426944},{"id":2514887,"name":"sheshakovo","country":"ru","lat":56.5581,"lon":36.5476},{"id":2436144,"name":"kryachkovo","country":"ru","lat":56.956,"lon":36.9152},{"id":2402977,"name":"gostilovo","country":"ru","lat":57.1859,"lon":36.6687},{"id":2565359,"name":"yurenevo","country":"ru","lat":56.6852,"lon":36.9316},{"id":2441981,"name":"lapshino","country":"ru","lat":57.2646,"lon":37.4435},{"id":2573157,"name":"zubyrino","country":"ru","lat":57.0344,"lon":36.781},{"id":2555397,"name":"voldyn","country":"ru","lat":56.733333,"lon":37.316667},{"id":2393757,"name":"dudinets","country":"ru","lat":57.3652,"lon":36.5351},{"id":2522489,"name":"soronino","country":"ru","lat":57.4015,"lon":37.1347},{"id":2452335,"name":"maloye semenovo","country":"ru","lat":56.9466,"lon":36.89},{"id":2481315,"name":"oshitkovo","country":"ru","lat":57.205,"lon":36.7369},{"id":2556745,"name":"vorotnevo","country":"ru","lat":57.3411,"lon":36.6348},{"id":2388872,"name":"dalneye-khoroshevo","country":"ru","lat":56.833333,"lon":36.633333},{"id":2505762,"name":"rybushkino","country":"ru","lat":57.2307,"lon":36.7424},{"id":2498265,"name":"prudtsy","country":"ru","lat":57.0371,"lon":37.2498},{"id":2409269,"name":"ivanorskoye","country":"ru","lat":57.311111,"lon":36.698333},{"id":2522574,"name":"soshnikovo","country":"ru","lat":57.05,"lon":37.183333},{"id":2494702,"name":"posady","country":"ru","lat":57.2351,"lon":37.1749},{"id":2451231,"name":"malino","country":"ru","lat":57.4596,"lon":37.0533},{"id":2431474,"name":"kozloki","country":"ru","lat":56.7,"lon":37.2},{"id":2501174,"name":"rayga","country":"ru","lat":57.35,"lon":36.916667},{"id":2378548,"name":"bolshukha","country":"ru","lat":57.4172,"lon":36.5381},{"id":2462286,"name":"moskvitino","country":"ru","lat":57.18,"lon":36.9684},{"id":2554894,"name":"vladykino","country":"ru","lat":56.5159,"lon":36.7129},{"id":2568156,"name":"zaprudnya","country":"ru","lat":56.566667,"lon":37.433333},{"id":2420130,"name":"khotuti","country":"ru","lat":57.213,"lon":36.6636},{"id":2499249,"name":"pustyri","country":"ru","lat":57.043611,"lon":36.765278},{"id":2548030,"name":"vandyshevo","country":"ru","lat":57.066667,"lon":36.9},{"id":2461116,"name":"molodi","country":"ru","lat":57.2432,"lon":36.7284},{"id":2466355,"name":"nenorovo","country":"ru","lat":57.2798,"lon":36.812},{"id":2379813,"name":"borzikovo","country":"ru","lat":56.9365,"lon":36.9754},{"id":2528280,"name":"stolbovo","country":"ru","lat":57.4752,"lon":36.561},{"id":2461013,"name":"molgino","country":"ru","lat":56.9725,"lon":36.8433},{"id":2379617,"name":"borshcheva","country":"ru","lat":56.5,"lon":36.85},{"id":2461808,"name":"morozovka","country":"ru","lat":57.3539,"lon":36.5508},{"id":2414348,"name":"karl marks","country":"ru","lat":56.6,"lon":36.616667},{"id":2500151,"name":"radovanye","country":"ru","lat":57.0142,"lon":37.1377},{"id":2396517,"name":"fedosino","country":"ru","lat":57.3774,"lon":37.3539},{"id":2534699,"name":"teblesh","country":"ru","lat":57.473056,"lon":36.62},{"id":2461654,"name":"morevo","country":"ru","lat":57.4211,"lon":37.4333},{"id":2470478,"name":"nizhnyaya troitsa","country":"ru","lat":57.2594,"lon":37.3615},{"id":2492901,"name":"polevaya","country":"ru","lat":56.9,"lon":37.333333},{"id":2558700,"name":"vygolovo","country":"ru","lat":57.116667,"lon":37.083333},{"id":2445766,"name":"lobkovo","country":"ru","lat":57.388611,"lon":37.462222},{"id":2408997,"name":"itkovo","country":"ru","lat":57.3141,"lon":37.3061},{"id":2491995,"name":"podyelye","country":"ru","lat":57.2946,"lon":36.8639},{"id":2418025,"name":"kharpayevo","country":"ru","lat":57.072,"lon":37.3503},{"id":2568141,"name":"zaprudnaya","country":"ru","lat":57.016667,"lon":37.233333},{"id":2357896,"name":"abaturovo","country":"ru","lat":57.014,"lon":37.0756},{"id":2535821,"name":"teshelevo","country":"ru","lat":56.95,"lon":36.633333},{"id":2457173,"name":"meldino","country":"ru","lat":56.666667,"lon":37.25},{"id":2515392,"name":"shikhurovo","country":"ru","lat":57.4327,"lon":37.3161},{"id":2538350,"name":"trakhova","country":"ru","lat":56.9776,"lon":36.9152},{"id":2406744,"name":"ilinka","country":"ru","lat":57.3739,"lon":36.5869},{"id":2449482,"name":"makedonovo","country":"ru","lat":57.4173,"lon":37.2664},{"id":2461206,"name":"molostovo","country":"ru","lat":56.983333,"lon":37.083333},{"id":2541498,"name":"turovino","country":"ru","lat":57.202,"lon":37.4137},{"id":2450185,"name":"malaya borshchevka","country":"ru","lat":56.55,"lon":36.883333},{"id":2527802,"name":"stepandino","country":"ru","lat":57.4644,"lon":36.9503},{"id":2514328,"name":"shelbodino","country":"ru","lat":57.4613,"lon":36.6397},{"id":2501036,"name":"ratmino","country":"ru","lat":56.783333,"lon":37.233333},{"id":2515081,"name":"shevelevo","country":"ru","lat":56.916667,"lon":37.35},{"id":2363740,"name":"arkhangelskoye","country":"ru","lat":56.5813,"lon":36.5475},{"id":2391935,"name":"dolnitsy","country":"ru","lat":57.3212,"lon":36.8327},{"id":2482814,"name":"ovsevyevo","country":"ru","lat":57.1497,"lon":36.775},{"id":2490302,"name":"ploski","country":"ru","lat":56.666667,"lon":36.65},{"id":2397097,"name":"filippkovo","country":"ru","lat":57.210833,"lon":36.645556},{"id":2545197,"name":"usady","country":"ru","lat":56.933333,"lon":37.133333},{"id":2486204,"name":"penye","country":"ru","lat":56.633333,"lon":36.95},{"id":2449928,"name":"maksimtsevo","country":"ru","lat":56.916667,"lon":36.9},{"id":2436931,"name":"kudryavtsevo","country":"ru","lat":56.733333,"lon":36.6},{"id":2401148,"name":"goluzino","country":"ru","lat":57.0715,"lon":37.3633},{"id":2560938,"name":"yanino","country":"ru","lat":57.019722,"lon":37.159722},{"id":2490332,"name":"ploskovo","country":"ru","lat":57.016667,"lon":37.1},{"id":2525395,"name":"starenkoye","country":"ru","lat":56.7523,"lon":36.5271},{"id":2522670,"name":"sosnovitsy","country":"ru","lat":57.1242,"lon":37.2683},{"id":2417994,"name":"kharlovo","country":"ru","lat":56.816667,"lon":36.816667},{"id":2427718,"name":"kontsovo","country":"ru","lat":56.5119,"lon":36.5576},{"id":2528608,"name":"strelikha","country":"ru","lat":57.468056,"lon":37.154444},{"id":2568510,"name":"zaruchyevo","country":"ru","lat":57.0336,"lon":37.0937},{"id":2452191,"name":"maloye ogryzlovo","country":"ru","lat":57.0,"lon":37.2},{"id":2360719,"name":"aleshovo","country":"ru","lat":57.2848,"lon":36.9502},{"id":2396995,"name":"filimonovo","country":"ru","lat":56.624,"lon":36.8469},{"id":2473989,"name":"novo-nikitskoye","country":"ru","lat":57.133333,"lon":36.783333},{"id":2506586,"name":"safoneyevo","country":"ru","lat":57.3357,"lon":37.1155},{"id":2526213,"name":"starovo-ponizovye","country":"ru","lat":57.2472,"lon":36.5856},{"id":2371040,"name":"berezhay","country":"ru","lat":57.4397,"lon":36.9644},{"id":2539717,"name":"tryshikha","country":"ru","lat":57.1831,"lon":36.7199},{"id":2560642,"name":"yamki","country":"ru","lat":56.936,"lon":36.687},{"id":2468817,"name":"nizhnevo","country":"ru","lat":56.533333,"lon":37.1},{"id":2482138,"name":"ostrovo","country":"ru","lat":57.036389,"lon":36.513889},{"id":2500124,"name":"radomino","country":"ru","lat":57.2509,"lon":36.7624},{"id":2532657,"name":"takovaya","country":"ru","lat":57.2164,"lon":36.5724},{"id":2380492,"name":"brodkovo","country":"ru","lat":57.3569,"lon":36.6005},{"id":2509724,"name":"selikhovo","country":"ru","lat":56.666667,"lon":36.816667},{"id":2566382,"name":"zaborovye","country":"ru","lat":56.6767,"lon":36.6565},{"id":2423323,"name":"klestovo","country":"ru","lat":57.4134,"lon":37.4385},{"id":2429256,"name":"korshchevo","country":"ru","lat":57.216667,"lon":36.716667},{"id":2494197,"name":"poplevino","country":"ru","lat":57.4028,"lon":36.6814},{"id":2548687,"name":"vasilkovo","country":"ru","lat":56.832,"lon":36.5037},{"id":2394352,"name":"dutshevo","country":"ru","lat":56.6,"lon":37.133333},{"id":2513351,"name":"shatilova gorka","country":"ru","lat":57.3804,"lon":37.1774},{"id":2470911,"name":"nosilovo","country":"ru","lat":57.376389,"lon":36.691944},{"id":2546414,"name":"ust-pristan","country":"ru","lat":56.5,"lon":37.116667},{"id":2482005,"name":"ostrilovo","country":"ru","lat":57.1869,"lon":37.3242},{"id":2422878,"name":"kiverichi","country":"ru","lat":57.366389,"lon":36.595556},{"id":2547656,"name":"vakhonino","country":"ru","lat":56.6129,"lon":36.6276},{"id":2508988,"name":"savtsino","country":"ru","lat":57.420833,"lon":37.155},{"id":2560100,"name":"yakimtsevo","country":"ru","lat":57.1443,"lon":36.6936},{"id":2459033,"name":"mikulino","country":"ru","lat":57.033333,"lon":37.483333},{"id":2460013,"name":"mitrofanikha","country":"ru","lat":57.2184,"lon":36.9359},{"id":2522128,"name":"somnitsa","country":"ru","lat":57.233,"lon":37.0333},{"id":2571316,"name":"zhiroslavka","country":"ru","lat":57.183333,"lon":36.55},{"id":2453926,"name":"mamatovo","country":"ru","lat":57.3088,"lon":37.2225},{"id":2504716,"name":"rusilovo","country":"ru","lat":57.2088,"lon":36.7665},{"id":2572641,"name":"zobnino","country":"ru","lat":57.309722,"lon":37.369167},{"id":2500281,"name":"raguzino","country":"ru","lat":57.2443,"lon":37.3591},{"id":2409093,"name":"ivakino","country":"ru","lat":57.0007,"lon":37.2682},{"id":2506653,"name":"safronova","country":"ru","lat":57.333333,"lon":37.2},{"id":2434435,"name":"krasnyy vyselok","country":"ru","lat":57.1063,"lon":36.7447},{"id":2458478,"name":"mikhalikha","country":"ru","lat":56.8417,"lon":36.6698},{"id":2435706,"name":"krupenino","country":"ru","lat":56.5,"lon":36.916667},{"id":2501851,"name":"redrikovo","country":"ru","lat":57.0853,"lon":37.0983},{"id":2496306,"name":"pravda","country":"ru","lat":57.2,"lon":36.783333},{"id":2423816,"name":"klyasovo","country":"ru","lat":57.1348,"lon":37.1654},{"id":2396301,"name":"fedorishchi","country":"ru","lat":57.4922,"lon":36.995},{"id":2365899,"name":"babnya","country":"ru","lat":56.7739,"lon":36.7143},{"id":2446249,"name":"lomovo","country":"ru","lat":57.055,"lon":36.7956},{"id":2368545,"name":"baturovo","country":"ru","lat":57.3939,"lon":37.1619},{"id":2371656,"name":"berkovshchina","country":"ru","lat":57.2553,"lon":36.7304},{"id":2423335,"name":"kletino","country":"ru","lat":56.8,"lon":37.3},{"id":2454710,"name":"marinka","country":"ru","lat":57.1183,"lon":36.6823},{"id":2419496,"name":"kholstovo","country":"ru","lat":57.3072,"lon":37.1305},{"id":2462343,"name":"mostishchi","country":"ru","lat":57.2972,"lon":37.1498},{"id":2482557,"name":"otrubnevo","country":"ru","lat":57.2842,"lon":37.2013},{"id":2487845,"name":"peskoshevo","country":"ru","lat":57.219,"lon":36.5364},{"id":2401187,"name":"golyavino","country":"ru","lat":57.0823,"lon":37.0777},{"id":2413323,"name":"karachary","country":"ru","lat":56.683333,"lon":36.7},{"id":2400488,"name":"gogotovo","country":"ru","lat":57.2992,"lon":37.3364},{"id":2475654,"name":"novovvedenskoye","country":"ru","lat":57.466667,"lon":37.2},{"id":2426256,"name":"kolyakovo","country":"ru","lat":57.3115,"lon":36.9828},{"id":2549854,"name":"verbilkovo","country":"ru","lat":56.9517,"lon":36.8205},{"id":2543175,"name":"ukhovo","country":"ru","lat":57.204722,"lon":37.054722},{"id":2529382,"name":"sudnikovo","country":"ru","lat":57.2649,"lon":37.4268},{"id":2445459,"name":"lisya sloboda","country":"ru","lat":57.428333,"lon":37.375833},{"id":2393729,"name":"dudakovo","country":"ru","lat":57.4611,"lon":36.7182},{"id":2449995,"name":"malafeyevo","country":"ru","lat":57.4119,"lon":37.467},{"id":2482543,"name":"otroslovlya","country":"ru","lat":57.0707,"lon":37.1449},{"id":2376667,"name":"bolshiye setki","country":"ru","lat":57.333333,"lon":36.8},{"id":2549926,"name":"vereinka","country":"ru","lat":57.1243,"lon":36.7302},{"id":2486592,"name":"peretrusovo","country":"ru","lat":56.85,"lon":36.883333},{"id":2409727,"name":"ivina gorka","country":"ru","lat":57.3624,"lon":37.2735},{"id":2517591,"name":"shushpanovo","country":"ru","lat":57.1102,"lon":37.425},{"id":2470805,"name":"norbuzhye","country":"ru","lat":57.1795,"lon":37.3776},{"id":2396383,"name":"fedorovo","country":"ru","lat":57.1365,"lon":36.6854},{"id":2379649,"name":"borshchevo","country":"ru","lat":57.316667,"lon":37.366667},{"id":2550126,"name":"verkhanovo","country":"ru","lat":56.666667,"lon":36.9},{"id":2447128,"name":"lugino","country":"ru","lat":57.0835,"lon":36.6911},{"id":2399875,"name":"glinniki","country":"ru","lat":56.75,"lon":36.733333},{"id":2528458,"name":"stoyantsy","country":"ru","lat":56.983333,"lon":36.816667},{"id":2564680,"name":"yezhikha","country":"ru","lat":57.4866,"lon":37.1877},{"id":2522966,"name":"sotskoye","country":"ru","lat":57.1,"lon":37.116667},{"id":2424094,"name":"klyukino","country":"ru","lat":57.3824,"lon":36.8586},{"id":2455877,"name":"matino","country":"ru","lat":57.3036,"lon":37.1487},{"id":2572296,"name":"zinovka","country":"ru","lat":57.4825,"lon":36.9517},{"id":2515260,"name":"shiblino","country":"ru","lat":57.0522,"lon":37.3749},{"id":2485614,"name":"pavlyukovo","country":"ru","lat":56.5547,"lon":36.5394},{"id":2359310,"name":"akimovskoye","country":"ru","lat":56.9417,"lon":36.8877},{"id":2400648,"name":"golnevo","country":"ru","lat":57.4503,"lon":37.2316},{"id":2437800,"name":"kulovo","country":"ru","lat":57.466667,"lon":36.683333},{"id":2447036,"name":"luchkino","country":"ru","lat":56.8,"lon":36.5},{"id":2420173,"name":"khovrino","country":"ru","lat":57.0109,"lon":36.7811},{"id":2377107,"name":"bolshoye chirikovo","country":"ru","lat":57.1404,"lon":37.2642},{"id":2491637,"name":"podosenovo","country":"ru","lat":57.209,"lon":37.4037},{"id":2401457,"name":"gorbasyevo","country":"ru","lat":56.6,"lon":36.733333},{"id":2553720,"name":"veska","country":"ru","lat":57.2971,"lon":36.8884},{"id":2485942,"name":"pekarevo","country":"ru","lat":57.0673,"lon":36.8605},{"id":2382996,"name":"byashevo","country":"ru","lat":57.0754,"lon":37.266},{"id":2529069,"name":"studenoye pole","country":"ru","lat":57.262222,"lon":37.317222},{"id":2403977,"name":"grigoryevskoye","country":"ru","lat":57.0653,"lon":37.2491},{"id":2468087,"name":"nikulkino","country":"ru","lat":57.2126,"lon":37.1366},{"id":2517150,"name":"shukolovo","country":"ru","lat":56.5963,"lon":36.6103},{"id":2527246,"name":"staryye shatrishchi","country":"ru","lat":57.0615,"lon":37.4965},{"id":2379803,"name":"borzenevo","country":"ru","lat":56.8676,"lon":36.5691},{"id":2385680,"name":"cherneyevo","country":"ru","lat":57.3976,"lon":36.5853},{"id":2432527,"name":"krasnaya znamya","country":"ru","lat":57.4671,"lon":36.9783},{"id":2457307,"name":"melgunovo","country":"ru","lat":56.95,"lon":37.433333},{"id":2565345,"name":"yurchakovo","country":"ru","lat":57.3615,"lon":37.2081},{"id":2476264,"name":"novoye selo","country":"ru","lat":56.883333,"lon":37.483333},{"id":2455314,"name":"martyntsevo","country":"ru","lat":56.95,"lon":36.866667},{"id":2388184,"name":"chupeyevo","country":"ru","lat":57.1077,"lon":37.45},{"id":2429851,"name":"koshurino","country":"ru","lat":57.4144,"lon":37.1174},{"id":2402980,"name":"gostinezh","country":"ru","lat":57.3292,"lon":36.8829},{"id":2547684,"name":"vakhromeyevo","country":"ru","lat":56.6711,"lon":36.716},{"id":2393484,"name":"dubrava","country":"ru","lat":57.156944,"lon":37.094167},{"id":2414604,"name":"karpovka","country":"ru","lat":57.126,"lon":37.2337},{"id":2391172,"name":"dmitrova gora","country":"ru","lat":56.666667,"lon":36.983333},{"id":2359786,"name":"aladino","country":"ru","lat":57.3426,"lon":37.41},{"id":2519477,"name":"skrylevo","country":"ru","lat":56.733333,"lon":36.766667},{"id":2554775,"name":"vladimirovka","country":"ru","lat":57.364,"lon":36.5802},{"id":2461754,"name":"morovo","country":"ru","lat":57.4547,"lon":36.6061},{"id":2569401,"name":"zbynevlya","country":"ru","lat":57.1766,"lon":36.7184},{"id":2436435,"name":"kstinovo","country":"ru","lat":57.1292,"lon":37.264},{"id":2467665,"name":"nikolo-neveryevo","country":"ru","lat":57.1,"lon":37.0},{"id":2362457,"name":"ankudinikha","country":"ru","lat":57.3012,"lon":36.6079},{"id":2398913,"name":"gavriltsevo","country":"ru","lat":57.4365,"lon":37.4645},{"id":2377696,"name":"bolshoye savino","country":"ru","lat":57.4321,"lon":37.1728},{"id":2395622,"name":"energetik","country":"ru","lat":56.6696,"lon":36.6869},{"id":2541858,"name":"tvorogovo","country":"ru","lat":57.1073,"lon":37.0581},{"id":2425192,"name":"kokourovo","country":"ru","lat":57.0724,"lon":37.2809},{"id":2535936,"name":"tetkovo","country":"ru","lat":57.2504,"lon":37.1739},{"id":2501676,"name":"rechitsy","country":"ru","lat":56.7296,"lon":36.8228},{"id":2499236,"name":"pustyn","country":"ru","lat":57.1072,"lon":36.6895},{"id":2507238,"name":"saltykovo","country":"ru","lat":57.433333,"lon":37.366667},{"id":2464465,"name":"nadmoshye","country":"ru","lat":56.5,"lon":37.416667},{"id":2523461,"name":"spas-na-sozi","country":"ru","lat":56.9671,"lon":36.6546},{"id":2479091,"name":"okayemovo","country":"ru","lat":57.0128,"lon":37.266},{"id":2571880,"name":"zhurovo","country":"ru","lat":57.0636,"lon":37.4096},{"id":2521057,"name":"sofonyevo","country":"ru","lat":57.266667,"lon":36.783333},{"id":2497081,"name":"prislon","country":"ru","lat":56.8,"lon":37.266667},{"id":2377294,"name":"bolshoye kobylino","country":"ru","lat":57.348,"lon":37.322},{"id":2475738,"name":"novoye akatovo","country":"ru","lat":57.142222,"lon":37.465},{"id":2383583,"name":"chagino","country":"ru","lat":57.322,"lon":37.3066},{"id":2420086,"name":"khotmirovo","country":"ru","lat":56.9048,"lon":36.5871},{"id":2401929,"name":"gorka uritskogo","country":"ru","lat":57.3824,"lon":36.5487},{"id":2540871,"name":"tulovo","country":"ru","lat":57.4517,"lon":37.379},{"id":2490537,"name":"plyugino","country":"ru","lat":57.219,"lon":37.1461},{"id":2381451,"name":"bukhvostovo","country":"ru","lat":57.2991,"lon":37.3472},{"id":2519289,"name":"skornevo","country":"ru","lat":57.2685,"lon":37.059},{"id":2396860,"name":"fetenino","country":"ru","lat":57.0216,"lon":37.1419},{"id":2377519,"name":"bolshoye ogryzlovo","country":"ru","lat":57.0,"lon":37.183333},{"id":2519684,"name":"slavgushchi","country":"ru","lat":57.27,"lon":36.6184},{"id":2463912,"name":"myasnikovo","country":"ru","lat":57.4725,"lon":36.6557},{"id":2452315,"name":"maloye safronovo","country":"ru","lat":57.304,"lon":37.2083},{"id":2371699,"name":"bernikovo","country":"ru","lat":57.0854,"lon":37.1954},{"id":2478767,"name":"odintsovo","country":"ru","lat":57.0464,"lon":37.1329},{"id":2498789,"name":"pupikha","country":"ru","lat":56.6,"lon":37.416667},{"id":2519515,"name":"skulino","country":"ru","lat":56.916667,"lon":37.466667},{"id":2501956,"name":"remennitsy","country":"ru","lat":56.716667,"lon":36.6},{"id":2416956,"name":"keruzino","country":"ru","lat":57.15,"lon":37.333333},{"id":2466945,"name":"nezdenovo","country":"ru","lat":56.8909,"lon":36.9351},{"id":2440564,"name":"kuzminskoye","country":"ru","lat":56.7235,"lon":36.7019},{"id":2401567,"name":"gorbunovo","country":"ru","lat":57.35,"lon":37.1},{"id":2529766,"name":"sukholom","country":"ru","lat":57.3402,"lon":36.7691},{"id":2549542,"name":"velikiy dvor","country":"ru","lat":57.0604,"lon":36.8293},{"id":2502287,"name":"reutovo","country":"ru","lat":57.0549,"lon":37.3909},{"id":2446904,"name":"lubenki","country":"ru","lat":57.3868,"lon":37.4449},{"id":2480732,"name":"oreshkovo","country":"ru","lat":56.7133,"lon":36.683},{"id":2359789,"name":"alafeyevo","country":"ru","lat":57.4622,"lon":36.969},{"id":2446539,"name":"losevka","country":"ru","lat":57.0209,"lon":36.9834},{"id":2519221,"name":"skokovo","country":"ru","lat":57.1772,"lon":36.9484},{"id":2464098,"name":"myslyatino","country":"ru","lat":56.8385,"lon":36.7018},{"id":2403335,"name":"grazhdanka","country":"ru","lat":57.45,"lon":36.966667},{"id":2549540,"name":"velikiy dvor","country":"ru","lat":56.766667,"lon":37.416667},{"id":2467274,"name":"nikitinskoye","country":"ru","lat":56.7323,"lon":36.6173},{"id":2530713,"name":"susolikha","country":"ru","lat":57.2673,"lon":37.2214},{"id":2369732,"name":"belino","country":"ru","lat":57.3821,"lon":37.3042},{"id":2541451,"name":"turleyevo","country":"ru","lat":57.3955,"lon":37.4668},{"id":2429556,"name":"kosarikha","country":"ru","lat":57.2003,"lon":37.1463},{"id":2460740,"name":"mokrikha","country":"ru","lat":57.3556,"lon":36.9886},{"id":2384610,"name":"chelagino","country":"ru","lat":57.3402,"lon":37.4702},{"id":2429633,"name":"koshcheyevo","country":"ru","lat":57.0651,"lon":36.7456},{"id":2548011,"name":"vanchugovo","country":"ru","lat":57.45,"lon":37.45},{"id":2493650,"name":"polyana","country":"ru","lat":57.2815,"lon":36.8954}]});