callback({"markets":[{"id":133468,"name":"peru","country":"ar","lat":-37.660967,"lon":-64.140888},{"id":135489,"name":"unanue","country":"ar","lat":-37.54473,"lon":-64.351494},{"id":135612,"name":"villa alba","country":"ar","lat":-37.979041,"lon":-63.604487},{"id":134148,"name":"remeco","country":"ar","lat":-37.624425,"lon":-63.681723},{"id":127391,"name":"abramo","country":"ar","lat":-37.895068,"lon":-63.851494},{"id":131748,"name":"la portena","country":"ar","lat":-38.266667,"lon":-63.733333},{"id":130164,"name":"epu pel","country":"ar","lat":-37.586831,"lon":-64.308812},{"id":128187,"name":"bernasconi","country":"ar","lat":-37.904589,"lon":-63.742405},{"id":130976,"name":"hucal","country":"ar","lat":-37.79195,"lon":-64.025136},{"id":130852,"name":"guatrache","country":"ar","lat":-37.667758,"lon":-63.530215},{"id":129445,"name":"cotita","country":"ar","lat":-37.7,"lon":-64.066667}]});