callback({"markets":[{"id":1196545,"name":"kandang karbau","country":"id","lat":-1.783333,"lon":109.933333},{"id":1192000,"name":"kaeli","country":"id","lat":-1.816667,"lon":109.933333},{"id":1205637,"name":"ketapang","country":"id","lat":-1.866667,"lon":109.983333},{"id":1215308,"name":"lanjut","country":"id","lat":-2.35,"lon":110.366667},{"id":1226844,"name":"matan","country":"id","lat":-1.866667,"lon":110.0},{"id":1137908,"name":"bagankeminting","country":"id","lat":-1.95,"lon":110.416667},{"id":1292320,"name":"tempurukan","country":"id","lat":-1.733333,"lon":110.05},{"id":1151803,"name":"boedjang tjalit","country":"id","lat":-1.75,"lon":109.983333},{"id":1207751,"name":"koealdpesagoean","country":"id","lat":-2.016667,"lon":110.133333},{"id":1288507,"name":"tanjungberai","country":"id","lat":-1.866667,"lon":109.966667},{"id":1281050,"name":"sukabangun","country":"id","lat":-1.783333,"lon":109.95},{"id":1283427,"name":"sungaibakaij","country":"id","lat":-1.55,"lon":110.05},{"id":1244580,"name":"pangkayasan","country":"id","lat":-2.166667,"lon":110.483333},{"id":1205631,"name":"ketapang kecil","country":"id","lat":-1.833333,"lon":109.966667},{"id":1230150,"name":"moearakajoeng","country":"id","lat":-1.633333,"lon":110.366667},{"id":1287690,"name":"tandjungpasar","country":"id","lat":-1.833333,"lon":110.1},{"id":1229060,"name":"metata","country":"id","lat":-1.833333,"lon":109.933333},{"id":1287076,"name":"tanahtoemboeh","country":"id","lat":-1.7,"lon":110.35},{"id":1240804,"name":"pagarantimoen","country":"id","lat":-2.233333,"lon":110.083333},{"id":1272780,"name":"sentap","country":"id","lat":-1.816667,"lon":110.033333},{"id":1279185,"name":"soengaisembilang","country":"id","lat":-2.083333,"lon":110.133333},{"id":1241800,"name":"pakroewi","country":"id","lat":-2.166667,"lon":110.433333},{"id":1250930,"name":"pelang","country":"id","lat":-1.933333,"lon":110.066667}]});