callback({"markets":[{"id":2125731,"name":"lianutan","country":"ph","lat":5.935833,"lon":121.340556},{"id":2115958,"name":"cota cota","country":"ph","lat":5.797222,"lon":121.146667},{"id":2123105,"name":"kan daga","country":"ph","lat":5.966667,"lon":121.3},{"id":2125427,"name":"latung","country":"ph","lat":5.5,"lon":120.883333},{"id":2140238,"name":"sampalaum","country":"ph","lat":5.808333,"lon":121.136944},{"id":2108803,"name":"bobo","country":"ph","lat":5.939635,"lon":121.267436},{"id":2127532,"name":"luuk tulal","country":"ph","lat":5.792222,"lon":121.154722},{"id":2123202,"name":"kan ligas kara","country":"ph","lat":5.546389,"lon":120.853611},{"id":2134228,"name":"nuitnuit","country":"ph","lat":5.7,"lon":120.816667},{"id":2108660,"name":"bitanag","country":"ph","lat":5.961137,"lon":121.23629},{"id":2136422,"name":"panungan","country":"ph","lat":5.527,"lon":120.9089},{"id":2107165,"name":"bata-bata buanza","country":"ph","lat":6.033333,"lon":121.0},{"id":2106200,"name":"bangay","country":"ph","lat":6.323333,"lon":120.581389},{"id":2143198,"name":"sikulay","country":"ph","lat":6.020833,"lon":121.406944},{"id":2147806,"name":"tubig buan","country":"ph","lat":5.54,"lon":120.861944},{"id":2126787,"name":"lood","country":"ph","lat":6.285556,"lon":120.575278},{"id":2143985,"name":"subah","country":"ph","lat":6.323333,"lon":120.573889},{"id":2147816,"name":"tubig lanut","country":"ph","lat":6.315833,"lon":120.561111},{"id":2104731,"name":"bagun-banga","country":"ph","lat":5.9168,"lon":121.1085},{"id":2148122,"name":"tulakan","country":"ph","lat":5.7187,"lon":120.8838},{"id":2125046,"name":"langus","country":"ph","lat":6.2875,"lon":120.5752},{"id":2147175,"name":"tingcanan","country":"ph","lat":5.695278,"lon":120.802778},{"id":2127153,"name":"lukad","country":"ph","lat":6.3865,"lon":120.6014},{"id":2110209,"name":"bulangal","country":"ph","lat":5.98,"lon":121.295278},{"id":2135895,"name":"pandami","country":"ph","lat":5.5379,"lon":120.7553},{"id":2109573,"name":"bualo lipid","country":"ph","lat":5.931111,"lon":121.004444},{"id":2145680,"name":"tambak","country":"ph","lat":5.968405,"lon":121.367571},{"id":2143991,"name":"subasiba","country":"ph","lat":5.8295,"lon":121.1383},{"id":2123194,"name":"kankabuting","country":"ph","lat":5.945833,"lon":121.398889},{"id":2145482,"name":"talisan","country":"ph","lat":5.581944,"lon":120.84},{"id":2123117,"name":"kandulan","country":"ph","lat":5.9104,"lon":120.9421},{"id":2111577,"name":"cabucan","country":"ph","lat":6.1491,"lon":120.9325},{"id":2109569,"name":"bual bual","country":"ph","lat":6.3092,"lon":120.5512},{"id":2127026,"name":"lubok-lubok","country":"ph","lat":5.945833,"lon":121.165278},{"id":2109483,"name":"boto manga","country":"ph","lat":6.291111,"lon":120.532222},{"id":2123093,"name":"kanaway","country":"ph","lat":5.7058,"lon":120.9168},{"id":2118481,"name":"duplinan","country":"ph","lat":6.2629,"lon":120.6228},{"id":2143378,"name":"simundang","country":"ph","lat":6.293611,"lon":120.543056},{"id":2110511,"name":"bunga-bunga","country":"ph","lat":5.966667,"lon":121.398611},{"id":2143503,"name":"singkab","country":"ph","lat":6.280833,"lon":120.573056},{"id":2116543,"name":"daho","country":"ph","lat":6.275278,"lon":120.56},{"id":2143106,"name":"sicio","country":"ph","lat":5.937777,"lon":121.298855},{"id":2127369,"name":"lungas","country":"ph","lat":6.265,"lon":120.533611},{"id":2108540,"name":"binuang","country":"ph","lat":5.956944,"lon":121.06},{"id":2120190,"name":"gulangan","country":"ph","lat":5.956667,"lon":121.028333},{"id":2147815,"name":"tubig-langkal","country":"ph","lat":5.95362,"lon":121.014042},{"id":2143146,"name":"sigangan","country":"ph","lat":5.567,"lon":120.7972},{"id":2126973,"name":"lubak","country":"ph","lat":6.307778,"lon":120.582222},{"id":2142602,"name":"sapa bagan","country":"ph","lat":5.883056,"lon":121.286389},{"id":2107525,"name":"bawisan","country":"ph","lat":5.9375,"lon":120.8745},{"id":2147831,"name":"tubig petong","country":"ph","lat":6.303611,"lon":120.564722},{"id":2124136,"name":"kublihan","country":"ph","lat":5.989167,"lon":120.938333},{"id":2107164,"name":"bata bata","country":"ph","lat":6.0344,"lon":120.9463},{"id":2142603,"name":"sapa bunuan","country":"ph","lat":5.969503,"lon":121.137536},{"id":2147829,"name":"tubig parang","country":"ph","lat":5.944444,"lon":120.965556},{"id":2120167,"name":"guitong","country":"ph","lat":5.924167,"lon":120.901389},{"id":2109591,"name":"buangen mahaba","country":"ph","lat":5.9,"lon":120.933333},{"id":2107430,"name":"batu batu","country":"ph","lat":5.966667,"lon":120.983333},{"id":2147436,"name":"tolansing","country":"ph","lat":5.6014,"lon":120.8552},{"id":2144297,"name":"sungal","country":"ph","lat":6.083333,"lon":121.083333},{"id":2118968,"name":"gabon","country":"ph","lat":6.2846,"lon":120.5536},{"id":2127013,"name":"lublubah","country":"ph","lat":6.2722,"lon":120.5379},{"id":2105744,"name":"balubuk","country":"ph","lat":6.2887,"lon":120.649},{"id":2130360,"name":"manginoapo","country":"ph","lat":5.7509,"lon":120.9272},{"id":2136893,"name":"patian","country":"ph","lat":5.8548,"lon":121.0938},{"id":2101639,"name":"adjid","country":"ph","lat":5.992222,"lon":121.009722},{"id":2123098,"name":"kanbuhi","country":"ph","lat":5.790585,"lon":121.178832},{"id":2104907,"name":"bakuud","country":"ph","lat":5.949722,"lon":121.348333},{"id":2109571,"name":"bual nangka","country":"ph","lat":5.929444,"lon":121.11},{"id":2108921,"name":"bogsak","country":"ph","lat":6.352778,"lon":120.558333},{"id":2127361,"name":"lungagas","country":"ph","lat":5.9498,"lon":120.9912},{"id":2146650,"name":"teomabal","country":"ph","lat":6.341944,"lon":120.856389},{"id":2122998,"name":"kamawi","country":"ph","lat":5.817778,"lon":121.235278},{"id":2117187,"name":"darian batang","country":"ph","lat":6.261667,"lon":120.570556},{"id":2123192,"name":"kan-kabaya","country":"ph","lat":5.998889,"lon":121.294722},{"id":2143479,"name":"sindang","country":"ph","lat":6.039722,"lon":120.973333},{"id":2138530,"name":"puhakan","country":"ph","lat":5.961441,"lon":121.257788},{"id":2123061,"name":"kan-ali","country":"ph","lat":5.968677,"lon":121.30482},{"id":2123201,"name":"kanlibot","country":"ph","lat":5.992222,"lon":121.159722},{"id":2111886,"name":"caduayan","country":"ph","lat":6.0,"lon":121.216667},{"id":2113287,"name":"camp andres","country":"ph","lat":5.965483,"lon":121.31336},{"id":2137001,"name":"patutol","country":"ph","lat":5.982778,"lon":121.371389},{"id":2124246,"name":"kurol","country":"ph","lat":5.540278,"lon":120.838889},{"id":2122626,"name":"kabungkul","country":"ph","lat":5.934694,"lon":121.152863},{"id":2130329,"name":"mangcalay","country":"ph","lat":5.6853,"lon":120.8006},{"id":2146995,"name":"timballing","country":"ph","lat":5.5796,"lon":120.8451},{"id":2126594,"name":"loctulay","country":"ph","lat":5.8247,"lon":121.1427},{"id":2106291,"name":"bangoal","country":"ph","lat":5.896111,"lon":121.273889},{"id":2123119,"name":"kandulid","country":"ph","lat":5.819094,"lon":121.136855},{"id":2136062,"name":"pangdan","country":"ph","lat":5.716667,"lon":120.916667},{"id":2134727,"name":"paandiung","country":"ph","lat":5.844337,"lon":121.091456},{"id":2131514,"name":"matanda","country":"ph","lat":6.033,"lon":120.9696},{"id":2124151,"name":"kuhawa","country":"ph","lat":5.976667,"lon":121.144444},{"id":2123485,"name":"katian","country":"ph","lat":5.971389,"lon":120.955},{"id":2135454,"name":"paligue","country":"ph","lat":5.958611,"lon":120.926389},{"id":2145474,"name":"talipao","country":"ph","lat":5.976389,"lon":121.116111},{"id":2127321,"name":"lunagan","country":"ph","lat":6.3662,"lon":120.577},{"id":2125640,"name":"lejanan","country":"ph","lat":5.859172,"lon":121.091706},{"id":2119195,"name":"gantang","country":"ph","lat":5.946285,"lon":121.334285},{"id":2119887,"name":"guimba","country":"ph","lat":5.9088,"lon":120.951},{"id":2116353,"name":"dablocan","country":"ph","lat":5.969167,"lon":120.918889},{"id":2148331,"name":"tungtung","country":"ph","lat":6.1325,"lon":120.884167},{"id":2110657,"name":"buol","country":"ph","lat":6.245,"lon":120.562222},{"id":2138770,"name":"punungan","country":"ph","lat":5.908333,"lon":121.060556},{"id":2122546,"name":"kabbu dakulab","country":"ph","lat":5.981389,"lon":121.296389},{"id":2124255,"name":"kutasi","country":"ph","lat":5.911667,"lon":121.343056},{"id":2124867,"name":"lanao-bato","country":"ph","lat":5.9741,"lon":120.9241},{"id":2123228,"name":"kanpagaya","country":"ph","lat":5.938333,"lon":121.295278},{"id":2124112,"name":"kono","country":"ph","lat":6.257778,"lon":120.538889},{"id":2140578,"name":"sanda","country":"ph","lat":6.076944,"lon":121.068611},{"id":2146343,"name":"tara","country":"ph","lat":5.595833,"lon":120.855278},{"id":2110936,"name":"button","country":"ph","lat":5.8275,"lon":121.148333},{"id":2143634,"name":"siparong","country":"ph","lat":6.030278,"lon":121.324167},{"id":2123222,"name":"kan munot","country":"ph","lat":5.540556,"lon":120.861667},{"id":2136163,"name":"pang pang","country":"ph","lat":5.7116,"lon":120.9271},{"id":2129202,"name":"malanta","country":"ph","lat":5.5027,"lon":120.7536},{"id":2124237,"name":"kuppong","country":"ph","lat":5.9747,"lon":120.9578},{"id":2125930,"name":"libung","country":"ph","lat":5.940278,"lon":121.371389},{"id":2143677,"name":"sisanga","country":"ph","lat":5.5187,"lon":120.815},{"id":2107809,"name":"bekud","country":"ph","lat":6.3025,"lon":120.574444},{"id":2117371,"name":"dayuan","country":"ph","lat":5.998354,"lon":120.991853},{"id":2145992,"name":"tandu bagua","country":"ph","lat":6.078889,"lon":121.032778},{"id":2143632,"name":"si panbing","country":"ph","lat":5.5359,"lon":120.8809},{"id":2142772,"name":"sarukut","country":"ph","lat":5.504167,"lon":120.874444},{"id":2136560,"name":"parang-parang","country":"ph","lat":5.853502,"lon":121.095029},{"id":2145251,"name":"takut","country":"ph","lat":5.95,"lon":121.2},{"id":2124232,"name":"kunalum","country":"ph","lat":5.95,"lon":121.0},{"id":2148220,"name":"tumangas","country":"ph","lat":5.932778,"lon":120.889167},{"id":2134078,"name":"niug niug","country":"ph","lat":5.55,"lon":120.783333},{"id":2118423,"name":"dundang","country":"ph","lat":5.915556,"lon":121.244444},{"id":2140819,"name":"sang","country":"ph","lat":5.871564,"lon":121.271308},{"id":2139994,"name":"saligpang","country":"ph","lat":5.964929,"lon":121.320172},{"id":2136367,"name":"pantao","country":"ph","lat":5.986147,"lon":121.04274},{"id":2116931,"name":"danding","country":"ph","lat":6.030833,"lon":121.046389},{"id":2130311,"name":"mangas","country":"ph","lat":5.915048,"lon":121.381033},{"id":2148101,"name":"tukay","country":"ph","lat":5.922222,"lon":120.956944},{"id":2146451,"name":"taung","country":"ph","lat":6.075,"lon":121.140833},{"id":2143618,"name":"sionogan","country":"ph","lat":6.005278,"lon":120.948611},{"id":2102532,"name":"alolayag","country":"ph","lat":5.96,"lon":120.8797},{"id":2107135,"name":"bas mangkalay","country":"ph","lat":5.693333,"lon":120.803333},{"id":2143617,"name":"siondo","country":"ph","lat":5.5525,"lon":120.830556},{"id":2147529,"name":"tompong","country":"ph","lat":5.6977,"lon":120.8932},{"id":2148174,"name":"tulling","country":"ph","lat":5.5631,"lon":120.8325},{"id":2140797,"name":"sangkap","country":"ph","lat":5.806944,"lon":121.173611},{"id":2126047,"name":"likup","country":"ph","lat":5.977222,"lon":120.984722},{"id":2123300,"name":"kapandak","country":"ph","lat":5.978,"lon":120.9364},{"id":2125033,"name":"langto","country":"ph","lat":5.981355,"lon":121.053789},{"id":2136074,"name":"panggol","country":"ph","lat":5.535,"lon":120.863056},{"id":2119292,"name":"gata","country":"ph","lat":5.976424,"lon":121.369364},{"id":2106239,"name":"bangday","country":"ph","lat":5.971389,"lon":121.259167},{"id":2124522,"name":"lagonding","country":"ph","lat":5.6841,"lon":120.8854},{"id":2123444,"name":"kataan","country":"ph","lat":6.283889,"lon":120.557778},{"id":2117231,"name":"datag","country":"ph","lat":5.981759,"lon":121.11769},{"id":2144697,"name":"tabu kalang","country":"ph","lat":5.716667,"lon":120.883333},{"id":2138685,"name":"punay gamay","country":"ph","lat":5.960706,"lon":121.188305},{"id":2127190,"name":"luma dapdap","country":"ph","lat":6.2702,"lon":120.5519},{"id":2128690,"name":"mahaela","country":"ph","lat":5.916667,"lon":121.133333},{"id":2123229,"name":"kan-salihan","country":"ph","lat":5.98,"lon":121.381667},{"id":2143022,"name":"sibalan","country":"ph","lat":5.516667,"lon":120.816667},{"id":2136745,"name":"pasil","country":"ph","lat":5.9557,"lon":120.9462},{"id":2110922,"name":"butoll","country":"ph","lat":5.8944,"lon":120.9313},{"id":2109743,"name":"bu-datu","country":"ph","lat":6.0234,"lon":120.9977},{"id":2125448,"name":"laud","country":"ph","lat":5.501944,"lon":120.860833},{"id":2132173,"name":"mimul","country":"ph","lat":5.5,"lon":120.766667},{"id":2125170,"name":"lapa","country":"ph","lat":5.9162,"lon":120.9995},{"id":2134089,"name":"niyog-niyog","country":"ph","lat":5.952217,"lon":121.304657},{"id":2136627,"name":"parian","country":"ph","lat":5.6714,"lon":120.8626},{"id":2123145,"name":"kangkanga kamawi","country":"ph","lat":5.818682,"lon":121.201974},{"id":2109097,"name":"bol pongpong","country":"ph","lat":5.6675,"lon":120.8036},{"id":2135975,"name":"pangadnan","country":"ph","lat":6.309167,"lon":120.578889},{"id":2146838,"name":"tigbas","country":"ph","lat":5.9525,"lon":121.4008},{"id":2132755,"name":"musa","country":"ph","lat":5.5,"lon":120.8376},{"id":2122530,"name":"kabatuhan tiis","country":"ph","lat":5.969167,"lon":121.1025},{"id":2131559,"name":"matatal","country":"ph","lat":5.962778,"lon":121.008333},{"id":2146010,"name":"tandu patung","country":"ph","lat":5.964551,"lon":121.022321},{"id":2135934,"name":"pandan-pangdan","country":"ph","lat":5.8962,"lon":121.2413},{"id":2113269,"name":"camongia","country":"ph","lat":5.733,"lon":120.8846},{"id":2146034,"name":"tangan","country":"ph","lat":5.766667,"lon":120.9},{"id":2107498,"name":"baunu-timbangan","country":"ph","lat":6.005468,"lon":120.994055},{"id":2127380,"name":"lungon-lungon","country":"ph","lat":5.983056,"lon":120.910278},{"id":2149441,"name":"yate-tungga","country":"ph","lat":5.9656,"lon":120.9751},{"id":2102988,"name":"andalan","country":"ph","lat":5.959444,"lon":121.390278},{"id":2148421,"name":"tuup","country":"ph","lat":6.078889,"lon":121.126944},{"id":2149328,"name":"wanni pianjihan","country":"ph","lat":5.942778,"lon":120.918333},{"id":2121315,"name":"igangan","country":"ph","lat":5.966667,"lon":120.883333},{"id":2122189,"name":"jambangan","country":"ph","lat":5.5141,"lon":120.8472},{"id":2123617,"name":"kayapuh","country":"ph","lat":6.3223,"lon":120.5528},{"id":2148485,"name":"uba-uba","country":"ph","lat":5.975671,"lon":120.906877},{"id":2122591,"name":"kabudu","country":"ph","lat":5.5325,"lon":120.8765},{"id":2143178,"name":"sihi pitogo","country":"ph","lat":5.884583,"lon":121.297747},{"id":2127232,"name":"lumbaan","country":"ph","lat":5.941944,"lon":121.320556},{"id":2147544,"name":"tongasong","country":"ph","lat":6.3137,"lon":120.6614},{"id":2123070,"name":"kanangon","country":"ph","lat":5.757778,"lon":120.911944},{"id":2126983,"name":"lubang","country":"ph","lat":5.9066,"lon":120.9753},{"id":2136631,"name":"parian sai","country":"ph","lat":6.2861,"lon":120.53},{"id":2143180,"name":"si ipang","country":"ph","lat":6.3014,"lon":120.5559},{"id":2122887,"name":"kalinggalan caluang","country":"ph","lat":5.89,"lon":121.2675},{"id":2122791,"name":"kalang","country":"ph","lat":5.919722,"lon":121.363056},{"id":2121802,"name":"indanan","country":"ph","lat":5.9735,"lon":120.9698},{"id":2110409,"name":"bulun","country":"ph","lat":6.320278,"lon":120.570556},{"id":2136865,"name":"patao","country":"ph","lat":5.921111,"lon":121.039167},{"id":2143004,"name":"sibabag","country":"ph","lat":5.702866,"lon":121.017637},{"id":2135175,"name":"pait","country":"ph","lat":5.7013,"lon":120.8691},{"id":2147830,"name":"tubig patong","country":"ph","lat":5.948333,"lon":120.993611},{"id":2110957,"name":"butun","country":"ph","lat":5.989444,"lon":120.891667},{"id":2136545,"name":"parang mawag","country":"ph","lat":5.9428,"lon":120.8997},{"id":2110825,"name":"busi buai","country":"ph","lat":5.912778,"lon":121.340556},{"id":2140288,"name":"sampunay","country":"ph","lat":5.948611,"lon":120.91},{"id":2110451,"name":"bunan","country":"ph","lat":5.895,"lon":121.249444},{"id":2143182,"name":"si\"it lake","country":"ph","lat":5.994904,"lon":121.212267},{"id":2107708,"name":"bayog","country":"ph","lat":5.964874,"lon":121.090598},{"id":2138035,"name":"pokoyo","country":"ph","lat":5.915222,"lon":121.299474},{"id":2124599,"name":"lahing-lahing","country":"ph","lat":6.004444,"lon":121.388611},{"id":2140170,"name":"samak","country":"ph","lat":5.982043,"lon":121.07602},{"id":2144316,"name":"sungkal","country":"ph","lat":5.991818,"lon":121.062166},{"id":2127534,"name":"luuk tulay","country":"ph","lat":5.848998,"lon":121.085198},{"id":2135723,"name":"panabuan","country":"ph","lat":5.9616,"lon":120.9627},{"id":2122598,"name":"kabug","country":"ph","lat":5.842512,"lon":121.088359},{"id":2125724,"name":"liang","country":"ph","lat":5.928561,"lon":121.072814},{"id":2136646,"name":"parisan","country":"ph","lat":6.277222,"lon":120.557778},{"id":2103011,"name":"andres","country":"ph","lat":5.9684,"lon":121.3122},{"id":2146002,"name":"tandu-dagmay","country":"ph","lat":6.082222,"lon":121.015556},{"id":2127375,"name":"lung kiaban","country":"ph","lat":5.955,"lon":121.150833},{"id":2113354,"name":"campo","country":"ph","lat":5.893333,"lon":121.271111},{"id":2122913,"name":"kalong","country":"ph","lat":6.376111,"lon":120.596389},{"id":2146982,"name":"timahu","country":"ph","lat":6.0191,"lon":120.921},{"id":2147802,"name":"tubigan","country":"ph","lat":6.4294,"lon":120.7834},{"id":2124135,"name":"kubig kutah","country":"ph","lat":5.519722,"lon":120.886389},{"id":2122680,"name":"kagay","country":"ph","lat":6.0088,"lon":120.9074},{"id":2104821,"name":"bait bait","country":"ph","lat":6.003889,"lon":121.402222},{"id":2147823,"name":"tubig nonok","country":"ph","lat":6.3075,"lon":120.576389},{"id":2116529,"name":"dahagan","country":"ph","lat":6.269167,"lon":120.554722},{"id":2126691,"name":"lonao dakula","country":"ph","lat":5.969824,"lon":120.919024},{"id":2121326,"name":"igasan","country":"ph","lat":6.086389,"lon":121.095833},{"id":2146578,"name":"tayungan","country":"ph","lat":5.96633,"lon":121.2632},{"id":2126328,"name":"linuho","country":"ph","lat":5.926389,"lon":120.936667},{"id":2139857,"name":"saimbangon","country":"ph","lat":5.839167,"lon":121.1425},{"id":2134087,"name":"niyog niyog","country":"ph","lat":5.8184,"lon":121.1759},{"id":2123090,"name":"kanawa","country":"ph","lat":5.987995,"lon":121.372167},{"id":2147845,"name":"tubig zina","country":"ph","lat":5.533333,"lon":120.75},{"id":2123413,"name":"karungdong","country":"ph","lat":5.8844,"lon":121.263},{"id":2125717,"name":"lianagan","country":"ph","lat":5.983333,"lon":121.1},{"id":2147822,"name":"tubig nanok","country":"ph","lat":6.3602,"lon":120.5538},{"id":2102574,"name":"aludapdap","country":"ph","lat":5.682222,"lon":120.879722},{"id":2124742,"name":"lambagu","country":"ph","lat":5.977412,"lon":121.276922},{"id":2124926,"name":"langab","country":"ph","lat":6.281944,"lon":120.571667},{"id":2116631,"name":"dalau","country":"ph","lat":6.293056,"lon":120.573889},{"id":2134080,"name":"niug sangahan","country":"ph","lat":5.954722,"lon":121.097778},{"id":2125681,"name":"lerong","country":"ph","lat":5.9069,"lon":120.9801},{"id":2122650,"name":"kadday-mampallan","country":"ph","lat":6.085556,"lon":121.068611},{"id":2110467,"name":"bunbun","country":"ph","lat":6.059722,"lon":121.158611},{"id":2123018,"name":"kambing","country":"ph","lat":5.946464,"lon":121.307573},{"id":2124184,"name":"kulaykulay","country":"ph","lat":5.95,"lon":121.191667},{"id":2122853,"name":"kalgay","country":"ph","lat":5.985734,"lon":121.106765},{"id":2142878,"name":"sedapantung","country":"ph","lat":6.315,"lon":120.556389},{"id":2147549,"name":"tong bas","country":"ph","lat":6.2577,"lon":120.574},{"id":2146104,"name":"tangluba","country":"ph","lat":5.947871,"lon":121.365844},{"id":2135903,"name":"pandan niog","country":"ph","lat":6.2282,"lon":120.5631},{"id":2127135,"name":"lugus","country":"ph","lat":5.703611,"lon":120.820278},{"id":2126115,"name":"limbuaya","country":"ph","lat":5.906667,"lon":121.29},{"id":2144709,"name":"tabu\" manuk","country":"ph","lat":5.933333,"lon":121.233333},{"id":2142887,"name":"segimban","country":"ph","lat":6.315278,"lon":120.578611},{"id":2125858,"name":"libobong","country":"ph","lat":5.9425,"lon":120.9954},{"id":2119121,"name":"gamay","country":"ph","lat":5.974824,"lon":121.145943},{"id":2146317,"name":"tapu","country":"ph","lat":5.706,"lon":120.881},{"id":2139999,"name":"salimbangan","country":"ph","lat":6.264167,"lon":120.559167},{"id":2127612,"name":"maandog","country":"ph","lat":5.849165,"lon":121.094314},{"id":2147836,"name":"tubig sua","country":"ph","lat":5.5202,"lon":120.8244},{"id":2145879,"name":"tampunai","country":"ph","lat":5.75,"lon":120.933333},{"id":2109503,"name":"bowol","country":"ph","lat":5.89,"lon":121.262222},{"id":2146003,"name":"tandu-danuan","country":"ph","lat":5.9485,"lon":121.4101},{"id":2116575,"name":"dakud lantong","country":"ph","lat":6.3223,"lon":120.5604},{"id":2108880,"name":"bodbod","country":"ph","lat":5.9055,"lon":121.2349},{"id":2130241,"name":"mangalia","country":"ph","lat":6.0395,"lon":120.9615},{"id":2143724,"name":"siunugan","country":"ph","lat":5.516667,"lon":120.9},{"id":2104800,"name":"baila-uwak","country":"ph","lat":5.935594,"lon":121.334742},{"id":2109319,"name":"bontas","country":"ph","lat":5.9162,"lon":121.0483},{"id":2123566,"name":"kawasan","country":"ph","lat":5.955278,"lon":121.265556},{"id":2124892,"name":"lanaw dakula\u0027","country":"ph","lat":5.916667,"lon":120.916667},{"id":2129436,"name":"maligay","country":"ph","lat":6.046389,"lon":121.062222},{"id":2143335,"name":"simbahan","country":"ph","lat":6.3032,"lon":120.5836},{"id":2127111,"name":"lugastaun","country":"ph","lat":6.269167,"lon":120.570278},{"id":2108123,"name":"bilaan","country":"ph","lat":5.977716,"lon":121.117717},{"id":2123216,"name":"kan masillan","country":"ph","lat":5.545278,"lon":120.867222},{"id":2126042,"name":"likud","country":"ph","lat":5.790556,"lon":121.185278},{"id":2124801,"name":"laminusa","country":"ph","lat":5.5549,"lon":120.9136},{"id":2145980,"name":"tandiung","country":"ph","lat":6.019722,"lon":121.32},{"id":2143243,"name":"silat","country":"ph","lat":5.939722,"lon":121.338889},{"id":2110056,"name":"buka buka","country":"ph","lat":5.9304,"lon":120.9108},{"id":2107669,"name":"bay datu","country":"ph","lat":5.8944,"lon":120.9376},{"id":2123046,"name":"kampo naga","country":"ph","lat":5.9568,"lon":120.8984},{"id":2146539,"name":"taytayan","country":"ph","lat":5.808889,"lon":121.2075},{"id":2122997,"name":"kamawi gamay","country":"ph","lat":5.822222,"lon":121.2},{"id":2123219,"name":"kan mindus","country":"ph","lat":5.982222,"lon":121.317222},{"id":2137879,"name":"pitogo","country":"ph","lat":5.888234,"lon":121.312154},{"id":2145998,"name":"tandu bnuga","country":"ph","lat":5.9275,"lon":120.8846},{"id":2106500,"name":"bantang","country":"ph","lat":5.954722,"lon":121.320556},{"id":2128215,"name":"maddas","country":"ph","lat":5.5462,"lon":120.8145},{"id":2127163,"name":"luki tara","country":"ph","lat":5.5943,"lon":120.871},{"id":2111013,"name":"buzbuz","country":"ph","lat":6.056667,"lon":121.010278},{"id":2136516,"name":"paragon","country":"ph","lat":5.8375,"lon":121.1862},{"id":2136338,"name":"pansul","country":"ph","lat":6.049444,"lon":121.135278},{"id":2136906,"name":"patikulhingad","country":"ph","lat":6.088056,"lon":121.033056},{"id":2145978,"name":"tandiga","country":"ph","lat":5.799809,"lon":121.195781},{"id":2106266,"name":"bang kilay","country":"ph","lat":6.2906,"lon":120.5657},{"id":2106107,"name":"bandak","country":"ph","lat":6.301944,"lon":120.561111},{"id":2123531,"name":"katubuh","country":"ph","lat":5.515,"lon":120.863333},{"id":2109289,"name":"bonin","country":"ph","lat":5.79642,"lon":121.190077},{"id":2123237,"name":"kansipat","country":"ph","lat":6.009722,"lon":121.255833},{"id":2102534,"name":"alomatagnipa","country":"ph","lat":5.983333,"lon":120.883333},{"id":2146981,"name":"timaho","country":"ph","lat":5.956566,"lon":121.175984},{"id":2128791,"name":"mainao","country":"ph","lat":5.826623,"lon":121.152467},{"id":2110301,"name":"bulikulkul","country":"ph","lat":5.5118,"lon":120.9072},{"id":2138709,"name":"punnon","country":"ph","lat":6.288333,"lon":120.556389},{"id":2113388,"name":"camp siet","country":"ph","lat":5.986658,"lon":121.214712},{"id":2126807,"name":"look","country":"ph","lat":6.2536,"lon":120.5036},{"id":2123218,"name":"kan midus","country":"ph","lat":5.994722,"lon":121.39},{"id":2104822,"name":"bait-bait","country":"ph","lat":6.296667,"lon":120.581944},{"id":2124750,"name":"lambana","country":"ph","lat":5.971944,"lon":121.145278},{"id":2127518,"name":"luukbon","country":"ph","lat":5.823333,"lon":121.146944},{"id":2122916,"name":"kalookan","country":"ph","lat":5.6942,"lon":120.8849},{"id":2122707,"name":"kahoy sina","country":"ph","lat":5.996667,"lon":120.895556},{"id":2101691,"name":"agal-agal","country":"ph","lat":6.2983,"lon":120.5757},{"id":2109316,"name":"bonso","country":"ph","lat":5.9213,"lon":120.9852},{"id":2103069,"name":"angilan","country":"ph","lat":5.981389,"lon":121.373611},{"id":2124207,"name":"kulumpira","country":"ph","lat":5.812326,"lon":121.154647},{"id":2121322,"name":"igang","country":"ph","lat":5.917395,"lon":121.382923},{"id":2139983,"name":"saldang","country":"ph","lat":5.937222,"lon":120.908889},{"id":2143212,"name":"silanbun","country":"ph","lat":6.286667,"lon":120.530278},{"id":2128334,"name":"maganda","country":"ph","lat":5.9114,"lon":120.9693},{"id":2124179,"name":"kulasi","country":"ph","lat":5.9052,"lon":120.9569},{"id":2124152,"name":"kukab","country":"ph","lat":5.893612,"lon":121.284614},{"id":2143742,"name":"soa soa","country":"ph","lat":5.854706,"lon":121.083883},{"id":2147828,"name":"tubig pansol","country":"ph","lat":5.520556,"lon":120.856111},{"id":2107496,"name":"baunoh","country":"ph","lat":5.957222,"lon":121.236389},{"id":2138687,"name":"punay","country":"ph","lat":5.961389,"lon":121.198056},{"id":2130001,"name":"manaling","country":"ph","lat":5.810109,"lon":121.195488},{"id":2119595,"name":"gitong","country":"ph","lat":6.021944,"lon":121.324444},{"id":2148144,"name":"tulayan","country":"ph","lat":6.02,"lon":121.316111},{"id":2124233,"name":"kungtad","country":"ph","lat":5.5572,"lon":120.8472},{"id":2107469,"name":"baubo","country":"ph","lat":5.973197,"lon":121.389345},{"id":2147809,"name":"tubig dapdap","country":"ph","lat":5.831667,"lon":121.159167},{"id":2137068,"name":"payahan","country":"ph","lat":6.008889,"lon":120.986944},{"id":2103655,"name":"asin","country":"ph","lat":5.9089,"lon":121.2353},{"id":2122720,"name":"kajatian","country":"ph","lat":6.031111,"lon":120.991944},{"id":2123193,"name":"kan-kabiting","country":"ph","lat":5.9575,"lon":121.393056},{"id":2110281,"name":"bulibawang","country":"ph","lat":5.924722,"lon":120.969167},{"id":2125110,"name":"lantis","country":"ph","lat":6.375,"lon":120.563611},{"id":2147814,"name":"tubig kutah","country":"ph","lat":5.5108,"lon":120.8845},{"id":2144237,"name":"sumambat","country":"ph","lat":5.75,"lon":120.916667},{"id":2130964,"name":"marasan","country":"ph","lat":5.9025,"lon":120.9509},{"id":2127233,"name":"lumbaan mahaba","country":"ph","lat":5.9135,"lon":120.9428},{"id":2138442,"name":"puansa","country":"ph","lat":6.0258,"lon":120.9614},{"id":2106602,"name":"bantukan","country":"ph","lat":5.695556,"lon":120.996944},{"id":2119219,"name":"gapas","country":"ph","lat":5.697275,"lon":120.87549},{"id":2127409,"name":"lupa abu","country":"ph","lat":5.933333,"lon":120.901944},{"id":2106109,"name":"bandang","country":"ph","lat":5.977028,"lon":121.06429},{"id":2144005,"name":"subatandu","country":"ph","lat":5.940556,"lon":120.877778},{"id":2109758,"name":"bud indahan","country":"ph","lat":5.984722,"lon":121.313889},{"id":2126245,"name":"lingan","country":"ph","lat":5.961389,"lon":121.313333},{"id":2117199,"name":"darol-gambangan","country":"ph","lat":5.944962,"lon":121.022843},{"id":2146940,"name":"tiis","country":"ph","lat":5.956076,"lon":121.073625},{"id":2123619,"name":"kayawan","country":"ph","lat":5.841563,"lon":121.182613},{"id":2102991,"name":"andaran","country":"ph","lat":5.803677,"lon":121.162572},{"id":2104609,"name":"bagsak","country":"ph","lat":5.933333,"lon":121.35},{"id":2117630,"name":"digpin","country":"ph","lat":5.897295,"lon":121.262515},{"id":2117297,"name":"daungdong","country":"ph","lat":5.8411,"lon":121.2262},{"id":2142927,"name":"senogan","country":"ph","lat":6.001,"lon":120.9004},{"id":2123127,"name":"kangadjal","country":"ph","lat":5.935833,"lon":121.2675},{"id":2136124,"name":"panglayahan","country":"ph","lat":6.050278,"lon":121.118611},{"id":2124180,"name":"kulassian","country":"ph","lat":6.4251,"lon":120.6804},{"id":2119901,"name":"guimba tundaan","country":"ph","lat":5.793649,"lon":121.1626},{"id":2123099,"name":"kan bulak","country":"ph","lat":5.98,"lon":121.303333},{"id":2136337,"name":"pansulon","country":"ph","lat":5.916944,"lon":121.315},{"id":2125919,"name":"libug kabaw","country":"ph","lat":5.996389,"lon":121.266944},{"id":2125028,"name":"langpas","country":"ph","lat":5.975,"lon":120.949},{"id":2115455,"name":"cilancan","country":"ph","lat":5.9788,"lon":120.8915},{"id":2121113,"name":"howit howit","country":"ph","lat":5.70648,"lon":120.822877},{"id":2123110,"name":"kandayok","country":"ph","lat":6.004722,"lon":121.166389},{"id":2116963,"name":"dangkulot","country":"ph","lat":5.847434,"lon":121.083275},{"id":2134246,"name":"nunukan","country":"ph","lat":6.4365,"lon":120.712},{"id":2125166,"name":"lapak","country":"ph","lat":5.5419,"lon":120.7955},{"id":2110805,"name":"busay","country":"ph","lat":5.930833,"lon":121.269167},{"id":2148780,"name":"urat","country":"ph","lat":5.980278,"lon":121.283056},{"id":2132017,"name":"melebonay","country":"ph","lat":5.934167,"lon":121.378333},{"id":2146938,"name":"tiil","country":"ph","lat":5.960333,"lon":121.333014},{"id":2145778,"name":"tambulian","country":"ph","lat":5.8711,"lon":121.213},{"id":2123197,"name":"kanlagay","country":"ph","lat":5.875685,"lon":121.291456},{"id":2125750,"name":"liban","country":"ph","lat":5.987778,"lon":121.108611},{"id":2116933,"name":"dandulit","country":"ph","lat":5.933333,"lon":121.033333},{"id":2137158,"name":"payuhan","country":"ph","lat":5.941667,"lon":120.901111},{"id":2138491,"name":"pugad manaul","country":"ph","lat":5.989167,"lon":121.254444},{"id":2136145,"name":"pang","country":"ph","lat":5.94837,"lon":121.288297},{"id":2122906,"name":"kaloang","country":"ph","lat":5.901667,"lon":121.325833},{"id":2125302,"name":"larap","country":"ph","lat":5.7106,"lon":120.8395},{"id":2148286,"name":"tundaan","country":"ph","lat":5.783056,"lon":121.150833},{"id":2104889,"name":"bakong","country":"ph","lat":6.069722,"lon":121.07},{"id":2147855,"name":"tubli","country":"ph","lat":5.9122,"lon":120.9636},{"id":2122261,"name":"jati baud","country":"ph","lat":5.9625,"lon":120.955278},{"id":2134959,"name":"pagasinan","country":"ph","lat":6.133333,"lon":120.983333},{"id":2123545,"name":"kaumpang","country":"ph","lat":5.7571,"lon":120.9105},{"id":2144856,"name":"tagadpat","country":"ph","lat":5.716667,"lon":120.933333},{"id":2145137,"name":"taguias","country":"ph","lat":5.995833,"lon":121.385556},{"id":2106930,"name":"barokaw","country":"ph","lat":6.295278,"lon":120.583889},{"id":2119900,"name":"guimbaon","country":"ph","lat":5.905867,"lon":121.338588},{"id":2145995,"name":"tandu bato","country":"ph","lat":6.003056,"lon":121.305278},{"id":2138536,"name":"pukol nain","country":"ph","lat":6.289444,"lon":120.543611},{"id":2125113,"name":"lantong babag","country":"ph","lat":6.3,"lon":120.55},{"id":2136278,"name":"panko","country":"ph","lat":5.95,"lon":120.883333},{"id":2146005,"name":"tandu-gusung","country":"ph","lat":6.038611,"lon":121.386667},{"id":2143963,"name":"suahauah","country":"ph","lat":5.949722,"lon":121.273056},{"id":2143213,"name":"silancot","country":"ph","lat":5.5,"lon":120.75},{"id":2136619,"name":"parian laha","country":"ph","lat":5.666667,"lon":120.816667},{"id":2126972,"name":"lubak kawak","country":"ph","lat":6.315556,"lon":120.573333},{"id":2144198,"name":"suluk","country":"ph","lat":6.052222,"lon":121.002222},{"id":2147591,"name":"tong tara","country":"ph","lat":5.5905,"lon":120.8575},{"id":2129664,"name":"malopa","country":"ph","lat":5.9544,"lon":120.8745},{"id":2125469,"name":"laum suah","country":"ph","lat":5.929722,"lon":120.9125},{"id":2132976,"name":"nagay","country":"ph","lat":6.016944,"lon":120.949444},{"id":2131750,"name":"maubo","country":"ph","lat":6.068056,"lon":121.018333},{"id":2115978,"name":"cottab","country":"ph","lat":5.897222,"lon":121.253889},{"id":2110042,"name":"buhwang","country":"ph","lat":6.361667,"lon":120.594444},{"id":2120738,"name":"hambilan","country":"ph","lat":5.5633,"lon":120.8069},{"id":2123174,"name":"kan iko","country":"ph","lat":5.9575,"lon":120.956389},{"id":2122627,"name":"kabun-takas","country":"ph","lat":6.046389,"lon":121.078056},{"id":2147832,"name":"tubig puti","country":"ph","lat":5.978333,"lon":121.251389},{"id":2145479,"name":"talipaw","country":"ph","lat":5.91,"lon":121.094444},{"id":2134082,"name":"niyangkaan","country":"ph","lat":5.966111,"lon":121.414444},{"id":2107352,"name":"batobato","country":"ph","lat":5.894444,"lon":120.925833},{"id":2136055,"name":"pangdanon","country":"ph","lat":6.080833,"lon":121.118611},{"id":2103314,"name":"anuling","country":"ph","lat":6.035556,"lon":121.006667},{"id":2142771,"name":"sar","country":"ph","lat":5.866667,"lon":121.266667},{"id":2147877,"name":"tubod","country":"ph","lat":5.982778,"lon":121.0975},{"id":2127683,"name":"mabahay","country":"ph","lat":5.911111,"lon":121.126111},{"id":2125559,"name":"layag-layag","country":"ph","lat":5.950278,"lon":120.886389},{"id":2145274,"name":"talaclac","country":"ph","lat":6.0363,"lon":120.9562},{"id":2122727,"name":"kakao","country":"ph","lat":5.542778,"lon":120.846389},{"id":2124165,"name":"kulambo","country":"ph","lat":6.005278,"lon":121.160278},{"id":2101689,"name":"agahun","country":"ph","lat":5.984167,"lon":120.939722},{"id":2126520,"name":"loas","country":"ph","lat":5.8975,"lon":120.924},{"id":2126347,"name":"liong","country":"ph","lat":6.133611,"lon":120.916389},{"id":2145979,"name":"tandinnoy","country":"ph","lat":6.0444,"lon":120.9793},{"id":2110018,"name":"buhanguin puti","country":"ph","lat":5.900278,"lon":121.080833},{"id":2144140,"name":"sukuban","country":"ph","lat":5.917047,"lon":121.349703},{"id":2127754,"name":"mabbu","country":"ph","lat":6.2619,"lon":120.5196},{"id":2136170,"name":"pangtikan","country":"ph","lat":6.274167,"lon":120.548611},{"id":2136615,"name":"parian dacula","country":"ph","lat":5.556667,"lon":120.771944},{"id":2143345,"name":"simigang","country":"ph","lat":6.2785,"lon":120.539},{"id":2121960,"name":"ipil","country":"ph","lat":5.925278,"lon":121.070556},{"id":2109567,"name":"bual","country":"ph","lat":6.013333,"lon":121.274444},{"id":2131178,"name":"marsada","country":"ph","lat":5.931389,"lon":121.106944},{"id":2145677,"name":"tamba king","country":"ph","lat":5.926,"lon":120.9946},{"id":2143734,"name":"siyunuyan","country":"ph","lat":5.897222,"lon":121.240833},{"id":2138336,"name":"potat","country":"ph","lat":6.015833,"lon":120.988333},{"id":2122647,"name":"kadang tukay","country":"ph","lat":5.948333,"lon":120.958056},{"id":2136990,"name":"patukon","country":"ph","lat":6.2625,"lon":120.507222},{"id":2136496,"name":"paquia","country":"ph","lat":5.6677,"lon":121.01},{"id":2126034,"name":"likba","country":"ph","lat":5.955784,"lon":121.219107},{"id":2137159,"name":"payukan","country":"ph","lat":6.065,"lon":121.154167},{"id":2146939,"name":"tiis kutong","country":"ph","lat":5.965665,"lon":121.049301},{"id":2113645,"name":"candea","country":"ph","lat":6.033333,"lon":120.933333},{"id":2147089,"name":"tinah","country":"ph","lat":5.971274,"lon":121.242222},{"id":2123235,"name":"kansipati","country":"ph","lat":6.001111,"lon":121.234444},{"id":2144951,"name":"tagbak","country":"ph","lat":6.0165,"lon":120.9929},{"id":2136563,"name":"parang uba","country":"ph","lat":6.066667,"lon":121.066667},{"id":2147839,"name":"tubig sullang","country":"ph","lat":6.3558,"lon":120.5583},{"id":2148430,"name":"tuyang","country":"ph","lat":5.921389,"lon":121.1375},{"id":2126412,"name":"lipunos","country":"ph","lat":5.9189,"lon":120.9446},{"id":2115409,"name":"cepe","country":"ph","lat":5.965556,"lon":121.348889},{"id":2107073,"name":"bas","country":"ph","lat":5.7089,"lon":120.8405},{"id":2123546,"name":"kaunayan","country":"ph","lat":6.085278,"lon":121.083611},{"id":2143116,"name":"sicumbang","country":"ph","lat":6.295278,"lon":120.544444},{"id":2130631,"name":"manta","country":"ph","lat":5.5773,"lon":120.8733},{"id":2122971,"name":"kamalig","country":"ph","lat":5.978889,"lon":121.228056},{"id":2148802,"name":"usad","country":"ph","lat":6.1279,"lon":120.5389},{"id":2102565,"name":"alu","country":"ph","lat":5.716667,"lon":121.0},{"id":2125968,"name":"licud","country":"ph","lat":6.3193,"lon":120.5467},{"id":2121114,"name":"howit-howit","country":"ph","lat":5.949167,"lon":121.384167},{"id":2148271,"name":"tumpok","country":"ph","lat":5.550833,"lon":120.867222},{"id":2147812,"name":"tubig-kambl","country":"ph","lat":5.941493,"lon":121.288068},{"id":2106105,"name":"bandahala","country":"ph","lat":5.880833,"lon":121.298611},{"id":2117015,"name":"danog","country":"ph","lat":6.366111,"lon":120.580278},{"id":2128653,"name":"magupit","country":"ph","lat":5.909192,"lon":121.261896},{"id":2128768,"name":"maibun","country":"ph","lat":5.927196,"lon":121.029353},{"id":2143506,"name":"singko","country":"ph","lat":5.510556,"lon":120.860278},{"id":2123385,"name":"karawan","country":"ph","lat":5.946667,"lon":120.950833},{"id":2109749,"name":"bud dakula\"","country":"ph","lat":5.983333,"lon":121.216667},{"id":2135066,"name":"pagsakulan","country":"ph","lat":6.315,"lon":120.5634},{"id":2147542,"name":"tongah tong-tong","country":"ph","lat":5.5015,"lon":120.8598},{"id":2106233,"name":"bangcowan","country":"ph","lat":5.8866,"lon":121.0601},{"id":2102575,"name":"alu duyung","country":"ph","lat":5.6756,"lon":120.8683},{"id":2144149,"name":"sula","country":"ph","lat":6.2958,"lon":120.5578},{"id":2127102,"name":"luctulayan","country":"ph","lat":5.809722,"lon":121.141944},{"id":2146180,"name":"tanquique","country":"ph","lat":5.8,"lon":121.216667},{"id":2125465,"name":"laum luuk","country":"ph","lat":5.5951,"lon":120.8604},{"id":2130247,"name":"mangal mangal","country":"ph","lat":5.941944,"lon":121.299167},{"id":2124744,"name":"lambaking","country":"ph","lat":5.981667,"lon":121.004722},{"id":2125406,"name":"lati","country":"ph","lat":6.033889,"lon":121.033611},{"id":2110195,"name":"bulampora","country":"ph","lat":5.816389,"lon":121.171111},{"id":2124109,"name":"kong-kong laminusa","country":"ph","lat":5.5453,"lon":120.9292},{"id":2136618,"name":"parian kawayan","country":"ph","lat":5.668889,"lon":120.863611},{"id":2139656,"name":"sablay","country":"ph","lat":5.5299,"lon":120.8253},{"id":2137373,"name":"pigi band","country":"ph","lat":5.543611,"lon":120.874444},{"id":2127136,"name":"lugus lugus","country":"ph","lat":6.349722,"lon":120.565},{"id":2144698,"name":"tabukan","country":"ph","lat":6.2799,"lon":120.5623},{"id":2119499,"name":"gimba luuk","country":"ph","lat":6.2575,"lon":120.516944},{"id":2138772,"name":"punyao","country":"ph","lat":5.514444,"lon":120.872778},{"id":2120700,"name":"halamon pababag","country":"ph","lat":6.3145,"lon":120.5529},{"id":2106263,"name":"bangkaw","country":"ph","lat":5.850335,"lon":121.083992},{"id":2147008,"name":"timbayan","country":"ph","lat":5.896389,"lon":121.315},{"id":2131748,"name":"mauboh","country":"ph","lat":5.99,"lon":121.093611},{"id":2110615,"name":"bunog","country":"ph","lat":5.548889,"lon":120.853333},{"id":2120355,"name":"habuogan","country":"ph","lat":6.320556,"lon":120.575278},{"id":2147138,"name":"tina siet","country":"ph","lat":5.979911,"lon":121.244537},{"id":2149326,"name":"wani tungkal","country":"ph","lat":5.9798,"lon":120.9699},{"id":2147817,"name":"tubig maasin","country":"ph","lat":6.2436,"lon":120.5329},{"id":2147843,"name":"tubig","country":"ph","lat":6.2815,"lon":120.5394},{"id":2114372,"name":"capual","country":"ph","lat":6.045278,"lon":121.396389},{"id":2109580,"name":"buan","country":"ph","lat":5.5508,"lon":120.8815},{"id":2109572,"name":"bualo lahi","country":"ph","lat":5.9275,"lon":121.004722},{"id":2145372,"name":"talatak","country":"ph","lat":5.538611,"lon":120.840833},{"id":2145977,"name":"tandiara","country":"ph","lat":5.796389,"lon":121.137222},{"id":2123097,"name":"kanbual","country":"ph","lat":5.948333,"lon":121.318056},{"id":2123275,"name":"kaonpang","country":"ph","lat":5.815,"lon":121.2055},{"id":2123974,"name":"kiput","country":"ph","lat":5.829948,"lon":121.139462},{"id":2102576,"name":"aluduyung","country":"ph","lat":5.683333,"lon":120.866667},{"id":2127216,"name":"lumapit","country":"ph","lat":5.9055,"lon":121.0611},{"id":2124489,"name":"lagasan asibi","country":"ph","lat":5.913056,"lon":120.98},{"id":2122593,"name":"kabugan","country":"ph","lat":6.270833,"lon":120.571944},{"id":2110094,"name":"bulaanon","country":"ph","lat":5.806871,"lon":121.150577},{"id":2124183,"name":"kulay-kulay","country":"ph","lat":5.945278,"lon":121.2325},{"id":2134943,"name":"pagans","country":"ph","lat":5.879824,"lon":121.259644},{"id":2135802,"name":"pananaw","country":"ph","lat":5.981111,"lon":121.214722},{"id":2136553,"name":"parang","country":"ph","lat":5.9137,"lon":120.9056},{"id":2146055,"name":"tangcapan","country":"ph","lat":5.717859,"lon":121.022136},{"id":2136894,"name":"patibulan","country":"ph","lat":5.929759,"lon":121.261374},{"id":2122625,"name":"kabungkagan","country":"ph","lat":6.286111,"lon":120.545278},{"id":2136241,"name":"paninuran","country":"ph","lat":6.385556,"lon":120.575556},{"id":2123428,"name":"kasigkas","country":"ph","lat":5.940556,"lon":121.275556},{"id":2119111,"name":"gamai","country":"ph","lat":5.98571,"lon":121.194157},{"id":2127050,"name":"lubuk","country":"ph","lat":5.910652,"lon":121.113875},{"id":2136620,"name":"parian langgal","country":"ph","lat":6.308889,"lon":120.550556},{"id":2135892,"name":"pandakan","country":"ph","lat":5.988889,"lon":121.165833},{"id":2131195,"name":"marunggas","country":"ph","lat":6.103889,"lon":120.962778},{"id":2124252,"name":"kuta\" parang","country":"ph","lat":5.683333,"lon":120.833333},{"id":2116864,"name":"danag","country":"ph","lat":6.024722,"lon":121.075556},{"id":2117600,"name":"dicong","country":"ph","lat":5.9295,"lon":120.9167},{"id":2123672,"name":"kehe niog","country":"ph","lat":6.3719,"lon":120.5619},{"id":2107402,"name":"bato-ugis","country":"ph","lat":5.914,"lon":120.991},{"id":2104608,"name":"bag sak","country":"ph","lat":5.8976,"lon":120.9284},{"id":2118328,"name":"dumag","country":"ph","lat":6.305556,"lon":120.573333},{"id":2137288,"name":"pialong","country":"ph","lat":5.542222,"lon":120.849444},{"id":2110290,"name":"buli","country":"ph","lat":5.9184,"lon":120.9534},{"id":2110458,"name":"bunat","country":"ph","lat":5.993204,"lon":120.992835},{"id":2134973,"name":"pagatpat","country":"ph","lat":5.5754,"lon":120.8331},{"id":2125387,"name":"latang","country":"ph","lat":5.561667,"lon":120.876111},{"id":2147573,"name":"tongol","country":"ph","lat":5.920437,"lon":121.264503},{"id":2127527,"name":"luuk pataw","country":"ph","lat":6.359167,"lon":120.555278},{"id":2135340,"name":"palan","country":"ph","lat":5.959303,"lon":121.030633},{"id":2131365,"name":"masok","country":"ph","lat":5.9,"lon":121.316667},{"id":2147158,"name":"tinda laud","country":"ph","lat":6.05,"lon":121.0},{"id":2123096,"name":"kan basilan","country":"ph","lat":5.984444,"lon":121.34},{"id":2148021,"name":"tugas","country":"ph","lat":6.06,"lon":121.0525},{"id":2123191,"name":"kanjarang","country":"ph","lat":5.790833,"lon":121.168889},{"id":2119163,"name":"gandasuli","country":"ph","lat":6.075,"lon":121.015278},{"id":2121662,"name":"imodan","country":"ph","lat":5.97312,"lon":121.107645},{"id":2147813,"name":"tubig-katian","country":"ph","lat":5.781198,"lon":121.164197},{"id":2143696,"name":"sitacaya","country":"ph","lat":6.3825,"lon":120.569722},{"id":2146090,"name":"tang-kuan","country":"ph","lat":5.961506,"lon":121.352799},{"id":2139871,"name":"sait higud","country":"ph","lat":6.003333,"lon":121.238889},{"id":2147303,"name":"tiptipon","country":"ph","lat":5.996944,"lon":121.166389},{"id":2123489,"name":"katibung","country":"ph","lat":6.3422,"lon":120.5482},{"id":2147028,"name":"timpuok","country":"ph","lat":6.021111,"lon":121.166111},{"id":2148309,"name":"tunggol","country":"ph","lat":5.844583,"lon":121.154357},{"id":2144293,"name":"sungab","country":"ph","lat":5.878056,"lon":121.281944},{"id":2145033,"name":"tagibi","country":"ph","lat":6.089167,"lon":121.105278},{"id":2123005,"name":"kambangtuli","country":"ph","lat":5.983333,"lon":121.083333},{"id":2144326,"name":"suoc","country":"ph","lat":6.016667,"lon":121.183333},{"id":2103192,"name":"anogal","country":"ph","lat":6.016667,"lon":120.9},{"id":2124995,"name":"langkaan","country":"ph","lat":5.9218,"lon":120.8818},{"id":2137826,"name":"pisak pisak","country":"ph","lat":5.843638,"lon":121.160812},{"id":2124192,"name":"kulid","country":"ph","lat":6.3268,"lon":120.5522},{"id":2107238,"name":"bata punta","country":"ph","lat":5.905,"lon":121.101944},{"id":2107906,"name":"berona","country":"ph","lat":6.374722,"lon":120.583056},{"id":2143140,"name":"siet","country":"ph","lat":5.980954,"lon":121.215787},{"id":2137825,"name":"pisak","country":"ph","lat":5.553611,"lon":120.861389},{"id":2126749,"name":"looc daniagan","country":"ph","lat":5.75,"lon":120.9},{"id":2143297,"name":"silumpac","country":"ph","lat":5.5068,"lon":120.8922},{"id":2109646,"name":"bubuan","country":"ph","lat":6.1792,"lon":120.9699},{"id":2135157,"name":"paiksa","country":"ph","lat":5.966667,"lon":121.2},{"id":2117971,"name":"docotansu","country":"ph","lat":5.816667,"lon":121.133333},{"id":2110142,"name":"bulaghan","country":"ph","lat":6.021111,"lon":121.400278}]});