callback({"markets":[{"id":131753,"name":"laprida","country":"ar","lat":-37.544148,"lon":-60.799694},{"id":131902,"name":"las hermanas","country":"ar","lat":-37.616734,"lon":-60.877714},{"id":132992,"name":"n. descalzi","country":"ar","lat":-38.439822,"lon":-60.988142},{"id":131364,"name":"krabbe","country":"ar","lat":-37.784591,"lon":-61.143089},{"id":131550,"name":"la gloria","country":"ar","lat":-38.439265,"lon":-61.27365},{"id":128724,"name":"centro urquiza","country":"ar","lat":-38.478376,"lon":-61.376218},{"id":131382,"name":"la aurora","country":"ar","lat":-38.440334,"lon":-61.121945},{"id":129967,"name":"el pensamiento","country":"ar","lat":-38.214061,"lon":-61.317612},{"id":133767,"name":"pueblo nuevo","country":"ar","lat":-37.519666,"lon":-60.767739},{"id":133429,"name":"pedro p. lassalle","country":"ar","lat":-37.983771,"lon":-60.581795},{"id":131947,"name":"las mostazas","country":"ar","lat":-38.270334,"lon":-61.351709},{"id":132089,"name":"la virginia","country":"ar","lat":-38.087653,"lon":-61.0439},{"id":133521,"name":"pierini","country":"ar","lat":-38.110782,"lon":-60.687985},{"id":133532,"name":"pillahuinco","country":"ar","lat":-38.1,"lon":-61.35},{"id":133609,"name":"pontaut","country":"ar","lat":-37.731528,"lon":-61.325121},{"id":131197,"name":"j. caderocco","country":"ar","lat":-38.135549,"lon":-61.090636},{"id":134119,"name":"raulet","country":"ar","lat":-37.883333,"lon":-61.483333},{"id":131034,"name":"indio rico","country":"ar","lat":-38.330751,"lon":-60.884928},{"id":133306,"name":"paraguil","country":"ar","lat":-37.693861,"lon":-60.981547},{"id":129836,"name":"el divisorio","country":"ar","lat":-38.322196,"lon":-61.44518},{"id":132133,"name":"libano","country":"ar","lat":-37.533539,"lon":-61.287282},{"id":129386,"name":"coronel pringles","country":"ar","lat":-37.982949,"lon":-61.356151},{"id":134159,"name":"reserva","country":"ar","lat":-37.827611,"lon":-61.220013},{"id":133309,"name":"paraje el gavilan","country":"ar","lat":-38.193664,"lon":-61.179674}]});