callback({"markets":[{"id":135900,"name":"villa rural","country":"ar","lat":-27.783333,"lon":-55.233333},{"id":294620,"name":"cerro largo","country":"br","lat":-28.15,"lon":-54.75},{"id":311920,"name":"porto lucena","country":"br","lat":-27.85,"lon":-55.016667},{"id":316567,"name":"sao lourenco das missoes","country":"br","lat":-28.466667,"lon":-54.716667},{"id":133756,"name":"pueblo guarani","country":"ar","lat":-27.516667,"lon":-55.166667},{"id":127853,"name":"arroyo del medio","country":"ar","lat":-27.7,"lon":-55.416667},{"id":132291,"name":"los galpones","country":"ar","lat":-27.793845,"lon":-55.213859},{"id":133921,"name":"puerto san isidro","country":"ar","lat":-28.066667,"lon":-55.416667},{"id":294925,"name":"cinquentenario","country":"br","lat":-27.666667,"lon":-54.6},{"id":315636,"name":"santo christo","country":"br","lat":-27.833333,"lon":-54.666667},{"id":314454,"name":"salgado filho","country":"br","lat":-28.016667,"lon":-54.533333},{"id":133915,"name":"puerto rosario","country":"ar","lat":-27.77977,"lon":-55.017193},{"id":316922,"name":"sao roque","country":"br","lat":-27.716667,"lon":-54.55},{"id":133288,"name":"panambi","country":"ar","lat":-27.723695,"lon":-54.915145},{"id":300530,"name":"guaramano","country":"br","lat":-28.133333,"lon":-54.566667},{"id":133483,"name":"picada sueca","country":"ar","lat":-27.566667,"lon":-55.233333},{"id":127596,"name":"almafuerte","country":"ar","lat":-27.505181,"lon":-55.394969},{"id":134839,"name":"santa rita","country":"ar","lat":-27.519565,"lon":-54.728717},{"id":132812,"name":"mojon grande","country":"ar","lat":-27.711645,"lon":-55.156307},{"id":316542,"name":"sao jose","country":"br","lat":-27.616667,"lon":-54.666667},{"id":317743,"name":"sete de setembro","country":"br","lat":-27.916667,"lon":-54.6},{"id":296151,"name":"cristal","country":"br","lat":-27.9,"lon":-54.95},{"id":133479,"name":"picada galitziana","country":"ar","lat":-27.55,"lon":-55.466667},{"id":129218,"name":"colonia santa maria","country":"ar","lat":-27.903565,"lon":-55.38541},{"id":316776,"name":"sao nicolao","country":"br","lat":-28.183333,"lon":-55.266667},{"id":292787,"name":"campina","country":"br","lat":-27.983333,"lon":-54.85},{"id":314121,"name":"rolador","country":"br","lat":-28.25,"lon":-54.816667},{"id":133481,"name":"picada lopez","country":"ar","lat":-27.670694,"lon":-55.245854},{"id":131110,"name":"invernada de itacaruare","country":"ar","lat":-27.816667,"lon":-55.3},{"id":314164,"name":"roque gonzalez","country":"br","lat":-28.116667,"lon":-55.033333},{"id":133482,"name":"picada san javier","country":"ar","lat":-27.716667,"lon":-55.283333},{"id":291116,"name":"bom principio","country":"br","lat":-27.8,"lon":-54.766667},{"id":285950,"name":"23 de julho","country":"br","lat":-27.966667,"lon":-54.616667},{"id":132132,"name":"l.h. alem leandro","country":"ar","lat":-27.603411,"lon":-55.324915},{"id":131144,"name":"itacaruare","country":"ar","lat":-27.87093,"lon":-55.263467},{"id":292859,"name":"campo alegre","country":"br","lat":-27.633333,"lon":-54.633333},{"id":127500,"name":"alba posse","country":"ar","lat":-27.569779,"lon":-54.682621},{"id":311582,"name":"porto bugre","country":"br","lat":-27.6,"lon":-54.833333},{"id":294623,"name":"cerro pelado","country":"br","lat":-27.9,"lon":-55.133333},{"id":317665,"name":"serrinha","country":"br","lat":-28.333333,"lon":-54.833333},{"id":134589,"name":"san javier","country":"ar","lat":-27.874268,"lon":-55.135087},{"id":293203,"name":"candido godoi","country":"br","lat":-27.95,"lon":-54.766667},{"id":129661,"name":"dos arroyos","country":"ar","lat":-27.707842,"lon":-55.233643},{"id":310780,"name":"pirapo","country":"br","lat":-28.033333,"lon":-55.25},{"id":312356,"name":"pratos","country":"br","lat":-27.5,"lon":-54.5},{"id":306817,"name":"mombach","country":"br","lat":-27.7,"lon":-54.75},{"id":134580,"name":"san isidro","country":"ar","lat":-28.028284,"lon":-55.427837},{"id":290623,"name":"boa centro","country":"br","lat":-27.75,"lon":-54.5},{"id":128052,"name":"barra bonita","country":"ar","lat":-27.598926,"lon":-54.84347},{"id":302105,"name":"itaroquem","country":"br","lat":-28.483333,"lon":-55.35},{"id":316653,"name":"sao luiz","country":"br","lat":-28.4,"lon":-54.966667},{"id":304420,"name":"laranjeiras","country":"br","lat":-28.05,"lon":-54.683333},{"id":132296,"name":"los helechos","country":"ar","lat":-27.557598,"lon":-55.076828},{"id":311946,"name":"porto maua","country":"br","lat":-27.583333,"lon":-54.666667},{"id":130435,"name":"florentino ameghino","country":"ar","lat":-27.566667,"lon":-55.133333},{"id":314995,"name":"santa lucia","country":"br","lat":-28.283333,"lon":-54.633333},{"id":128737,"name":"cerro azul","country":"ar","lat":-27.633097,"lon":-55.4962},{"id":286640,"name":"alecrim","country":"br","lat":-27.65,"lon":-54.766667}]});