callback({"markets":[{"id":2858502,"name":"ukimbu","country":"tz","lat":-5.9333333,"lon":34.1666667},{"id":2852318,"name":"itigi","country":"tz","lat":-5.7,"lon":34.4833333},{"id":2852102,"name":"ikungu","country":"tz","lat":-5.5,"lon":33.8333333},{"id":2853342,"name":"kilumbi","country":"tz","lat":-6.2833333,"lon":33.85},{"id":2852383,"name":"jamkola","country":"tz","lat":-6.0333333,"lon":34.45},{"id":2858175,"name":"sila","country":"tz","lat":-6.4166667,"lon":33.5833333},{"id":2852204,"name":"ipunguli","country":"tz","lat":-5.85,"lon":34.3666667},{"id":2854613,"name":"magiro","country":"tz","lat":-6.1666667,"lon":34.4666667},{"id":2858635,"name":"usuhilo","country":"tz","lat":-6.4,"lon":33.9333333},{"id":2852420,"name":"jiwe la simba","country":"tz","lat":-6.0,"lon":34.0833333},{"id":2855611,"name":"mikituli","country":"tz","lat":-6.0,"lon":33.9166667},{"id":2856999,"name":"nayirago","country":"tz","lat":-6.3,"lon":34.1166667},{"id":2856557,"name":"muwale","country":"tz","lat":-6.3666667,"lon":33.7833333},{"id":2851493,"name":"chona","country":"tz","lat":-5.75,"lon":34.0833333},{"id":2856497,"name":"mungalo","country":"tz","lat":-6.3666667,"lon":34.1},{"id":2855457,"name":"mgandu","country":"tz","lat":-5.95,"lon":34.1333333},{"id":2853554,"name":"kirurumo","country":"tz","lat":-5.8833333,"lon":34.1833333},{"id":2853500,"name":"kipili","country":"tz","lat":-6.1833333,"lon":33.9},{"id":2852090,"name":"ikonse","country":"tz","lat":-6.2166667,"lon":34.25},{"id":2851276,"name":"chabutwa","country":"tz","lat":-5.9833333,"lon":34.1166667},{"id":2857588,"name":"nyauwele","country":"tz","lat":-6.0333333,"lon":34.3166667},{"id":2858449,"name":"tura","country":"tz","lat":-5.5166667,"lon":33.8333333},{"id":2852576,"name":"kalangali","country":"tz","lat":-6.1,"lon":33.95},{"id":2856159,"name":"msalalo","country":"tz","lat":-5.9333333,"lon":34.35},{"id":2856436,"name":"muhamamoja","country":"tz","lat":-5.5166667,"lon":34.3166667},{"id":2853463,"name":"kiombo","country":"tz","lat":-6.1666667,"lon":33.9},{"id":2857998,"name":"salamba","country":"tz","lat":-6.2,"lon":34.1},{"id":2852281,"name":"isumba","country":"tz","lat":-6.3666667,"lon":33.6666667},{"id":2853580,"name":"kisangala","country":"tz","lat":-6.3833333,"lon":34.1333333},{"id":2856020,"name":"mnyani","country":"tz","lat":-6.3166667,"lon":34.4166667},{"id":2853493,"name":"kipera","country":"tz","lat":-6.0666667,"lon":34.15}]});