callback({"markets":[{"id":2562080,"name":"yefimovskaya vtoraya","country":"ru","lat":56.383333,"lon":56.5},{"id":2476715,"name":"novyy akbulyak","country":"ru","lat":55.906515,"lon":56.724393},{"id":2421895,"name":"kireyevka","country":"ru","lat":55.966534,"lon":56.975529},{"id":2483114,"name":"ozerko","country":"ru","lat":56.166667,"lon":56.866667},{"id":2488866,"name":"petukhovo","country":"ru","lat":55.773179,"lon":56.749414},{"id":2571568,"name":"zhuki","country":"ru","lat":56.369475,"lon":56.619677},{"id":2364841,"name":"ateskiy klyuch","country":"ru","lat":56.466667,"lon":56.766667},{"id":2536934,"name":"tlyakova","country":"ru","lat":56.244208,"lon":57.13832},{"id":2551843,"name":"verkhniy leun","country":"ru","lat":56.3,"lon":56.833333},{"id":2478722,"name":"odina","country":"ru","lat":56.409209,"lon":56.632679},{"id":2542500,"name":"tyuysk","country":"ru","lat":56.264787,"lon":56.616702},{"id":2410884,"name":"kairovo","country":"ru","lat":55.831636,"lon":57.403486},{"id":2533911,"name":"tashly-kul","country":"ru","lat":56.164693,"lon":57.244678},{"id":2547594,"name":"vagilevo","country":"ru","lat":56.316667,"lon":57.116667},{"id":2563103,"name":"yelnik","country":"ru","lat":56.132083,"lon":56.921151},{"id":2547168,"name":"utyashino","country":"ru","lat":56.091543,"lon":56.801283},{"id":2552392,"name":"verkhnyaya iren","country":"ru","lat":56.488068,"lon":56.951961},{"id":2368809,"name":"bayki","country":"ru","lat":55.843005,"lon":56.807744},{"id":2364838,"name":"atero-klyuch","country":"ru","lat":56.4758,"lon":56.772958},{"id":2436557,"name":"kubiyazy","country":"ru","lat":56.103735,"lon":56.743855},{"id":2384749,"name":"chemayevo","country":"ru","lat":55.546485,"lon":56.587131},{"id":2372554,"name":"bilgish","country":"ru","lat":56.003499,"lon":56.908698},{"id":2422489,"name":"kiselevskiy","country":"ru","lat":56.033333,"lon":57.25},{"id":2472648,"name":"novoberdyash","country":"ru","lat":55.626697,"lon":57.116159},{"id":2449171,"name":"maginsk","country":"ru","lat":55.763378,"lon":56.965827},{"id":2512772,"name":"shamratovo","country":"ru","lat":55.602776,"lon":57.144119},{"id":2525803,"name":"starokochkildino","country":"ru","lat":56.091265,"lon":56.856031},{"id":2534401,"name":"tavda","country":"ru","lat":56.416667,"lon":56.966667},{"id":2524888,"name":"staraya burma","country":"ru","lat":56.12769,"lon":56.668119},{"id":2562755,"name":"yeleyevo","country":"ru","lat":55.516667,"lon":56.6},{"id":2517772,"name":"shveya","country":"ru","lat":56.123474,"lon":57.01441},{"id":2406832,"name":"ilinsk","country":"ru","lat":56.349425,"lon":56.542117},{"id":2439523,"name":"kurzya","country":"ru","lat":55.607866,"lon":56.80772},{"id":2525588,"name":"starobagazy","country":"ru","lat":55.88415,"lon":56.885927},{"id":2414813,"name":"kartkisyak","country":"ru","lat":55.943296,"lon":56.589225},{"id":2545794,"name":"ust-bartaga","country":"ru","lat":56.05669,"lon":57.272395},{"id":2364538,"name":"askin","country":"ru","lat":56.090131,"lon":56.578311},{"id":2544607,"name":"urgush","country":"ru","lat":55.736685,"lon":56.665881},{"id":2447816,"name":"lutfulino","country":"ru","lat":55.633333,"lon":56.65},{"id":2476875,"name":"novyye bogazy","country":"ru","lat":56.003107,"lon":56.705447},{"id":2536040,"name":"tiginskiy klyuch","country":"ru","lat":56.383333,"lon":57.383333},{"id":2467828,"name":"nikolskiy zavod","country":"ru","lat":56.233333,"lon":56.683333},{"id":2473327,"name":"novokarysh","country":"ru","lat":56.218183,"lon":56.508918},{"id":2405108,"name":"gumbina","country":"ru","lat":55.996245,"lon":57.04936},{"id":2372846,"name":"biyaz","country":"ru","lat":55.918027,"lon":57.487736},{"id":2457045,"name":"medyanka","country":"ru","lat":55.666667,"lon":57.216667},{"id":2358212,"name":"abyzovo","country":"ru","lat":55.825336,"lon":56.935516},{"id":2532070,"name":"syroy kalmash","country":"ru","lat":55.626152,"lon":57.469782},{"id":2367908,"name":"bartym","country":"ru","lat":55.808576,"lon":57.497117},{"id":2381751,"name":"bulmazy","country":"ru","lat":55.88688,"lon":57.001812},{"id":2438228,"name":"kungak-bash","country":"ru","lat":56.245642,"lon":57.360142},{"id":2429985,"name":"kosobachevo","country":"ru","lat":56.05,"lon":56.65},{"id":2565243,"name":"yumranovo","country":"ru","lat":56.330134,"lon":56.797328},{"id":2473945,"name":"novomullakayevo","country":"ru","lat":55.950923,"lon":57.100346},{"id":2534138,"name":"tatarskiy kudash","country":"ru","lat":55.510404,"lon":57.015313},{"id":2500851,"name":"rasstrelyayevo","country":"ru","lat":55.766667,"lon":56.666667},{"id":2486832,"name":"permichovka","country":"ru","lat":56.307522,"lon":57.230603},{"id":2449139,"name":"maga","country":"ru","lat":55.783333,"lon":57.166667},{"id":2477638,"name":"novyy suyush","country":"ru","lat":56.01117,"lon":56.987205},{"id":2526975,"name":"staryy akbulyak","country":"ru","lat":55.892489,"lon":56.741731},{"id":2365592,"name":"azimovka","country":"ru","lat":56.241556,"lon":56.740578},{"id":2532391,"name":"tabaska","country":"ru","lat":56.130478,"lon":57.460908},{"id":2488388,"name":"petropavlovsk","country":"ru","lat":56.338435,"lon":57.117595},{"id":2548472,"name":"varyazh","country":"ru","lat":56.259465,"lon":56.831285},{"id":2530119,"name":"sultanbekovka","country":"ru","lat":56.028922,"lon":57.139111},{"id":2506601,"name":"safonovka","country":"ru","lat":55.58164,"lon":57.392061},{"id":2523983,"name":"sredne-turgenevo","country":"ru","lat":55.633333,"lon":56.8},{"id":2361062,"name":"almas","country":"ru","lat":56.424323,"lon":56.648926},{"id":2368808,"name":"baykibashevo","country":"ru","lat":55.806879,"lon":56.56437},{"id":2382424,"name":"burtsovo","country":"ru","lat":55.611401,"lon":57.398664},{"id":2533129,"name":"tana","country":"ru","lat":56.292707,"lon":57.221051},{"id":2364898,"name":"atnyashkino","country":"ru","lat":55.665056,"lon":56.554874},{"id":2541253,"name":"turayevka","country":"ru","lat":56.310179,"lon":56.72101},{"id":2544983,"name":"urshady","country":"ru","lat":56.148685,"lon":57.079007},{"id":2466426,"name":"nepryakhino","country":"ru","lat":55.677432,"lon":56.665026},{"id":2471225,"name":"novaya derevnya","country":"ru","lat":56.340724,"lon":57.44806},{"id":2387028,"name":"chikur","country":"ru","lat":56.133333,"lon":57.033333},{"id":2455391,"name":"maryanovo","country":"ru","lat":56.353529,"lon":57.001171},{"id":2455406,"name":"maryeva","country":"ru","lat":56.3,"lon":56.566667},{"id":2469104,"name":"nizhneye turgenevo","country":"ru","lat":55.632938,"lon":56.76578},{"id":2408534,"name":"ishimovka","country":"ru","lat":56.183333,"lon":57.066667},{"id":2368816,"name":"bayki-yunusovo","country":"ru","lat":55.879133,"lon":56.605419},{"id":2440162,"name":"kuyashtyr","country":"ru","lat":56.018399,"lon":56.57927},{"id":2361685,"name":"anastasino","country":"ru","lat":56.112637,"lon":56.978526},{"id":2368862,"name":"baymurzina","country":"ru","lat":56.362509,"lon":56.712087},{"id":2382380,"name":"bursya","country":"ru","lat":55.566667,"lon":57.35},{"id":2548774,"name":"vasilyevka","country":"ru","lat":56.336517,"lon":56.546491},{"id":2358211,"name":"abyzova","country":"ru","lat":55.8,"lon":57.0},{"id":2527575,"name":"staryy urmiyazy","country":"ru","lat":56.087657,"lon":56.881689},{"id":2550418,"name":"verkhnekazmash","country":"ru","lat":55.550771,"lon":56.986729},{"id":2358372,"name":"adileva","country":"ru","lat":56.312491,"lon":57.130526},{"id":2544404,"name":"ural-mari","country":"ru","lat":56.233333,"lon":57.133333},{"id":2367909,"name":"bartym","country":"ru","lat":56.454611,"lon":56.940539},{"id":2358795,"name":"agarzya","country":"ru","lat":56.475065,"lon":56.512503},{"id":2469855,"name":"nizhniy suyan","country":"ru","lat":55.959296,"lon":57.203092},{"id":2522412,"name":"sorokina","country":"ru","lat":56.406173,"lon":57.168473},{"id":2542179,"name":"tyuinskiy","country":"ru","lat":56.329314,"lon":56.586391},{"id":2551276,"name":"verkhniy biyavash","country":"ru","lat":56.174827,"lon":56.956719},{"id":2571143,"name":"zhikino","country":"ru","lat":56.436564,"lon":56.751151},{"id":2371683,"name":"berlog","country":"ru","lat":55.783333,"lon":57.066667},{"id":2526783,"name":"staroye yansaitovo","country":"ru","lat":55.7,"lon":56.85},{"id":2394361,"name":"duvaneyskiy","country":"ru","lat":56.045866,"lon":56.653438},{"id":2550726,"name":"verkhne-turgenevo","country":"ru","lat":55.651808,"lon":56.802118},{"id":2534724,"name":"tegermenevo","country":"ru","lat":55.902121,"lon":56.659197},{"id":2438164,"name":"kunchak","country":"ru","lat":56.216984,"lon":57.306969},{"id":2413024,"name":"kanton","country":"ru","lat":55.620852,"lon":57.116257},{"id":2513032,"name":"sharapovka","country":"ru","lat":56.233013,"lon":57.049149},{"id":2514098,"name":"shchuchye","country":"ru","lat":56.479945,"lon":56.629422},{"id":2455838,"name":"mata","country":"ru","lat":55.571102,"lon":57.151652},{"id":2549211,"name":"vayeshta","country":"ru","lat":56.180449,"lon":57.185173},{"id":2357923,"name":"abdal","country":"ru","lat":56.018778,"lon":56.679621},{"id":2542498,"name":"tyuynoe ozero","country":"ru","lat":56.262783,"lon":56.657379},{"id":2375895,"name":"bolshegordino","country":"ru","lat":56.210338,"lon":56.696764},{"id":2382416,"name":"burtsevo","country":"ru","lat":56.278381,"lon":57.130361},{"id":2415178,"name":"kashkino","country":"ru","lat":56.02016,"lon":56.995783},{"id":2382189,"name":"burkhanovka","country":"ru","lat":55.516667,"lon":57.133333},{"id":2391076,"name":"dmitriyevka","country":"ru","lat":56.333333,"lon":56.583333},{"id":2361474,"name":"amir","country":"ru","lat":56.035782,"lon":56.97992},{"id":2435781,"name":"krush","country":"ru","lat":55.992735,"lon":57.425626},{"id":2484271,"name":"panovka","country":"ru","lat":56.016667,"lon":56.783333},{"id":2544322,"name":"upkhangulovo","country":"ru","lat":55.930542,"lon":56.502168},{"id":2561391,"name":"yarushino","country":"ru","lat":56.416704,"lon":57.265481},{"id":2462964,"name":"mulakayeva","country":"ru","lat":55.938428,"lon":57.121656},{"id":2552821,"name":"verkhnyaya tana","country":"ru","lat":56.333333,"lon":57.316667},{"id":2550541,"name":"verkhnenikolskoye","country":"ru","lat":56.248014,"lon":56.637086},{"id":2388258,"name":"churashevo","country":"ru","lat":56.076806,"lon":57.17787},{"id":2358855,"name":"agirzya","country":"ru","lat":55.580589,"lon":57.237323},{"id":2532864,"name":"talog","country":"ru","lat":56.254617,"lon":56.625366},{"id":2527371,"name":"staryy khutor","country":"ru","lat":56.216667,"lon":56.616667},{"id":2516233,"name":"shishma","country":"ru","lat":56.15,"lon":56.9},{"id":2383809,"name":"chapash","country":"ru","lat":55.941417,"lon":56.982509},{"id":2546457,"name":"ust-savarovo","country":"ru","lat":56.222923,"lon":57.112417},{"id":2480907,"name":"orlovka","country":"ru","lat":56.291871,"lon":56.720228},{"id":2358794,"name":"agarzinskiy","country":"ru","lat":56.450838,"lon":56.506663},{"id":2438643,"name":"kurbatovskoye","country":"ru","lat":55.783333,"lon":57.3},{"id":2497153,"name":"pritsymbalovka","country":"ru","lat":55.966667,"lon":57.2},{"id":2475704,"name":"novoyansaitovo","country":"ru","lat":55.706772,"lon":56.857623},{"id":2545131,"name":"uryush-bitulino","country":"ru","lat":55.630599,"lon":56.535528},{"id":2410847,"name":"kainchak","country":"ru","lat":55.562549,"lon":56.98123},{"id":2428287,"name":"kordon","country":"ru","lat":56.2,"lon":56.916667},{"id":2503199,"name":"romanovka","country":"ru","lat":56.452641,"lon":57.321036},{"id":2478117,"name":"nyrok","country":"ru","lat":56.351292,"lon":57.042478},{"id":2421760,"name":"kioranovo","country":"ru","lat":56.333333,"lon":56.783333},{"id":2509433,"name":"sedyash","country":"ru","lat":56.367288,"lon":57.076353},{"id":2547829,"name":"valeyaz","country":"ru","lat":55.566667,"lon":57.316667},{"id":2514085,"name":"shchuchye ozero","country":"ru","lat":56.471381,"lon":56.646818},{"id":2444499,"name":"levyy aydos","country":"ru","lat":55.7,"lon":56.816667},{"id":2406874,"name":"ilinskoye","country":"ru","lat":55.783333,"lon":57.25},{"id":2360154,"name":"aleksandrovka","country":"ru","lat":56.35,"lon":56.633333},{"id":2364540,"name":"askish","country":"ru","lat":55.916884,"lon":56.594709},{"id":2471161,"name":"novaya burma","country":"ru","lat":56.156896,"lon":56.675742},{"id":2552079,"name":"verkhniy tesyak","country":"ru","lat":56.292621,"lon":56.69836},{"id":2486911,"name":"pershino","country":"ru","lat":56.156101,"lon":56.644629},{"id":2527514,"name":"staryy shardak","country":"ru","lat":56.333333,"lon":56.933333},{"id":2402177,"name":"gornoye","country":"ru","lat":55.679831,"lon":56.71005},{"id":2413452,"name":"karaidelskiy","country":"ru","lat":55.821827,"lon":57.106155},{"id":2364781,"name":"atamanovka","country":"ru","lat":55.574964,"lon":56.700729},{"id":2483416,"name":"ozinka","country":"ru","lat":56.233333,"lon":56.733333},{"id":2363152,"name":"aprelova","country":"ru","lat":55.833333,"lon":57.15},{"id":2554782,"name":"vladimirovka","country":"ru","lat":56.284211,"lon":56.841032},{"id":2477640,"name":"novyy svet","country":"ru","lat":55.85,"lon":56.733333},{"id":2411908,"name":"kamashady","country":"ru","lat":56.097807,"lon":57.15659},{"id":2482571,"name":"otsadino","country":"ru","lat":56.166667,"lon":57.066667},{"id":2364895,"name":"atnyash","country":"ru","lat":55.57358,"lon":57.221303},{"id":2504997,"name":"russkiy sars","country":"ru","lat":56.197879,"lon":57.099543},{"id":2534372,"name":"tauta","country":"ru","lat":56.301265,"lon":56.82958},{"id":2400980,"name":"goltsevo","country":"ru","lat":56.331626,"lon":57.136038},{"id":2444645,"name":"lidino","country":"ru","lat":56.190039,"lon":56.965481},{"id":2415878,"name":"kaymovo","country":"ru","lat":56.360433,"lon":56.513099},{"id":2378368,"name":"bolshoy sars","country":"ru","lat":56.474884,"lon":57.117333},{"id":2551213,"name":"verkhniy ater","country":"ru","lat":56.466667,"lon":56.85},{"id":2444225,"name":"leun","country":"ru","lat":56.230071,"lon":56.798164},{"id":2455837,"name":"matala","country":"ru","lat":56.052952,"lon":56.769929},{"id":2546529,"name":"ust-sukhoyaz","country":"ru","lat":55.711406,"lon":57.086593},{"id":2473477,"name":"novokochkildino","country":"ru","lat":56.085947,"lon":56.858472},{"id":2365062,"name":"avaday","country":"ru","lat":56.132274,"lon":56.689916},{"id":2367292,"name":"barakhayevka","country":"ru","lat":56.146929,"lon":56.549718},{"id":2566162,"name":"yuzhnyy","country":"ru","lat":56.296947,"lon":56.928568},{"id":2438512,"name":"kuraish","country":"ru","lat":55.75,"lon":57.15},{"id":2393956,"name":"dultsevka","country":"ru","lat":56.092742,"lon":57.000408},{"id":2552836,"name":"verkhnyaya tiga","country":"ru","lat":56.366667,"lon":57.283333},{"id":2565877,"name":"yuryuzan","country":"ru","lat":55.680204,"lon":57.068486},{"id":2469881,"name":"nizhniy tesyak","country":"ru","lat":56.230259,"lon":56.74563},{"id":2388957,"name":"dalnyaya gora","country":"ru","lat":56.316667,"lon":57.316667},{"id":2551366,"name":"verkhniye baraki","country":"ru","lat":56.248767,"lon":56.559773},{"id":2552882,"name":"verkhnyaya urmeya","country":"ru","lat":56.190245,"lon":56.83894},{"id":2410778,"name":"kadysi","country":"ru","lat":55.645002,"lon":57.081465},{"id":2527507,"name":"staryy sars","country":"ru","lat":56.033333,"lon":57.133333},{"id":2552049,"name":"verkhniy suyan","country":"ru","lat":56.042001,"lon":57.272393},{"id":2413451,"name":"karaidel","country":"ru","lat":55.833725,"lon":56.906922},{"id":2542167,"name":"tyugash","country":"ru","lat":56.216667,"lon":56.933333},{"id":2528266,"name":"stolbovka","country":"ru","lat":56.237285,"lon":56.79314},{"id":2419862,"name":"khoroshayevo","country":"ru","lat":55.604182,"lon":56.679307},{"id":2536031,"name":"tiga","country":"ru","lat":56.35,"lon":57.166667},{"id":2545802,"name":"ust-bayka","country":"ru","lat":55.8,"lon":56.85},{"id":2372844,"name":"biyavash","country":"ru","lat":56.151163,"lon":56.962325},{"id":2476408,"name":"novoye yamurzino","country":"ru","lat":55.933333,"lon":56.833333},{"id":2393601,"name":"dubrovka","country":"ru","lat":56.366667,"lon":56.933333},{"id":2501965,"name":"remino","country":"ru","lat":56.2,"lon":56.55},{"id":2527025,"name":"staryy burungut","country":"ru","lat":55.683333,"lon":56.966667},{"id":2364836,"name":"aterbash","country":"ru","lat":55.72734,"lon":56.614505},{"id":2364839,"name":"aterskiy","country":"ru","lat":56.478981,"lon":56.800923},{"id":2418525,"name":"khimicheskiy zavod","country":"ru","lat":56.228007,"lon":56.675774},{"id":2444652,"name":"lidovka","country":"ru","lat":56.294299,"lon":56.639136},{"id":2457440,"name":"melnikovskiy","country":"ru","lat":56.463898,"lon":56.665679},{"id":2453755,"name":"malyy sars","country":"ru","lat":56.424101,"lon":57.153469}]});