callback({"markets":[{"id":2418999,"name":"khmelniki","country":"ru","lat":55.9159,"lon":92.2521},{"id":2532899,"name":"talovskiy","country":"ru","lat":55.916667,"lon":92.066667},{"id":2390961,"name":"divnogorsk","country":"ru","lat":55.9581,"lon":92.3726},{"id":2363488,"name":"areyskoye","country":"ru","lat":56.0949,"lon":92.4446},{"id":2362774,"name":"antonovka","country":"ru","lat":56.1674,"lon":91.7083},{"id":2452758,"name":"maly-kaydat","country":"ru","lat":55.971944,"lon":91.553333},{"id":2392221,"name":"donnikova","country":"ru","lat":55.583333,"lon":92.466667},{"id":2455672,"name":"maslinskiy","country":"ru","lat":55.633333,"lon":92.483333},{"id":2409288,"name":"ivanova","country":"ru","lat":56.433333,"lon":92.416667},{"id":2429528,"name":"kosachi","country":"ru","lat":56.1322,"lon":91.6281},{"id":2514818,"name":"shergul","country":"ru","lat":56.416667,"lon":92.4},{"id":2520708,"name":"snezhnitsa","country":"ru","lat":56.0887,"lon":92.4056},{"id":2545010,"name":"urten","country":"ru","lat":55.5,"lon":91.75},{"id":2481495,"name":"osinovka","country":"ru","lat":55.75,"lon":92.35},{"id":2450101,"name":"malashka","country":"ru","lat":55.5,"lon":92.166667},{"id":2571596,"name":"zhukovka","country":"ru","lat":56.0874,"lon":91.7103},{"id":2572555,"name":"znamenskiy skit","country":"ru","lat":55.983333,"lon":92.4},{"id":2433198,"name":"krasnoyarsk-66","country":"ru","lat":56.2747,"lon":91.5305},{"id":2410529,"name":"kacha","country":"ru","lat":56.0942,"lon":92.2234},{"id":2475016,"name":"novosibirskiy","country":"ru","lat":56.0669,"lon":91.6879},{"id":2534023,"name":"tatarka","country":"ru","lat":55.983333,"lon":91.866667},{"id":2374125,"name":"bogoslovka","country":"ru","lat":56.4823,"lon":92.0367},{"id":2491547,"name":"podolka","country":"ru","lat":56.3347,"lon":92.4879},{"id":2453554,"name":"malyy kemchug","country":"ru","lat":56.2308,"lon":92.1509},{"id":2371544,"name":"berezovyy","country":"ru","lat":55.6265,"lon":92.2408},{"id":2552286,"name":"verkhnyaya biryusa","country":"ru","lat":55.921944,"lon":91.975},{"id":2373212,"name":"bliznevka","country":"ru","lat":56.2351,"lon":91.8894},{"id":2376724,"name":"bolshiye syry","country":"ru","lat":55.514722,"lon":91.543056},{"id":2383422,"name":"byuza","country":"ru","lat":55.566667,"lon":92.416667},{"id":2372746,"name":"biryusa","country":"ru","lat":55.883333,"lon":92.25},{"id":2416704,"name":"kemchug","country":"ru","lat":56.1813,"lon":91.5835},{"id":2453350,"name":"malyye ruchi","country":"ru","lat":56.0521,"lon":91.6645},{"id":2554146,"name":"vilenka","country":"ru","lat":55.599722,"lon":91.564167},{"id":2366387,"name":"bakhta","country":"ru","lat":55.7399,"lon":92.4184},{"id":2406024,"name":"iburiyuri","country":"ru","lat":56.2121,"lon":91.8113},{"id":2399562,"name":"gladkaya","country":"ru","lat":56.356111,"lon":92.426389},{"id":2484022,"name":"pamyatia trinadtsati bortsov","country":"ru","lat":56.212778,"lon":92.319722},{"id":2435806,"name":"krutaya","country":"ru","lat":56.2359,"lon":92.4619},{"id":2398774,"name":"gavan","country":"ru","lat":55.866667,"lon":92.216667},{"id":2511384,"name":"sergino","country":"ru","lat":56.0631,"lon":91.7587},{"id":2511051,"name":"serebryanka","country":"ru","lat":55.766667,"lon":92.283333},{"id":2481283,"name":"osharovo","country":"ru","lat":55.7,"lon":92.466667},{"id":2484965,"name":"pashenka","country":"ru","lat":55.566667,"lon":91.8},{"id":2379497,"name":"borovoy","country":"ru","lat":56.1119,"lon":91.6594},{"id":2378101,"name":"bolshoy kaydat","country":"ru","lat":56.0,"lon":91.633333},{"id":2569464,"name":"zeledeyevo","country":"ru","lat":56.0671,"lon":91.9741},{"id":2529636,"name":"sukhaya","country":"ru","lat":56.2126,"lon":92.4459},{"id":2366025,"name":"badalozhnaya","country":"ru","lat":56.0705,"lon":91.8622},{"id":2552944,"name":"verkhnyaya yelovaya","country":"ru","lat":56.12,"lon":92.3902},{"id":2545636,"name":"uspenskaya","country":"ru","lat":56.3805,"lon":92.3243},{"id":2546264,"name":"ust-mana","country":"ru","lat":55.9396,"lon":92.4763},{"id":2456606,"name":"mazharskiy","country":"ru","lat":56.1839,"lon":91.6489},{"id":2541159,"name":"tupik","country":"ru","lat":56.1128,"lon":92.2951}]});