callback({"markets":[{"id":3055573,"name":"tangi-duval","country":"uz","lat":37.9666667,"lon":66.7333333},{"id":3051191,"name":"ayna","country":"uz","lat":38.3116667,"lon":66.9583333},{"id":3055999,"name":"urtamachay","country":"uz","lat":38.3158333,"lon":67.0388889},{"id":3056284,"name":"yangiyul\u0027","country":"uz","lat":37.6683333,"lon":67.2338889},{"id":3056232,"name":"yangi-kishlak","country":"uz","lat":38.3466667,"lon":66.8975},{"id":3055585,"name":"targan","country":"uz","lat":38.0619444,"lon":66.5358333},{"id":3051329,"name":"batmabulak","country":"uz","lat":38.0391667,"lon":67.2455556},{"id":3052392,"name":"girlyau","country":"uz","lat":38.4805556,"lon":66.5230556},{"id":3051057,"name":"anar-bulak","country":"uz","lat":38.4333333,"lon":66.65},{"id":3053460,"name":"khtay","country":"uz","lat":37.5833333,"lon":67.0166667},{"id":3050821,"name":"abishkhan","country":"uz","lat":38.4180556,"lon":66.9844444},{"id":3053679,"name":"koshbulak","country":"uz","lat":38.2261111,"lon":67.3927778},{"id":3052276,"name":"fangart","country":"uz","lat":38.2891667,"lon":67.4619444},{"id":3054942,"name":"sairob","country":"uz","lat":38.0747222,"lon":66.9666667},{"id":3054936,"name":"said-abad","country":"uz","lat":37.6333333,"lon":67.0833333},{"id":3053591,"name":"koga-bulak","country":"uz","lat":38.4186111,"lon":66.7908333},{"id":3053358,"name":"khodzhabulgan","country":"uz","lat":38.1097222,"lon":67.0388889},{"id":3051874,"name":"chul\u0027guzak","country":"uz","lat":38.3605556,"lon":66.8011111},{"id":3052468,"name":"guzalkent","country":"uz","lat":37.7333333,"lon":66.5333333},{"id":3053236,"name":"khalyaki","country":"uz","lat":37.7,"lon":67.4666667},{"id":3055706,"name":"tillyakamar","country":"uz","lat":38.0880556,"lon":67.0311111},{"id":3053045,"name":"kashulush","country":"uz","lat":38.3608333,"lon":66.9177778},{"id":3055230,"name":"sherabad","country":"uz","lat":37.6730556,"lon":67.015},{"id":3050896,"name":"ak-dzhar","country":"uz","lat":37.7333333,"lon":67.1},{"id":3052373,"name":"gaz","country":"uz","lat":37.6166667,"lon":66.7166667},{"id":3052205,"name":"dzhinichka","country":"uz","lat":38.3163889,"lon":66.8641667},{"id":3052406,"name":"goran","country":"uz","lat":37.55,"lon":67.4666667},{"id":3052452,"name":"gurdzhak","country":"uz","lat":37.8363889,"lon":66.8355556},{"id":3053129,"name":"kayragach","country":"uz","lat":38.1411111,"lon":66.6888889},{"id":3051164,"name":"audzhin","country":"uz","lat":38.4,"lon":66.9},{"id":3055777,"name":"tuda-charbag","country":"uz","lat":38.3655556,"lon":66.6925},{"id":3052069,"name":"duob","country":"uz","lat":38.4483333,"lon":67.0377778},{"id":3053379,"name":"khodzha-kiya","country":"uz","lat":37.65,"lon":66.9333333},{"id":3051395,"name":"beglyar","country":"uz","lat":38.4166667,"lon":66.9666667},{"id":3053387,"name":"khodzha-magamet","country":"uz","lat":38.25,"lon":66.5333333},{"id":3054135,"name":"machay","country":"uz","lat":38.3361111,"lon":67.0788889},{"id":3056004,"name":"urta-say","country":"uz","lat":38.4333333,"lon":66.9},{"id":3051376,"name":"bazar","country":"uz","lat":37.6333333,"lon":67.05},{"id":3054128,"name":"lyaylyakan","country":"uz","lat":37.8333333,"lon":67.05},{"id":3052707,"name":"kakaydy","country":"uz","lat":37.6230556,"lon":67.4972222},{"id":3050948,"name":"ak-tash","country":"uz","lat":38.4166667,"lon":66.55},{"id":3051811,"name":"chinar","country":"uz","lat":37.8666667,"lon":66.7833333},{"id":3051943,"name":"daukamar","country":"uz","lat":38.4333333,"lon":66.6},{"id":3052657,"name":"jarqo\u0027rg\u0027on","country":"uz","lat":37.5088889,"lon":67.4233333},{"id":3053475,"name":"khurumsha","country":"uz","lat":37.6833333,"lon":67.0666667},{"id":3055368,"name":"sokhta","country":"uz","lat":37.65,"lon":67.1666667},{"id":3053405,"name":"khodzha-ul\u0027kan","country":"uz","lat":37.8,"lon":66.9},{"id":3054219,"name":"maydan","country":"uz","lat":37.7333333,"lon":66.85},{"id":3055541,"name":"talishkan","country":"uz","lat":37.5666667,"lon":66.9},{"id":3051938,"name":"dashtigaz","country":"uz","lat":38.1491667,"lon":67.3119444},{"id":3055587,"name":"targon-chagay","country":"uz","lat":38.1213889,"lon":66.6122222},{"id":3055699,"name":"terskay","country":"uz","lat":38.3441667,"lon":66.8225},{"id":3051892,"name":"daganadzham","country":"uz","lat":38.1572222,"lon":67.0502778},{"id":3050951,"name":"aktash","country":"uz","lat":37.5666667,"lon":66.6666667},{"id":3052442,"name":"gumbulak","country":"uz","lat":38.3572222,"lon":66.5280556},{"id":3050985,"name":"alachapan","country":"uz","lat":38.3236111,"lon":67.3077778},{"id":3053287,"name":"khatak","country":"uz","lat":37.95,"lon":66.8333333},{"id":3052875,"name":"kara-khaval\u0027","country":"uz","lat":38.3666667,"lon":66.7166667},{"id":3052464,"name":"gurun","country":"uz","lat":37.7166667,"lon":67.0666667},{"id":3051867,"name":"chukurkul\u0027","country":"uz","lat":37.65,"lon":67.0833333},{"id":3051783,"name":"chilyanzor","country":"uz","lat":37.9333333,"lon":67.0333333},{"id":3053567,"name":"kizylalma","country":"uz","lat":37.85,"lon":66.7},{"id":3055073,"name":"sarysiya","country":"uz","lat":38.2088889,"lon":66.9202778},{"id":3054869,"name":"rabatak","country":"uz","lat":37.7166667,"lon":67.1333333},{"id":3055792,"name":"tuman-kurgan","country":"uz","lat":38.15,"lon":67.2},{"id":3052631,"name":"isni-pyandzh-ob","country":"uz","lat":38.0333333,"lon":66.85},{"id":3056310,"name":"yaruk","country":"uz","lat":37.8833333,"lon":66.7833333},{"id":3054018,"name":"kyzyl-bay","country":"uz","lat":37.6,"lon":66.6833333},{"id":3051246,"name":"bagzagon","country":"uz","lat":38.4013889,"lon":66.9625},{"id":3056397,"name":"zara-bek","country":"uz","lat":37.7730556,"lon":66.7266667},{"id":3054042,"name":"kyzylnaur","country":"uz","lat":38.4016667,"lon":67.1444444},{"id":3052438,"name":"gumatak","country":"uz","lat":38.3386111,"lon":67.3580556},{"id":3051919,"name":"darband","country":"uz","lat":38.2138889,"lon":67.0177778},{"id":3051302,"name":"bandikhan","country":"uz","lat":37.855,"lon":67.3955556},{"id":3052341,"name":"gambyr","country":"uz","lat":37.65,"lon":67.0166667},{"id":3051075,"name":"an-kabat","country":"uz","lat":38.1833333,"lon":67.2775},{"id":3052980,"name":"kara-ursak","country":"uz","lat":37.5333333,"lon":67.4333333},{"id":3056182,"name":"yanakishlak","country":"uz","lat":38.4063889,"lon":66.9672222},{"id":3054438,"name":"naubag","country":"uz","lat":37.65,"lon":66.9833333},{"id":3056349,"name":"yukary-pandzhob","country":"uz","lat":38.0183333,"lon":66.85},{"id":3054401,"name":"nagay","country":"uz","lat":37.9333333,"lon":66.9166667},{"id":3053352,"name":"khodzha-anka","country":"uz","lat":37.8833333,"lon":66.7666667},{"id":3051969,"name":"dehqonobod","country":"uz","lat":38.3455556,"lon":66.5030556},{"id":3051241,"name":"baglydara","country":"uz","lat":37.9666667,"lon":66.7833333},{"id":3054773,"name":"podan","country":"uz","lat":38.2166667,"lon":67.2525},{"id":3051493,"name":"bish-khotan","country":"uz","lat":37.5,"lon":66.9666667},{"id":3053909,"name":"kurkhodzha","country":"uz","lat":38.2488889,"lon":66.9133333},{"id":3055333,"name":"sibatlyn","country":"uz","lat":38.0333333,"lon":66.5833333},{"id":3050924,"name":"ak-kurgan","country":"uz","lat":37.5833333,"lon":67.45},{"id":3055279,"name":"sho\u0027rob","country":"uz","lat":38.195,"lon":66.9425},{"id":3052741,"name":"kallamazar","country":"uz","lat":37.7833333,"lon":67.0333333},{"id":3056257,"name":"yangi-pandzhob","country":"uz","lat":38.0147222,"lon":67.0105556},{"id":3051720,"name":"chashmaimiron","country":"uz","lat":38.3908333,"lon":66.9563889},{"id":3052364,"name":"gazak","country":"uz","lat":37.9833333,"lon":67.0},{"id":3051556,"name":"bulak","country":"uz","lat":37.55,"lon":66.5666667},{"id":3051624,"name":"chagatas","country":"uz","lat":37.6833333,"lon":67.2833333},{"id":3051304,"name":"bandy-khan","country":"uz","lat":37.85,"lon":67.3666667},{"id":3054874,"name":"rabat","country":"uz","lat":38.1291667,"lon":67.1869444},{"id":3052725,"name":"kalapush","country":"uz","lat":37.9333333,"lon":66.8},{"id":3052107,"name":"dzhalampyr","country":"uz","lat":38.3375,"lon":66.8447222},{"id":3056091,"name":"vandob","country":"uz","lat":37.7,"lon":66.6166667},{"id":3052349,"name":"garmily","country":"uz","lat":38.3833333,"lon":66.7},{"id":3055234,"name":"sherzhan","country":"uz","lat":37.7333333,"lon":66.6333333},{"id":3052329,"name":"gallya-guzar","country":"uz","lat":37.6833333,"lon":67.05},{"id":3051415,"name":"berdishikhi","country":"uz","lat":38.2063889,"lon":66.5416667},{"id":3054142,"name":"madun","country":"uz","lat":38.1994444,"lon":66.8305556},{"id":3052247,"name":"egarchi","country":"uz","lat":37.9166667,"lon":67.0333333},{"id":3054809,"name":"pyandzh-ob","country":"uz","lat":37.9833333,"lon":66.9166667},{"id":3053023,"name":"kary-agach","country":"uz","lat":37.6333333,"lon":67.45},{"id":3050851,"name":"ailli","country":"uz","lat":37.6,"lon":66.9333333},{"id":3054833,"name":"qorabog\u0027","country":"uz","lat":37.7736111,"lon":66.8136111},{"id":3056402,"name":"zara-ut","country":"uz","lat":37.8833333,"lon":66.7166667},{"id":3052070,"name":"du-ob","country":"uz","lat":38.45,"lon":66.7833333},{"id":3053037,"name":"kashch-shchur","country":"uz","lat":37.8833333,"lon":67.3333333},{"id":3051723,"name":"chashmaobzan","country":"uz","lat":38.3041667,"lon":66.7269444},{"id":3052166,"name":"dzharty-aryk","country":"uz","lat":37.6,"lon":67.1333333},{"id":3051515,"name":"bokaty","country":"uz","lat":38.1166667,"lon":67.0833333},{"id":3051477,"name":"bidak","country":"uz","lat":37.9,"lon":66.8333333},{"id":3054798,"name":"pule-khakim","country":"uz","lat":38.1602778,"lon":67.3733333},{"id":3055205,"name":"shatut","country":"uz","lat":38.3883333,"lon":67.3644444},{"id":3051165,"name":"aulat","country":"uz","lat":38.2461111,"lon":67.1894444},{"id":3053590,"name":"kofrun","country":"uz","lat":38.0886111,"lon":67.2522222},{"id":3055534,"name":"talimaran","country":"uz","lat":37.55,"lon":67.2166667},{"id":3053171,"name":"kempir-tyube","country":"uz","lat":37.7833333,"lon":66.6833333},{"id":3050937,"name":"akrabat","country":"uz","lat":38.2705556,"lon":66.7905556},{"id":3051535,"name":"boysun","country":"uz","lat":38.2061111,"lon":67.1986111},{"id":3052044,"name":"dubal","country":"uz","lat":38.1333333,"lon":67.0166667},{"id":3051037,"name":"alyachapan","country":"uz","lat":38.3969444,"lon":67.4394444},{"id":3055630,"name":"taskent","country":"uz","lat":37.5052778,"lon":67.0613889},{"id":3051622,"name":"chagak","country":"uz","lat":37.8833333,"lon":66.8166667},{"id":3053509,"name":"kintala","country":"uz","lat":38.4663889,"lon":67.1869444},{"id":3054086,"name":"laylik","country":"uz","lat":37.7166667,"lon":66.95},{"id":3054213,"name":"maychaly","country":"uz","lat":37.7833333,"lon":66.6333333},{"id":3054362,"name":"munchak","country":"uz","lat":38.0433333,"lon":67.0144444},{"id":3052797,"name":"kan","country":"uz","lat":38.2786111,"lon":66.6463889},{"id":3050890,"name":"akdakhana","country":"uz","lat":38.0922222,"lon":66.5802778},{"id":3051194,"name":"ayradural","country":"uz","lat":38.355,"lon":66.5388889},{"id":3053834,"name":"kuluksha","country":"uz","lat":37.6333333,"lon":67.0},{"id":3055352,"name":"sisancha","country":"uz","lat":38.1947222,"lon":67.0186111},{"id":3053008,"name":"karmaki","country":"uz","lat":37.7333333,"lon":67.1166667},{"id":3053359,"name":"khodzhadagyak","country":"uz","lat":38.3552778,"lon":67.0088889},{"id":3053357,"name":"khodzha-bulak","country":"uz","lat":37.7,"lon":66.7333333},{"id":3051708,"name":"charvak","country":"uz","lat":37.5605556,"lon":66.6002778},{"id":3054581,"name":"okdzhar","country":"uz","lat":38.1366667,"lon":67.2086111},{"id":3054110,"name":"luchak","country":"uz","lat":38.3786111,"lon":67.425},{"id":3052451,"name":"guraty","country":"uz","lat":38.4027778,"lon":66.7808333},{"id":3053220,"name":"khalavat","country":"uz","lat":38.3666667,"lon":66.6666667},{"id":3053295,"name":"khaudak","country":"uz","lat":37.6,"lon":67.3666667},{"id":3051532,"name":"boyrabad","country":"uz","lat":37.65,"lon":67.4833333},{"id":3055525,"name":"takiya","country":"uz","lat":37.5833333,"lon":67.1833333},{"id":3055174,"name":"shalkan","country":"uz","lat":37.8333333,"lon":66.6666667},{"id":2760585,"name":"khodzhapil\u0027","country":"tm","lat":37.95,"lon":66.65},{"id":3055715,"name":"toda","country":"uz","lat":38.2425,"lon":67.1366667},{"id":3052048,"name":"dugab","country":"uz","lat":38.3219444,"lon":67.3680556},{"id":2759673,"name":"anar-bulak","country":"tm","lat":37.95,"lon":67.35},{"id":3050921,"name":"ak-kupryuk","country":"uz","lat":37.8,"lon":67.0166667},{"id":3055747,"name":"topar","country":"uz","lat":37.5833333,"lon":67.05},{"id":3052022,"name":"diy-bala","country":"uz","lat":38.35,"lon":67.45},{"id":3053131,"name":"kayrak","country":"uz","lat":38.3077778,"lon":67.2983333},{"id":3055989,"name":"urtabuz","country":"uz","lat":38.1211111,"lon":67.3463889},{"id":3054707,"name":"pashkhurt","country":"uz","lat":37.6908333,"lon":66.775},{"id":3052942,"name":"karashina","country":"uz","lat":38.3377778,"lon":66.5777778},{"id":3053497,"name":"kigachli","country":"uz","lat":37.65,"lon":67.2333333},{"id":3052389,"name":"gilyambob","country":"uz","lat":37.6666667,"lon":67.2166667},{"id":3052639,"name":"istara","country":"uz","lat":37.7166667,"lon":67.2666667}]});