callback({"markets":[{"id":2395197,"name":"dzhuen","country":"ru","lat":49.8492,"lon":136.2574},{"id":2560434,"name":"yakuty","country":"ru","lat":49.8973,"lon":136.1334},{"id":2535975,"name":"teysin","country":"ru","lat":49.9694,"lon":136.4318},{"id":2420722,"name":"khuti","country":"ru","lat":49.768889,"lon":135.808611},{"id":2457587,"name":"mengon","country":"ru","lat":49.9871,"lon":136.3245},{"id":2390916,"name":"dippy","country":"ru","lat":49.724167,"lon":135.720833},{"id":2462752,"name":"mugda-mungali","country":"ru","lat":49.716667,"lon":135.766667},{"id":2418442,"name":"khevchen","country":"ru","lat":49.715833,"lon":135.766944},{"id":2362236,"name":"angallo","country":"ru","lat":49.687778,"lon":135.6325}]});