callback({"markets":[{"id":2053215,"name":"tan`am","country":"om","lat":23.1447222,"lon":56.4669444},{"id":2052503,"name":"mu` askar `ibri","country":"om","lat":23.1913889,"lon":56.4358333},{"id":2050675,"name":"afranji","country":"om","lat":23.4475,"lon":56.2222222},{"id":2052098,"name":"jufayf","country":"om","lat":23.4491667,"lon":56.22},{"id":2050709,"name":"al akhdar","country":"om","lat":23.2225,"lon":56.4616667},{"id":2051119,"name":"al `uwayridi","country":"om","lat":23.2127778,"lon":56.4297222},{"id":2050720,"name":"al aqariyah","country":"om","lat":23.3258333,"lon":56.3866667},{"id":2052407,"name":"masharub","country":"om","lat":23.4172222,"lon":56.2777778},{"id":2051585,"name":"dubayshi","country":"om","lat":23.1791667,"lon":56.4805556},{"id":2053308,"name":"umm siï¿½alib","country":"om","lat":23.3547222,"lon":56.3547222},{"id":2051475,"name":"bu saylah","country":"om","lat":23.4413889,"lon":56.2286111},{"id":2052651,"name":"qa`idi","country":"om","lat":23.4355556,"lon":56.2347222},{"id":2051061,"name":"al qal`i","country":"om","lat":23.2294444,"lon":56.4583333},{"id":2051356,"name":"bakhabi","country":"om","lat":23.4508333,"lon":56.2083333},{"id":2051274,"name":"as subaykhi","country":"om","lat":23.3175,"lon":56.3161111},{"id":2052374,"name":"ma`mur","country":"om","lat":23.4222222,"lon":56.2463889},{"id":2052232,"name":"khuldah","country":"om","lat":23.1438889,"lon":56.4519444},{"id":2050869,"name":"al hijar","country":"om","lat":23.2247222,"lon":56.4736111},{"id":2052441,"name":"mazim","country":"om","lat":23.4019444,"lon":56.2830556}]});