callback({"markets":[{"id":2361392,"name":"amazar","country":"ru","lat":53.858,"lon":120.875},{"id":2399328,"name":"germanovskiy","country":"ru","lat":53.8457,"lon":120.7847},{"id":2425832,"name":"kolokolnyy","country":"ru","lat":53.916667,"lon":121.116667},{"id":2489344,"name":"pinzhak","country":"ru","lat":54.1311,"lon":121.0136},{"id":2570265,"name":"zhanna","country":"ru","lat":54.0529,"lon":121.4059},{"id":2440135,"name":"kuyali","country":"ru","lat":54.2477,"lon":121.4528},{"id":2547000,"name":"utesnaya","country":"ru","lat":53.5,"lon":121.283333},{"id":2495723,"name":"potayka","country":"ru","lat":53.966667,"lon":121.216667},{"id":2437753,"name":"kulli","country":"ru","lat":54.25,"lon":121.416667},{"id":2392300,"name":"doptugag","country":"ru","lat":53.583333,"lon":121.333333},{"id":2495989,"name":"povorotnaya","country":"ru","lat":53.5,"lon":121.033333},{"id":2436949,"name":"kudu","country":"ru","lat":54.3898,"lon":120.5332},{"id":2386820,"name":"chichatka","country":"ru","lat":54.0405,"lon":121.2985}]});