callback({"markets":[{"id":614181,"name":"wutao","country":"cn","lat":39.45,"lon":121.483333},{"id":522889,"name":"linjiacun","country":"cn","lat":38.867843,"lon":121.356719},{"id":587298,"name":"songjiadianzi","country":"cn","lat":38.776478,"lon":121.189112},{"id":615993,"name":"xiajiahezi","country":"cn","lat":39.02154,"lon":121.489516},{"id":470849,"name":"gaojia","country":"cn","lat":38.825317,"lon":121.154885},{"id":529753,"name":"luanniqiaocun","country":"cn","lat":38.900556,"lon":121.433889},{"id":554259,"name":"pingdao","country":"cn","lat":39.412198,"lon":121.465252},{"id":504365,"name":"jingfangshen","country":"cn","lat":39.451052,"lon":121.341151},{"id":571578,"name":"shangliujiatun","country":"cn","lat":38.893513,"lon":121.434922},{"id":427770,"name":"beihaicun","country":"cn","lat":38.939167,"lon":121.175},{"id":449715,"name":"dakoujing","country":"cn","lat":38.869638,"lon":121.141876},{"id":501493,"name":"jiangxi","country":"cn","lat":38.841944,"lon":121.158889},{"id":570715,"name":"shanggou","country":"cn","lat":38.766753,"lon":121.148714},{"id":491312,"name":"hsushihyin","country":"cn","lat":38.845,"lon":121.240278},{"id":566287,"name":"sangtun","country":"cn","lat":39.414182,"lon":121.288429},{"id":583491,"name":"shuangtaigou","country":"cn","lat":38.956111,"lon":121.344722},{"id":540304,"name":"miaoxi","country":"cn","lat":38.797731,"lon":121.305576},{"id":555664,"name":"portartur","country":"cn","lat":38.8,"lon":121.266667},{"id":597224,"name":"tianjiacun","country":"cn","lat":38.765556,"lon":121.219444},{"id":563004,"name":"qujia","country":"cn","lat":38.876472,"lon":121.190042},{"id":619679,"name":"xiaokoumentou","country":"cn","lat":39.44902,"lon":121.472817},{"id":585957,"name":"sigou","country":"cn","lat":38.840211,"lon":121.218465},{"id":458943,"name":"dongjiatun","country":"cn","lat":38.975412,"lon":121.490633},{"id":422798,"name":"bailanzi","country":"cn","lat":38.750431,"lon":121.210707},{"id":472147,"name":"gaozuizi","country":"cn","lat":39.436807,"lon":121.492915},{"id":446839,"name":"daaizikou","country":"cn","lat":38.927222,"lon":121.115278},{"id":477196,"name":"guojiagou","country":"cn","lat":38.816111,"lon":121.335833},{"id":558225,"name":"qiantun","country":"cn","lat":39.180833,"lon":121.476389},{"id":558006,"name":"qianshabaozi","country":"cn","lat":38.909543,"lon":121.216198},{"id":464385,"name":"fangjiacun","country":"cn","lat":38.809167,"lon":121.158889},{"id":421056,"name":"anziling","country":"cn","lat":38.906389,"lon":121.391389},{"id":558398,"name":"qianyang","country":"cn","lat":38.716944,"lon":121.173889},{"id":642427,"name":"youjiacun","country":"cn","lat":38.987138,"lon":121.468964},{"id":645126,"name":"yujia","country":"cn","lat":38.766445,"lon":121.128125},{"id":558711,"name":"qiaojiajie","country":"cn","lat":38.95069,"lon":121.422243},{"id":433302,"name":"changcheng","country":"cn","lat":38.930278,"lon":121.313889},{"id":582685,"name":"shuangdaowan","country":"cn","lat":38.883611,"lon":121.17},{"id":518520,"name":"liangjiagou","country":"cn","lat":38.850848,"lon":121.48978},{"id":576412,"name":"shengjiagou","country":"cn","lat":38.783198,"lon":121.204985},{"id":544010,"name":"nanfangzi","country":"cn","lat":38.966016,"lon":121.298686},{"id":459414,"name":"donglu","country":"cn","lat":39.456859,"lon":121.49635},{"id":493833,"name":"huanglongwei","country":"cn","lat":39.035556,"lon":121.376389},{"id":459590,"name":"dongnantun","country":"cn","lat":39.390255,"lon":121.422236},{"id":625357,"name":"xinantun","country":"cn","lat":39.364722,"lon":121.405},{"id":464856,"name":"fanjiagou","country":"cn","lat":39.006948,"lon":121.491353},{"id":486398,"name":"houjiashan","country":"cn","lat":38.899372,"lon":121.240597},{"id":457881,"name":"dongchagou","country":"cn","lat":38.923681,"lon":121.422946},{"id":647214,"name":"zaofangshen","country":"cn","lat":39.428018,"lon":121.426059},{"id":587764,"name":"songshuzui","country":"cn","lat":39.44423,"lon":121.276049},{"id":557894,"name":"qianmuchengyi","country":"cn","lat":38.992844,"lon":121.428597},{"id":619101,"name":"xiaoheishi","country":"cn","lat":38.951213,"lon":121.256449},{"id":427533,"name":"beidianzi","country":"cn","lat":39.483889,"lon":121.350833},{"id":479413,"name":"hanjiacun","country":"cn","lat":38.919654,"lon":121.265658},{"id":544258,"name":"nanhaitou","country":"cn","lat":39.36418,"lon":121.394743},{"id":542437,"name":"mulonggou","country":"cn","lat":39.369444,"lon":121.370833},{"id":574709,"name":"shanxitun","country":"cn","lat":39.445308,"lon":121.434858},{"id":599041,"name":"tieshan","country":"cn","lat":38.783333,"lon":121.183333},{"id":447471,"name":"dachentun","country":"cn","lat":38.828241,"lon":121.429517},{"id":457785,"name":"dongbeitun","country":"cn","lat":39.411414,"lon":121.429466},{"id":621476,"name":"xiaozhoujiatun","country":"cn","lat":39.495237,"lon":121.494997},{"id":600362,"name":"tongshuigou","country":"cn","lat":39.391389,"lon":121.286944},{"id":466105,"name":"fengjiatun","country":"cn","lat":38.933425,"lon":121.239562},{"id":629240,"name":"xishan","country":"cn","lat":38.85471,"lon":121.435364},{"id":624591,"name":"xihuzui","country":"cn","lat":38.903387,"lon":121.091981},{"id":426617,"name":"baoyudu","country":"cn","lat":38.825622,"lon":121.361396},{"id":551077,"name":"palanzi","country":"cn","lat":38.75,"lon":121.216667},{"id":486684,"name":"houmuchengyi","country":"cn","lat":38.996667,"lon":121.43},{"id":458800,"name":"dongjia","country":"cn","lat":38.857778,"lon":121.103333},{"id":569677,"name":"shanchuanliu","country":"cn","lat":38.842629,"lon":121.349253},{"id":579975,"name":"shikanzi","country":"cn","lat":38.905933,"lon":121.360245},{"id":486809,"name":"housanyangtou","country":"cn","lat":38.804299,"lon":121.150677},{"id":557602,"name":"qianjiashan","country":"cn","lat":38.873904,"lon":121.232368},{"id":593405,"name":"tangligou","country":"cn","lat":38.939682,"lon":121.475061},{"id":566758,"name":"sanjianpu","country":"cn","lat":38.916667,"lon":121.25},{"id":528595,"name":"longtang","country":"cn","lat":38.831111,"lon":121.394167},{"id":493521,"name":"huangjintai","country":"cn","lat":38.796228,"lon":121.267102},{"id":494039,"name":"huangnichuan","country":"cn","lat":38.848889,"lon":121.443889},{"id":448642,"name":"daheishi","country":"cn","lat":38.957222,"lon":121.3},{"id":635459,"name":"yangtouwa","country":"cn","lat":38.813334,"lon":121.127131},{"id":526768,"name":"liyaogou","country":"cn","lat":38.829307,"lon":121.300804},{"id":629969,"name":"xixiaomozi","country":"cn","lat":38.987336,"lon":121.351503},{"id":640136,"name":"yingchengzi","country":"cn","lat":38.975,"lon":121.385278},{"id":467344,"name":"fomensi","country":"cn","lat":38.813333,"lon":121.447778},{"id":450305,"name":"dalongwangtang","country":"cn","lat":38.823524,"lon":121.394794},{"id":631558,"name":"xujiayao","country":"cn","lat":38.926575,"lon":121.285916},{"id":589310,"name":"sunjiadaling","country":"cn","lat":38.859132,"lon":121.456732},{"id":528769,"name":"longtou","country":"cn","lat":38.861667,"lon":121.307778},{"id":502404,"name":"jiaoliudao","country":"cn","lat":39.433333,"lon":121.433333},{"id":640254,"name":"yinggeshi","country":"cn","lat":38.877778,"lon":121.343611},{"id":640778,"name":"yinjiacun","country":"cn","lat":38.750833,"lon":121.131111},{"id":458414,"name":"donggou","country":"cn","lat":39.4075,"lon":121.390833},{"id":558740,"name":"qiaojiatun","country":"cn","lat":38.96271,"lon":121.46694},{"id":496075,"name":"huayuan","country":"cn","lat":39.49378,"lon":121.450544},{"id":632582,"name":"yanchang","country":"cn","lat":39.383611,"lon":121.345},{"id":531952,"name":"luojiagou","country":"cn","lat":38.912483,"lon":121.469708},{"id":626898,"name":"xinihezi","country":"cn","lat":38.893353,"lon":121.207294},{"id":645075,"name":"yujiatun","country":"cn","lat":38.886316,"lon":121.342596},{"id":438511,"name":"chenjia","country":"cn","lat":38.717778,"lon":121.14}]});