callback({"markets":[{"id":1882423,"name":"la cauca","country":"mx","lat":27.15,"lon":-103.766667},{"id":1890042,"name":"los ojitos","country":"mx","lat":26.766667,"lon":-104.483333},{"id":1876588,"name":"espana","country":"mx","lat":26.55,"lon":-104.15},{"id":1901742,"name":"rancho la luz","country":"mx","lat":26.983333,"lon":-103.9},{"id":1901679,"name":"rancho la gloria de estadil","country":"mx","lat":26.866667,"lon":-103.966667},{"id":1902963,"name":"rancho san pedro","country":"mx","lat":27.0,"lon":-103.783333},{"id":1900769,"name":"rancho el amparo","country":"mx","lat":26.683333,"lon":-104.183333},{"id":1902884,"name":"rancho san jose de madero","country":"mx","lat":27.016667,"lon":-103.566667},{"id":1902287,"name":"rancho lote numero veinte","country":"mx","lat":26.6,"lon":-104.1},{"id":1883208,"name":"la estacion","country":"mx","lat":26.6,"lon":-104.3},{"id":1896370,"name":"paraiso","country":"mx","lat":27.083333,"lon":-104.433333},{"id":1870810,"name":"el carmen","country":"mx","lat":26.816667,"lon":-104.383333},{"id":1866970,"name":"comanche","country":"mx","lat":27.166667,"lon":-103.733333},{"id":1896060,"name":"palomas negras","country":"mx","lat":27.333333,"lon":-103.783333},{"id":1876572,"name":"esmeralda","country":"mx","lat":27.283333,"lon":-103.65},{"id":1916613,"name":"vallejillo","country":"mx","lat":27.316667,"lon":-103.75},{"id":1902818,"name":"rancho san fernando","country":"mx","lat":26.65,"lon":-104.183333},{"id":1901796,"name":"rancho la noria","country":"mx","lat":26.633333,"lon":-104.133333},{"id":1900161,"name":"rancherias","country":"mx","lat":26.516667,"lon":-103.883333},{"id":1902760,"name":"rancho san alberto","country":"mx","lat":26.55,"lon":-104.25},{"id":1880861,"name":"jesus maria","country":"mx","lat":26.8,"lon":-104.083333},{"id":1903578,"name":"remedios","country":"mx","lat":26.883333,"lon":-104.35},{"id":1868951,"name":"division del norte","country":"mx","lat":26.9,"lon":-104.35},{"id":1888148,"name":"leyes de reforma","country":"mx","lat":27.1,"lon":-104.4},{"id":1857780,"name":"aguaje san ignacio","country":"mx","lat":26.716667,"lon":-103.783333},{"id":1902015,"name":"rancho la soledad","country":"mx","lat":26.916667,"lon":-103.85},{"id":1889376,"name":"los cuates","country":"mx","lat":26.8,"lon":-104.166667},{"id":1901262,"name":"rancho el tamborazo","country":"mx","lat":26.6,"lon":-104.083333},{"id":1878642,"name":"guimbalete","country":"mx","lat":27.033333,"lon":-103.733333},{"id":1902732,"name":"rancho sabaneta","country":"mx","lat":27.4,"lon":-103.633333},{"id":1907135,"name":"san jose de madero","country":"mx","lat":27.016667,"lon":-103.583333},{"id":1870731,"name":"el capricho","country":"mx","lat":27.433333,"lon":-104.383333},{"id":1887482,"name":"las virgenes","country":"mx","lat":26.816667,"lon":-103.966667},{"id":1897725,"name":"piloncillos","country":"mx","lat":27.433333,"lon":-104.483333},{"id":1902131,"name":"rancho los acebuches","country":"mx","lat":26.566667,"lon":-104.333333},{"id":1898736,"name":"pozo chico","country":"mx","lat":27.2,"lon":-104.45},{"id":1886442,"name":"las glorias","country":"mx","lat":26.833333,"lon":-104.0},{"id":1891433,"name":"mariposa","country":"mx","lat":26.983333,"lon":-104.183333},{"id":1858827,"name":"analco","country":"mx","lat":26.883333,"lon":-104.3},{"id":1902878,"name":"rancho san jose del bosque","country":"mx","lat":26.75,"lon":-104.1},{"id":1902001,"name":"rancho las marias","country":"mx","lat":26.533333,"lon":-104.066667},{"id":1911967,"name":"sotol","country":"mx","lat":27.033333,"lon":-104.466667},{"id":1857768,"name":"aguaje de la trinidad","country":"mx","lat":26.816667,"lon":-103.783333},{"id":1888985,"name":"los arenales","country":"mx","lat":27.016667,"lon":-103.833333},{"id":1901205,"name":"rancho el rocio","country":"mx","lat":26.65,"lon":-104.15},{"id":1897603,"name":"piedras bolas","country":"mx","lat":26.7,"lon":-103.983333},{"id":1888202,"name":"lilas","country":"mx","lat":26.716667,"lon":-103.65},{"id":1907052,"name":"san jose de los alamos","country":"mx","lat":26.633333,"lon":-104.016667},{"id":1883276,"name":"la fe","country":"mx","lat":26.8,"lon":-103.95},{"id":1906944,"name":"san jose de la gloria","country":"mx","lat":26.883333,"lon":-103.983333},{"id":1914318,"name":"texcoco","country":"mx","lat":26.983333,"lon":-104.383333},{"id":1891315,"name":"maravillas","country":"mx","lat":27.366667,"lon":-104.483333},{"id":1876495,"name":"escalon","country":"mx","lat":26.75,"lon":-104.333333},{"id":1901969,"name":"rancho las glorias","country":"mx","lat":26.533333,"lon":-104.016667},{"id":1858298,"name":"alejandro carrillo","country":"mx","lat":26.933333,"lon":-104.333333},{"id":1908924,"name":"san pedro de los arenales","country":"mx","lat":27.083333,"lon":-103.7},{"id":1916825,"name":"venado pelon","country":"mx","lat":27.116667,"lon":-103.783333},{"id":1885739,"name":"la rosa","country":"mx","lat":26.55,"lon":-104.083333},{"id":1900839,"name":"rancho el carmen","country":"mx","lat":27.433333,"lon":-103.533333},{"id":1907467,"name":"san juan de canitas","country":"mx","lat":26.633333,"lon":-104.15},{"id":1893485,"name":"movano","country":"mx","lat":26.7,"lon":-103.65},{"id":1901279,"name":"rancho el tepeyac","country":"mx","lat":26.583333,"lon":-104.05},{"id":1902083,"name":"rancho la vazquena","country":"mx","lat":26.816667,"lon":-103.95},{"id":1903573,"name":"rellano","country":"mx","lat":26.85,"lon":-104.483333},{"id":1863365,"name":"cardenas del rio","country":"mx","lat":26.533333,"lon":-104.2},{"id":1901643,"name":"rancho la diana","country":"mx","lat":26.633333,"lon":-104.4},{"id":1902815,"name":"rancho san felix","country":"mx","lat":26.633333,"lon":-104.2},{"id":1903029,"name":"rancho santa fe","country":"mx","lat":26.966667,"lon":-103.933333},{"id":1901463,"name":"rancho herrera","country":"mx","lat":26.733333,"lon":-104.2},{"id":1878656,"name":"guirribalete","country":"mx","lat":27.016667,"lon":-103.75},{"id":1870925,"name":"el caserio","country":"mx","lat":27.366667,"lon":-103.8},{"id":1902550,"name":"rancho pena blanca","country":"mx","lat":27.383333,"lon":-103.666667},{"id":1865642,"name":"chulavista","country":"mx","lat":26.583333,"lon":-104.083333},{"id":1903113,"name":"rancho seco","country":"mx","lat":26.85,"lon":-103.933333},{"id":1900300,"name":"rancho arenales","country":"mx","lat":26.983333,"lon":-103.816667},{"id":1863540,"name":"carrillo","country":"mx","lat":26.866667,"lon":-103.916667},{"id":1902879,"name":"rancho san jose del cento","country":"mx","lat":26.65,"lon":-103.966667},{"id":1901957,"name":"rancho las escobas","country":"mx","lat":26.733333,"lon":-104.45},{"id":1884688,"name":"la misericordia","country":"mx","lat":26.516667,"lon":-104.1},{"id":1859848,"name":"atravesada","country":"mx","lat":27.283333,"lon":-103.583333},{"id":1875977,"name":"el veinticuatro","country":"mx","lat":26.616667,"lon":-104.1},{"id":1876007,"name":"el venado gacho","country":"mx","lat":26.616667,"lon":-103.65},{"id":1903133,"name":"rancho snata eulalia","country":"mx","lat":26.6,"lon":-104.133333},{"id":1910241,"name":"santa maria de mohovano","country":"mx","lat":26.683333,"lon":-103.616667},{"id":1900914,"name":"rancho el cubano","country":"mx","lat":26.716667,"lon":-104.2},{"id":1875741,"name":"el torito","country":"mx","lat":26.816667,"lon":-104.3},{"id":1899147,"name":"pueblo napoles","country":"mx","lat":27.366667,"lon":-103.533333},{"id":1871842,"name":"el diez","country":"mx","lat":26.8,"lon":-104.233333},{"id":1871085,"name":"el chamizal","country":"mx","lat":27.433333,"lon":-104.233333},{"id":1902162,"name":"rancho los barrios","country":"mx","lat":26.8,"lon":-103.966667},{"id":1892019,"name":"mercurio","country":"mx","lat":26.85,"lon":-104.133333},{"id":1901329,"name":"rancho el veracruzano","country":"mx","lat":26.65,"lon":-104.216667},{"id":1895092,"name":"ojo de almoloya","country":"mx","lat":27.0,"lon":-104.366667},{"id":1864358,"name":"cerros blancos","country":"mx","lat":27.0,"lon":-104.066667},{"id":1883062,"name":"la encantada","country":"mx","lat":27.183333,"lon":-103.9},{"id":1911574,"name":"sierra mojada","country":"mx","lat":27.283333,"lon":-103.7},{"id":1859626,"name":"asunsolo","country":"mx","lat":26.816667,"lon":-104.416667},{"id":1902848,"name":"rancho san isidro","country":"mx","lat":26.95,"lon":-104.0},{"id":1884010,"name":"la jarita","country":"mx","lat":27.466667,"lon":-104.433333},{"id":1902183,"name":"rancho los cuates","country":"mx","lat":26.783333,"lon":-104.183333},{"id":1900765,"name":"rancho el alto","country":"mx","lat":26.633333,"lon":-104.183333},{"id":1900858,"name":"rancho el chamizal","country":"mx","lat":27.416667,"lon":-104.233333},{"id":1902625,"name":"rancho presa del colorado","country":"mx","lat":27.466667,"lon":-103.566667},{"id":1901836,"name":"rancho la planchada","country":"mx","lat":27.333333,"lon":-103.633333}]});