callback({"markets":[{"id":818009,"name":"mechta gueberdella","country":"dz","lat":35.6333333,"lon":5.25},{"id":818103,"name":"mechta louzazna","country":"dz","lat":35.6088889,"lon":4.5075},{"id":816569,"name":"guellal","country":"dz","lat":36.0352778,"lon":5.3366667},{"id":817993,"name":"mechta gara","country":"dz","lat":36.2666667,"lon":5.4166667},{"id":819588,"name":"oued ksob","country":"dz","lat":35.8247222,"lon":4.5619444},{"id":819021,"name":"mechtet dra\u0027 el oust","country":"dz","lat":35.9833333,"lon":5.3833333},{"id":818532,"name":"mechtat dahmane el aid","country":"dz","lat":35.9252778,"lon":4.5933333},{"id":813821,"name":"bounda serhira","country":"dz","lat":36.3,"lon":4.6333333},{"id":818339,"name":"mechta rirhi","country":"dz","lat":36.0333333,"lon":4.6},{"id":818129,"name":"mechta melloul","country":"dz","lat":36.0166667,"lon":5.3666667},{"id":818078,"name":"mechta ksir","country":"dz","lat":36.1666667,"lon":4.8333333},{"id":820234,"name":"ouled salah","country":"dz","lat":35.7247222,"lon":4.7966667},{"id":817893,"name":"mechta chiha","country":"dz","lat":35.9666667,"lon":4.6},{"id":818091,"name":"mechta lamamera","country":"dz","lat":35.8833333,"lon":5.3333333},{"id":819018,"name":"mechtet dialem","country":"dz","lat":35.6955556,"lon":4.7730556},{"id":820477,"name":"ras isly","country":"dz","lat":35.7666667,"lon":5.2},{"id":816565,"name":"guelaa","country":"dz","lat":36.2916667,"lon":4.5833333},{"id":821050,"name":"siour","country":"dz","lat":36.2333333,"lon":4.6166667},{"id":813560,"name":"bou abed","country":"dz","lat":36.4333333,"lon":5.3833333},{"id":813468,"name":"bordj bou rerhda","country":"dz","lat":36.1333333,"lon":5.3833333},{"id":812842,"name":"aourir ou eulmi","country":"dz","lat":36.3666667,"lon":4.8166667},{"id":820734,"name":"sedrata","country":"dz","lat":36.0666667,"lon":5.0166667},{"id":816441,"name":"fitchou","country":"dz","lat":36.45,"lon":5.2166667},{"id":820087,"name":"ouled cherifa","country":"dz","lat":35.5,"lon":5.0666667},{"id":819690,"name":"oulad atmane","country":"dz","lat":36.15,"lon":4.5},{"id":818080,"name":"mechta laalatma","country":"dz","lat":35.7833333,"lon":4.8333333},{"id":817889,"name":"mechta chenafa","country":"dz","lat":36.2666667,"lon":4.9333333},{"id":819957,"name":"ouled adi lagballa","country":"dz","lat":35.7166667,"lon":4.9},{"id":816834,"name":"hilten","country":"dz","lat":36.4666667,"lon":4.9166667},{"id":817735,"name":"mechta ali ben srhir","country":"dz","lat":35.9833333,"lon":5.4333333},{"id":817709,"name":"mechta ain el hamra","country":"dz","lat":35.8108333,"lon":5.3219444},{"id":814803,"name":"douar el areib","country":"dz","lat":35.7166667,"lon":4.7},{"id":818443,"name":"mechta takouka","country":"dz","lat":36.3,"lon":5.3333333},{"id":820767,"name":"setif","country":"dz","lat":36.1913889,"lon":5.4094444},{"id":819884,"name":"oulad sidi ahmed","country":"dz","lat":35.9666667,"lon":5.4},{"id":812611,"name":"\u0027ain trick","country":"dz","lat":36.15,"lon":5.45},{"id":817732,"name":"mechta ain ztout","country":"dz","lat":35.8252778,"lon":5.3841667},{"id":818928,"name":"mechtat sidi el hadj ben rachdi","country":"dz","lat":36.0333333,"lon":4.7166667},{"id":818268,"name":"mechta ouled mbarek","country":"dz","lat":35.6333333,"lon":5.35},{"id":819646,"name":"oulad ahmed","country":"dz","lat":36.2666667,"lon":4.5166667},{"id":818547,"name":"mechtat dria rommane","country":"dz","lat":36.35,"lon":5.2833333},{"id":818559,"name":"mechtat ed dir","country":"dz","lat":35.7666667,"lon":4.8666667},{"id":816422,"name":"fermatou","country":"dz","lat":36.2261111,"lon":5.3938889},{"id":818577,"name":"mechtat el aouinat","country":"dz","lat":36.1666667,"lon":5.1166667},{"id":813836,"name":"bou rebza","country":"dz","lat":35.5666667,"lon":5.0833333},{"id":818672,"name":"mechtat el mehares","country":"dz","lat":35.7666667,"lon":5.25},{"id":820742,"name":"sekranme","country":"dz","lat":36.3,"lon":4.7166667},{"id":820299,"name":"ouled zaid","country":"dz","lat":36.2833333,"lon":4.7},{"id":819302,"name":"mguerba","country":"dz","lat":36.35,"lon":4.9166667},{"id":819427,"name":"m\u0027sila","country":"dz","lat":35.7058333,"lon":4.5419444},{"id":818132,"name":"mechta merabtine","country":"dz","lat":35.52,"lon":5.3111111},{"id":815693,"name":"el achir","country":"dz","lat":36.0666667,"lon":4.6305556},{"id":818027,"name":"mechta hamani","country":"dz","lat":35.7,"lon":4.8333333},{"id":817680,"name":"mechta abdallah","country":"dz","lat":35.7666667,"lon":5.3166667},{"id":813410,"name":"blondel","country":"dz","lat":36.1333333,"lon":4.7333333},{"id":818210,"name":"mechta oulad tebbene","country":"dz","lat":35.8166667,"lon":5.35},{"id":813865,"name":"bou selloutene","country":"dz","lat":36.4333333,"lon":4.9666667},{"id":821778,"name":"tizi n\u0027 bechar","country":"dz","lat":36.4333333,"lon":5.35},{"id":817175,"name":"khoualfia","country":"dz","lat":35.95,"lon":4.5666667},{"id":821314,"name":"taksebt","country":"dz","lat":36.4166667,"lon":4.9833333},{"id":817516,"name":"maffouda","country":"dz","lat":36.4333333,"lon":4.65},{"id":822064,"name":"zina","country":"dz","lat":36.3166667,"lon":4.5166667},{"id":812410,"name":"\u0027ain el ksar","country":"dz","lat":35.9333333,"lon":5.2},{"id":819856,"name":"oulad rached","country":"dz","lat":36.2333333,"lon":4.5333333},{"id":812153,"name":"aber el ma","country":"dz","lat":35.835,"lon":5.0683333},{"id":818730,"name":"mechtat guemmour","country":"dz","lat":36.0458333,"lon":4.8833333},{"id":816580,"name":"guemehouch","country":"dz","lat":36.4333333,"lon":5.1666667},{"id":816432,"name":"ferracha","country":"dz","lat":36.2333333,"lon":4.5666667},{"id":819058,"name":"mechtet kahal el krouch","country":"dz","lat":35.95,"lon":5.45},{"id":816995,"name":"iril ourir","country":"dz","lat":36.3166667,"lon":4.75},{"id":815692,"name":"el ach","country":"dz","lat":35.95,"lon":4.6833333},{"id":818972,"name":"mechtat ziane","country":"dz","lat":36.4333333,"lon":5.25},{"id":813835,"name":"bou rdim","country":"dz","lat":36.4333333,"lon":4.9333333},{"id":818019,"name":"mechta hadaoua","country":"dz","lat":35.6791667,"lon":5.3697222},{"id":817852,"name":"mechta bou marsoum","country":"dz","lat":35.7666667,"lon":5.05},{"id":812889,"name":"arrhas","country":"dz","lat":35.75,"lon":5.25},{"id":816368,"name":"ez zmala","country":"dz","lat":35.8833333,"lon":4.9333333},{"id":818892,"name":"mechtat regraga","country":"dz","lat":35.8480556,"lon":4.9211111},{"id":818649,"name":"mechtat el kill","country":"dz","lat":35.7905556,"lon":4.835},{"id":817955,"name":"mechta el hadjeres","country":"dz","lat":35.5955556,"lon":4.7147222},{"id":820177,"name":"ouled mannsour","country":"dz","lat":35.5333333,"lon":5.0166667},{"id":819632,"name":"ouizran","country":"dz","lat":36.3666667,"lon":4.55},{"id":818555,"name":"mechtat ech cheurfa","country":"dz","lat":35.7833333,"lon":4.95},{"id":812328,"name":"aine defla","country":"dz","lat":36.0722222,"lon":4.55},{"id":818587,"name":"mechtat el bacha","country":"dz","lat":36.0,"lon":4.7666667},{"id":819256,"name":"messaoud","country":"dz","lat":36.1977778,"lon":5.2686111},{"id":817765,"name":"mechta bazzar","country":"dz","lat":35.8369444,"lon":5.2333333},{"id":821567,"name":"teniet el kremis","country":"dz","lat":36.2166667,"lon":4.5833333},{"id":821404,"name":"taourirt arassien","country":"dz","lat":36.4833333,"lon":4.9},{"id":817496,"name":"maachat","country":"dz","lat":35.5833333,"lon":5.35},{"id":818484,"name":"mechtat ben el rharbi","country":"dz","lat":35.6666667,"lon":4.6166667},{"id":819683,"name":"oulad amor","country":"dz","lat":36.45,"lon":5.1},{"id":821265,"name":"tahamamine","country":"dz","lat":35.955,"lon":4.5466667},{"id":817740,"name":"mechta ameur","country":"dz","lat":35.6833333,"lon":5.2166667},{"id":818102,"name":"mechta loudani","country":"dz","lat":35.5819444,"lon":4.755},{"id":813109,"name":"ben guemmez","country":"dz","lat":35.7666667,"lon":5.2833333},{"id":817826,"name":"mechta bou adouch","country":"dz","lat":35.7166667,"lon":5.4666667},{"id":818846,"name":"mechtat ouled ahmar","country":"dz","lat":36.3666667,"lon":5.35},{"id":812980,"name":"badjerou","country":"dz","lat":35.6858333,"lon":5.4116667},{"id":821021,"name":"sidi slimone","country":"dz","lat":35.8375,"lon":5.1375},{"id":818884,"name":"mechtat ras el kifane","country":"dz","lat":35.7833333,"lon":4.85},{"id":818034,"name":"mechta irhil sadaoud","country":"dz","lat":36.4,"lon":5.35},{"id":818053,"name":"mechta kemedja","country":"dz","lat":35.9508333,"lon":5.3508333},{"id":817894,"name":"mechta chir","country":"dz","lat":35.6333333,"lon":5.3333333},{"id":819325,"name":"m\u0027karta","country":"dz","lat":35.9125,"lon":4.7119444},{"id":819123,"name":"medjana","country":"dz","lat":36.1305556,"lon":4.6672222},{"id":819196,"name":"menaifa","country":"dz","lat":35.7333333,"lon":4.9833333},{"id":812705,"name":"ait sidi ahmed ou ali","country":"dz","lat":35.6,"lon":4.5},{"id":819034,"name":"mechtet el krerba","country":"dz","lat":35.7605556,"lon":4.7852778},{"id":813357,"name":"bir hanate","country":"dz","lat":35.5327778,"lon":4.6388889},{"id":813930,"name":"braham","country":"dz","lat":36.3833333,"lon":5.1833333},{"id":817506,"name":"macdonald","country":"dz","lat":36.1666667,"lon":5.2333333},{"id":821439,"name":"tarfat","country":"dz","lat":36.4666667,"lon":4.8666667},{"id":817071,"name":"kasba","country":"dz","lat":36.1333333,"lon":4.5166667},{"id":815953,"name":"el hamma","country":"dz","lat":35.7027778,"lon":5.385},{"id":816135,"name":"el main","country":"dz","lat":36.3666667,"lon":4.75},{"id":819807,"name":"oulad khoufach","country":"dz","lat":36.3833333,"lon":4.9833333},{"id":817865,"name":"mechta brahim ben saifi","country":"dz","lat":35.7833333,"lon":5.3},{"id":817710,"name":"mechta ain el kahla","country":"dz","lat":35.8341667,"lon":5.4461111},{"id":817293,"name":"lakhouabi","country":"dz","lat":36.45,"lon":4.8},{"id":820866,"name":"sidi bou said","country":"dz","lat":35.7833333,"lon":5.1},{"id":813334,"name":"bir braich","country":"dz","lat":35.9333333,"lon":5.25},{"id":819301,"name":"mezraregue","country":"dz","lat":36.35,"lon":4.75},{"id":817207,"name":"krelil","country":"dz","lat":36.1833333,"lon":5.0166667},{"id":818188,"name":"mechta oulad makhlouf","country":"dz","lat":35.9011111,"lon":4.8730556},{"id":813497,"name":"bordj du keskes","country":"dz","lat":36.1,"lon":5.4833333},{"id":818876,"name":"mechtat oum ed dissa","country":"dz","lat":35.9119444,"lon":4.7941667},{"id":817215,"name":"krerbet el lala","country":"dz","lat":36.2538889,"lon":5.265},{"id":819066,"name":"mechtet medani","country":"dz","lat":35.9833333,"lon":5.2333333},{"id":821554,"name":"temlouka","country":"dz","lat":36.1666667,"lon":5.3333333},{"id":812584,"name":"\u0027ain teboucha","country":"dz","lat":35.5833333,"lon":4.8333333},{"id":820901,"name":"sidi emmbarek","country":"dz","lat":36.1013889,"lon":4.9083333},{"id":819995,"name":"ouled attaya","country":"dz","lat":35.7166667,"lon":4.9333333},{"id":812296,"name":"\u0027ain chouarh","country":"dz","lat":35.8666667,"lon":5.1166667},{"id":816087,"name":"el koudia","country":"dz","lat":36.3166667,"lon":4.8666667},{"id":821524,"name":"tebouda","country":"dz","lat":35.75,"lon":5.1166667},{"id":821938,"name":"yahia lehouas","country":"dz","lat":35.6166667,"lon":4.9166667},{"id":819054,"name":"mechtet gsar et tayer","country":"dz","lat":35.9713889,"lon":5.2658333},{"id":816596,"name":"guenzet","country":"dz","lat":36.3186111,"lon":4.8388889},{"id":818085,"name":"mechta lahouabib","country":"dz","lat":35.6166667,"lon":4.8666667},{"id":817585,"name":"maouaklane","country":"dz","lat":36.4,"lon":5.0833333},{"id":821173,"name":"tachaouef","country":"dz","lat":36.4666667,"lon":4.7166667},{"id":821421,"name":"taourirt ouabla","country":"dz","lat":36.4,"lon":4.55},{"id":813814,"name":"bou msedena","country":"dz","lat":36.4,"lon":5.25},{"id":819529,"name":"ouarassene","country":"dz","lat":35.9833333,"lon":4.5666667},{"id":812577,"name":"ain tagrout","country":"dz","lat":36.1333333,"lon":5.0833333},{"id":818692,"name":"mechtat el rhil","country":"dz","lat":35.7894444,"lon":4.8336111},{"id":813335,"name":"bir chaham","country":"dz","lat":35.9230556,"lon":5.0366667},{"id":813919,"name":"bou zekout","country":"dz","lat":36.4833333,"lon":4.9833333},{"id":820797,"name":"sidi ahmed ben slimane","country":"dz","lat":35.8844444,"lon":5.1363889},{"id":821645,"name":"tifrit","country":"dz","lat":36.4833333,"lon":4.5333333},{"id":818149,"name":"mechta mokhtar","country":"dz","lat":35.65,"lon":5.3833333},{"id":817842,"name":"mechta bou hellal","country":"dz","lat":35.6872222,"lon":5.3755556},{"id":816348,"name":"et tolba","country":"dz","lat":35.7730556,"lon":4.9258333},{"id":814051,"name":"cheikh salah","country":"dz","lat":35.9780556,"lon":5.2861111},{"id":819659,"name":"oulad ali ben athman","country":"dz","lat":36.4333333,"lon":5.0},{"id":819873,"name":"oulad salem","country":"dz","lat":36.4333333,"lon":5.1},{"id":820010,"name":"ouled bedira","country":"dz","lat":35.7433333,"lon":4.5580556},{"id":813892,"name":"boutouab","country":"dz","lat":36.3666667,"lon":4.6166667},{"id":818580,"name":"mechtat el aradia","country":"dz","lat":35.6,"lon":4.5333333},{"id":818926,"name":"mechtat sidi bel kassem","country":"dz","lat":35.6166667,"lon":4.7666667},{"id":818056,"name":"mechta ketef el bir","country":"dz","lat":35.8561111,"lon":5.4830556},{"id":818714,"name":"mechtat es seba","country":"dz","lat":35.7,"lon":5.4666667},{"id":812881,"name":"arraca","country":"dz","lat":36.4166667,"lon":4.8333333},{"id":817831,"name":"mechta bou aroua","country":"dz","lat":36.2333333,"lon":4.7666667},{"id":812163,"name":"achabou","country":"dz","lat":36.3166667,"lon":4.7333333},{"id":817908,"name":"mechta dar el beida","country":"dz","lat":35.6788889,"lon":5.1875},{"id":815733,"name":"el anasser","country":"dz","lat":36.2,"lon":5.3166667},{"id":821081,"name":"souala","country":"dz","lat":35.575,"lon":5.005},{"id":819153,"name":"meheris","country":"dz","lat":36.0666667,"lon":4.9666667},{"id":818479,"name":"mechtat ben aktouf","country":"dz","lat":36.2333333,"lon":5.05},{"id":817747,"name":"mechta aouichet","country":"dz","lat":36.25,"lon":5.0333333},{"id":818365,"name":"mechta saida","country":"dz","lat":35.5361111,"lon":4.5086111},{"id":818292,"name":"mechta ouled sidi yahia","country":"dz","lat":35.9166667,"lon":5.1333333},{"id":812539,"name":"\u0027ain nakhar","country":"dz","lat":35.5166667,"lon":5.0166667},{"id":813065,"name":"bel imour","country":"dz","lat":35.9811111,"lon":4.8788889},{"id":813683,"name":"bou hamza","country":"dz","lat":36.4333333,"lon":4.7},{"id":817490,"name":"louta-n-tkourt","country":"dz","lat":36.3833333,"lon":4.95},{"id":817679,"name":"mechta aadik","country":"dz","lat":35.6333333,"lon":4.9166667},{"id":818697,"name":"mechta teniet el louz","country":"dz","lat":35.8947222,"lon":5.4619444},{"id":820180,"name":"ouled mbarek","country":"dz","lat":35.5166667,"lon":4.95},{"id":818866,"name":"mechtat ouled laib","country":"dz","lat":36.1,"lon":5.0833333},{"id":814861,"name":"douar el haouch","country":"dz","lat":35.6666667,"lon":4.7},{"id":820094,"name":"ouled derradj","country":"dz","lat":35.6855556,"lon":4.7627778},{"id":816208,"name":"el m\u0027krazene","country":"dz","lat":35.9333333,"lon":4.7333333},{"id":818000,"name":"mechta grarsa","country":"dz","lat":35.8991667,"lon":5.1925},{"id":819970,"name":"ouled aissa","country":"dz","lat":36.3,"lon":4.5666667},{"id":818105,"name":"mechta maatit","country":"dz","lat":35.7222222,"lon":4.835},{"id":819906,"name":"oulad sidi moussa","country":"dz","lat":35.95,"lon":4.8666667},{"id":821623,"name":"tidjet","country":"dz","lat":36.3333333,"lon":4.8833333},{"id":821793,"name":"tizi rehal","country":"dz","lat":36.3833333,"lon":4.85},{"id":819661,"name":"oulad ali","country":"dz","lat":36.35,"lon":5.4666667},{"id":821839,"name":"toubou","country":"dz","lat":36.0022222,"lon":4.65},{"id":818108,"name":"mechta magraoua","country":"dz","lat":36.2833333,"lon":5.0833333},{"id":819946,"name":"ouled abari","country":"dz","lat":35.5558333,"lon":5.0519444},{"id":812726,"name":"akourma","country":"dz","lat":36.4666667,"lon":4.6333333},{"id":818077,"name":"mechta krerba","country":"dz","lat":36.25,"lon":5.4833333},{"id":818260,"name":"mechta ouled hachich","country":"dz","lat":36.2166667,"lon":5.3833333},{"id":821764,"name":"tizert","country":"dz","lat":36.4833333,"lon":4.7333333},{"id":814081,"name":"chenia","country":"dz","lat":35.9611111,"lon":4.91},{"id":818848,"name":"mechtat ouled ali ben zid","country":"dz","lat":35.6297222,"lon":4.5888889},{"id":813483,"name":"bordj du caid","country":"dz","lat":36.0666667,"lon":5.4833333},{"id":819088,"name":"mechtet ouled zrir","country":"dz","lat":35.9788889,"lon":5.1883333},{"id":818073,"name":"mechta kouider","country":"dz","lat":35.6166667,"lon":5.25},{"id":812896,"name":"asga","country":"dz","lat":36.3,"lon":4.7666667},{"id":818902,"name":"mechtat rhoder","country":"dz","lat":35.8666667,"lon":4.9333333},{"id":813355,"name":"bir haddada","country":"dz","lat":35.9633333,"lon":5.4330556},{"id":818482,"name":"mechtat ben baiti","country":"dz","lat":36.2166667,"lon":4.95},{"id":818417,"name":"mechta taglait","country":"dz","lat":35.8166667,"lon":5.0},{"id":818064,"name":"mechta khelifat","country":"dz","lat":35.9166667,"lon":4.6166667},{"id":822011,"name":"zecora","country":"dz","lat":36.4,"lon":5.2333333},{"id":819793,"name":"oulad hamdane","country":"dz","lat":35.9,"lon":4.95},{"id":814136,"name":"chouf ranib","country":"dz","lat":36.25,"lon":4.7166667},{"id":816414,"name":"fercha","country":"dz","lat":35.8,"lon":4.5},{"id":815840,"name":"el djabia","country":"dz","lat":36.4666667,"lon":4.7833333},{"id":818834,"name":"mechtat oulad morhem","country":"dz","lat":36.3666667,"lon":5.3833333},{"id":816734,"name":"handis","country":"dz","lat":36.4,"lon":4.5166667},{"id":819818,"name":"oulad mahamel","country":"dz","lat":36.1666667,"lon":4.7833333},{"id":818104,"name":"mechta maadit","country":"dz","lat":35.7833333,"lon":4.8833333},{"id":817119,"name":"kerrato","country":"dz","lat":36.495,"lon":5.2808333},{"id":816288,"name":"en nakhla","country":"dz","lat":35.5666667,"lon":4.8333333},{"id":817690,"name":"mechta ahmed ben sidi larbi","country":"dz","lat":35.7333333,"lon":5.1666667},{"id":818840,"name":"mechtat oulad saadi","country":"dz","lat":36.2,"lon":5.1833333},{"id":821844,"name":"touffirt","country":"dz","lat":36.3833333,"lon":4.65},{"id":817888,"name":"mechta cheki","country":"dz","lat":35.7561111,"lon":4.9588889},{"id":817259,"name":"ksour","country":"dz","lat":35.9833333,"lon":4.5166667},{"id":821425,"name":"taourirt","country":"dz","lat":36.4666667,"lon":4.75},{"id":820077,"name":"ouled brahim","country":"dz","lat":35.7333333,"lon":5.0166667},{"id":819540,"name":"ouchanene","country":"dz","lat":36.3,"lon":4.6666667},{"id":821430,"name":"taourmitte","country":"dz","lat":36.3333333,"lon":4.7},{"id":818594,"name":"mechtat el bir","country":"dz","lat":35.8333333,"lon":5.3833333},{"id":819959,"name":"ouled agla","country":"dz","lat":35.9680556,"lon":4.6961111},{"id":815734,"name":"el-anasser","country":"dz","lat":36.0375,"lon":4.8180556},{"id":812187,"name":"affirou","country":"dz","lat":36.25,"lon":4.6166667},{"id":819129,"name":"medjez","country":"dz","lat":35.8836111,"lon":4.6202778},{"id":818231,"name":"mechta ouled atla","country":"dz","lat":35.6833333,"lon":5.1333333},{"id":820693,"name":"salah bey","country":"dz","lat":35.8561111,"lon":5.2875},{"id":818233,"name":"mechta ouled attia","country":"dz","lat":35.6833333,"lon":4.9166667},{"id":812243,"name":"aichouch","country":"dz","lat":35.5333333,"lon":5.0833333},{"id":816702,"name":"hammam","country":"dz","lat":35.7772222,"lon":5.1294444},{"id":820057,"name":"ouled bou akeur","country":"dz","lat":35.6166667,"lon":4.5666667},{"id":818349,"name":"mechta saad allah","country":"dz","lat":36.2166667,"lon":4.75},{"id":813053,"name":"bel ayel","country":"dz","lat":36.3166667,"lon":4.5666667},{"id":820443,"name":"rabta","country":"dz","lat":35.9166667,"lon":4.75},{"id":813488,"name":"bordj du caid","country":"dz","lat":36.1833333,"lon":4.9666667},{"id":818984,"name":"mechta zerba","country":"dz","lat":35.9333333,"lon":5.0166667},{"id":818267,"name":"mechta ouled mbarek","country":"dz","lat":35.6333333,"lon":5.0166667},{"id":818285,"name":"mechta ouled salem","country":"dz","lat":35.6166667,"lon":5.3},{"id":813324,"name":"bichara","country":"dz","lat":35.8208333,"lon":4.7952778},{"id":818088,"name":"mechta lakhlidj","country":"dz","lat":35.6166667,"lon":5.4},{"id":822015,"name":"zeiri","country":"dz","lat":36.3,"lon":5.4333333},{"id":818699,"name":"mechtat er radj","country":"dz","lat":35.9869444,"lon":4.7111111},{"id":818387,"name":"mechta sidi hassene","country":"dz","lat":36.2666667,"lon":5.2333333},{"id":821309,"name":"takourrabet","country":"dz","lat":36.35,"lon":4.5},{"id":818950,"name":"mechtat teksra","country":"dz","lat":36.3333333,"lon":5.0166667},{"id":813366,"name":"bir louksia","country":"dz","lat":35.8775,"lon":5.2775},{"id":816005,"name":"el houachi","country":"dz","lat":35.7333333,"lon":5.0333333},{"id":813776,"name":"bou kremissa","country":"dz","lat":35.8,"lon":4.55},{"id":812765,"name":"amalou","country":"dz","lat":36.4833333,"lon":4.65},{"id":820003,"name":"ouled baia","country":"dz","lat":35.7333333,"lon":4.9166667},{"id":818271,"name":"mechta ouled mehenni","country":"dz","lat":36.1333333,"lon":4.8},{"id":818573,"name":"mechtat el amri","country":"dz","lat":35.9552778,"lon":4.8402778},{"id":812498,"name":"\u0027ain khadra","country":"dz","lat":35.5333333,"lon":4.9666667},{"id":812528,"name":"\u0027ain melsa","country":"dz","lat":36.1166667,"lon":5.2833333},{"id":817845,"name":"mechta bouira","country":"dz","lat":35.7166667,"lon":5.0666667},{"id":817524,"name":"magoura","country":"dz","lat":35.7422222,"lon":4.9405556},{"id":813047,"name":"bel aiba","country":"dz","lat":35.5333333,"lon":5.15},{"id":821374,"name":"tamokra","country":"dz","lat":36.4,"lon":4.6666667},{"id":816672,"name":"hamama","country":"dz","lat":36.4,"lon":5.2833333},{"id":821267,"name":"tahammamet","country":"dz","lat":36.3833333,"lon":5.0666667},{"id":819799,"name":"oulad hassine","country":"dz","lat":36.0,"lon":5.1},{"id":818932,"name":"mechtat sidi said","country":"dz","lat":35.8666667,"lon":4.9833333},{"id":817866,"name":"mechta braktias","country":"dz","lat":35.6333333,"lon":4.8166667},{"id":818014,"name":"mechta guetar","country":"dz","lat":35.9666667,"lon":4.6666667},{"id":817666,"name":"mecherat el brikate","country":"dz","lat":35.7105556,"lon":4.6752778},{"id":819219,"name":"merdj moumene","country":"dz","lat":36.4166667,"lon":5.2},{"id":819014,"name":"mechtet chabet aoun","country":"dz","lat":35.8994444,"lon":5.0536111},{"id":812424,"name":"aine mergoum","country":"dz","lat":36.4166667,"lon":5.1166667},{"id":821491,"name":"tazalemt","country":"dz","lat":36.25,"lon":4.6666667},{"id":819032,"name":"mechtet el kouana","country":"dz","lat":35.9166667,"lon":5.35},{"id":818723,"name":"mechtat fatima","country":"dz","lat":36.0194444,"lon":4.725},{"id":819297,"name":"mezloug","country":"dz","lat":36.1091667,"lon":5.3388889},{"id":818702,"name":"mechtat er regata","country":"dz","lat":35.8,"lon":4.8666667},{"id":818763,"name":"mechtat larbaa","country":"dz","lat":36.05,"lon":5.1333333},{"id":818432,"name":"mechtat ain el mokr","country":"dz","lat":36.2,"lon":4.95},{"id":820259,"name":"ouled sidi makhlouf","country":"dz","lat":35.5552778,"lon":4.9419444},{"id":818141,"name":"mechta metaoucha","country":"dz","lat":35.9166667,"lon":4.65},{"id":818904,"name":"mechta triouyat","country":"dz","lat":35.9383333,"lon":4.7602778},{"id":813164,"name":"beni hafedh","country":"dz","lat":36.3916667,"lon":4.8083333},{"id":818525,"name":"mechtat cherchar","country":"dz","lat":36.1833333,"lon":5.1},{"id":817863,"name":"mechta brabra","country":"dz","lat":35.6666667,"lon":4.9166667},{"id":818575,"name":"mechtat el aouaiez","country":"dz","lat":35.5333333,"lon":4.65},{"id":818131,"name":"mechta merabaa","country":"dz","lat":35.6666667,"lon":5.1166667},{"id":812270,"name":"`ain ben aied","country":"dz","lat":35.8761111,"lon":5.0575},{"id":816617,"name":"guidjal","country":"dz","lat":36.0833333,"lon":5.4833333},{"id":818244,"name":"mechta ouled boudil","country":"dz","lat":36.15,"lon":5.4666667},{"id":819917,"name":"oulad tabet","country":"dz","lat":36.1,"lon":5.2666667},{"id":821516,"name":"tazrout","country":"dz","lat":35.9930556,"lon":4.5266667},{"id":820704,"name":"satour","country":"dz","lat":36.25,"lon":4.65},{"id":821497,"name":"tazemourt","country":"dz","lat":36.4333333,"lon":5.2833333},{"id":818746,"name":"mechta tizguine","country":"dz","lat":35.9333333,"lon":4.6166667},{"id":818248,"name":"mechta ouled brahim","country":"dz","lat":35.65,"lon":5.1},{"id":813262,"name":"ben saoucha","country":"dz","lat":35.6227778,"lon":4.7213889},{"id":817867,"name":"mechta bribri","country":"dz","lat":35.5833333,"lon":4.5},{"id":818910,"name":"mechtat roumi","country":"dz","lat":35.8047222,"lon":4.6633333},{"id":812440,"name":"aine sfia","country":"dz","lat":36.1666667,"lon":5.3833333},{"id":818967,"name":"mechtat zdira","country":"dz","lat":36.0166667,"lon":5.25},{"id":820008,"name":"ouled barik","country":"dz","lat":35.54,"lon":5.0711111},{"id":819623,"name":"ouertaia","country":"dz","lat":35.5933333,"lon":4.8280556},{"id":821333,"name":"tala yfassene","country":"dz","lat":36.4666667,"lon":5.1333333},{"id":818165,"name":"mechta oued ech chair","country":"dz","lat":36.2833333,"lon":5.4333333},{"id":818410,"name":"mechtat adissa","country":"dz","lat":36.1,"lon":5.3833333},{"id":820076,"name":"ouled brahim","country":"dz","lat":35.6580556,"lon":4.8930556},{"id":813325,"name":"bicher","country":"dz","lat":36.3833333,"lon":4.6333333},{"id":818662,"name":"mechtat el malah","country":"dz","lat":36.1,"lon":5.4},{"id":818256,"name":"mechta ouled el hadef","country":"dz","lat":36.2333333,"lon":5.45},{"id":818765,"name":"mechtat layadat","country":"dz","lat":35.9833333,"lon":5.15},{"id":816981,"name":"irhram","country":"dz","lat":36.4666667,"lon":4.5166667},{"id":812216,"name":"aguemonne nait aissa","country":"dz","lat":36.4166667,"lon":4.7833333},{"id":820011,"name":"ouled beia","country":"dz","lat":35.7,"lon":4.8833333},{"id":812420,"name":"aine malah","country":"dz","lat":36.1166667,"lon":5.4166667},{"id":812675,"name":"ait ikrelef","country":"dz","lat":35.6166667,"lon":4.5},{"id":818196,"name":"mechta oulad ou ameur","country":"dz","lat":36.35,"lon":5.4},{"id":820471,"name":"ras el fedh","country":"dz","lat":36.35,"lon":4.9666667},{"id":818849,"name":"mechtat ouled ali","country":"dz","lat":35.6,"lon":4.5833333},{"id":821759,"name":"tixter","country":"dz","lat":36.05,"lon":5.0833333},{"id":813026,"name":"bechilga","country":"dz","lat":35.6833333,"lon":4.5833333},{"id":821666,"name":"tikesriine","country":"dz","lat":36.4833333,"lon":5.15},{"id":814134,"name":"chouf","country":"dz","lat":36.4166667,"lon":4.8833333},{"id":816989,"name":"iril el kremis","country":"dz","lat":36.3361111,"lon":4.8663889},{"id":818164,"name":"mechta oued aouicha","country":"dz","lat":35.55,"lon":4.7333333},{"id":818464,"name":"mechtat asnina","country":"dz","lat":36.4333333,"lon":5.4833333},{"id":813820,"name":"bounda el kebira","country":"dz","lat":36.2833333,"lon":4.6166667},{"id":815658,"name":"ed dechra","country":"dz","lat":35.9136111,"lon":4.9241667},{"id":818611,"name":"mechtat el gourene","country":"dz","lat":35.55,"lon":4.5},{"id":817942,"name":"mechta el aouassa","country":"dz","lat":35.5833333,"lon":4.7333333},{"id":817715,"name":"mechta ain hallal","country":"dz","lat":35.7869444,"lon":5.3925},{"id":818617,"name":"mechtat el hadjadj","country":"dz","lat":36.1666667,"lon":4.85},{"id":814686,"name":"douar bou hamadou","country":"dz","lat":35.5463889,"lon":4.7105556},{"id":813888,"name":"bou taleb","country":"dz","lat":35.6988889,"lon":5.3116667},{"id":816701,"name":"hammam guergour","country":"dz","lat":36.3166667,"lon":5.0666667},{"id":818097,"name":"mechta layeb","country":"dz","lat":35.8727778,"lon":5.2063889},{"id":813362,"name":"bir kasdali","country":"dz","lat":36.15,"lon":5.0333333},{"id":821707,"name":"tinar","country":"dz","lat":36.15,"lon":5.4833333},{"id":816667,"name":"hamadia","country":"dz","lat":35.9758333,"lon":4.7477778},{"id":813551,"name":"borj bu arrerij","country":"dz","lat":36.075,"lon":4.775},{"id":818552,"name":"mechtat ech cheraba","country":"dz","lat":36.15,"lon":5.2166667},{"id":814417,"name":"djahnit","country":"dz","lat":36.3666667,"lon":4.7833333},{"id":817800,"name":"mechta berdaa","country":"dz","lat":35.6766667,"lon":5.3125},{"id":818524,"name":"mechtat cherarha","country":"dz","lat":35.9091667,"lon":5.1119444},{"id":812786,"name":"amoucha","country":"dz","lat":36.3833333,"lon":5.4166667},{"id":814467,"name":"djenane","country":"dz","lat":35.6,"lon":4.6166667},{"id":818109,"name":"mechta maifrene","country":"dz","lat":35.9636111,"lon":4.6391667},{"id":818316,"name":"mechta reachla","country":"dz","lat":36.2666667,"lon":4.9},{"id":820305,"name":"ouled zlehala","country":"dz","lat":35.6891667,"lon":4.97},{"id":815990,"name":"el hassi","country":"dz","lat":36.1833333,"lon":5.45},{"id":821504,"name":"tazla","country":"dz","lat":36.2666667,"lon":4.6},{"id":818606,"name":"mechtat el firane","country":"dz","lat":36.2,"lon":4.7833333},{"id":817499,"name":"maafer","country":"dz","lat":35.8555556,"lon":5.3663889},{"id":817539,"name":"mahouane","country":"dz","lat":36.2666667,"lon":5.35},{"id":817059,"name":"kariou","country":"dz","lat":36.25,"lon":4.6},{"id":819035,"name":"mechtet el ksob","country":"dz","lat":35.8413889,"lon":4.8427778},{"id":820486,"name":"rayet","country":"dz","lat":36.3333333,"lon":4.95},{"id":813356,"name":"bir hamoudi","country":"dz","lat":35.9086111,"lon":5.0080556},{"id":818403,"name":"mechta sommar","country":"dz","lat":36.1666667,"lon":5.2833333},{"id":814483,"name":"djenta","country":"dz","lat":36.2833333,"lon":4.9166667},{"id":813156,"name":"beni el mai","country":"dz","lat":35.7166667,"lon":5.3166667},{"id":820484,"name":"rass el oued","country":"dz","lat":35.9461111,"lon":5.0327778},{"id":812879,"name":"arnat","country":"dz","lat":36.1836111,"lon":5.3105556},{"id":815960,"name":"el hammam","country":"dz","lat":35.85,"lon":4.5166667},{"id":821571,"name":"tennsaout","country":"dz","lat":36.4333333,"lon":4.7166667},{"id":813441,"name":"bondjih","country":"dz","lat":36.4666667,"lon":4.9},{"id":821241,"name":"tagounit irhil","country":"dz","lat":36.4666667,"lon":4.8},{"id":821851,"name":"toumella","country":"dz","lat":35.9333333,"lon":5.0333333},{"id":812284,"name":"\u0027ain bourdeche","country":"dz","lat":35.8733333,"lon":5.0725},{"id":821423,"name":"taourirt tamelalt","country":"dz","lat":36.3333333,"lon":4.8666667},{"id":817748,"name":"mechta aouich","country":"dz","lat":35.6727778,"lon":4.8655556},{"id":816964,"name":"irhill enda","country":"dz","lat":36.4666667,"lon":5.2833333},{"id":817183,"name":"kolla","country":"dz","lat":36.2666667,"lon":4.6833333},{"id":813208,"name":"benina","country":"dz","lat":36.1166667,"lon":5.1333333},{"id":812247,"name":"\u0027ain abessa","country":"dz","lat":36.2994444,"lon":5.2927778},{"id":816206,"name":"el mkam","country":"dz","lat":36.2166667,"lon":4.5333333},{"id":820881,"name":"sidi djella","country":"dz","lat":35.5758333,"lon":5.2711111},{"id":817214,"name":"krerbet el argoub","country":"dz","lat":35.6725,"lon":4.6341667},{"id":812360,"name":"aine kralfoune","country":"dz","lat":36.1833333,"lon":5.3333333},{"id":816182,"name":"el mennchar","country":"dz","lat":36.4833333,"lon":5.3333333},{"id":815143,"name":"douar meliane","country":"dz","lat":35.6966667,"lon":4.7277778},{"id":815900,"name":"el guettar","country":"dz","lat":35.95,"lon":4.95},{"id":821481,"name":"tassera","country":"dz","lat":36.0333333,"lon":4.9666667},{"id":812452,"name":"aine tebinet","country":"dz","lat":36.1833333,"lon":5.4333333},{"id":819033,"name":"mechtet el krarrouba","country":"dz","lat":35.9547222,"lon":4.8383333},{"id":818370,"name":"mechta sbir","country":"dz","lat":35.7166667,"lon":5.45},{"id":815800,"name":"el baouch","country":"dz","lat":36.3666667,"lon":5.1666667},{"id":821295,"name":"takendoukt","country":"dz","lat":36.45,"lon":5.1833333},{"id":818345,"name":"mechta roubia","country":"dz","lat":35.6469444,"lon":4.7897222},{"id":812616,"name":"\u0027ain zada","country":"dz","lat":36.1666667,"lon":5.2},{"id":820079,"name":"ouled brebeb","country":"dz","lat":35.6666667,"lon":4.8333333},{"id":816344,"name":"et tleta","country":"dz","lat":35.7722222,"lon":4.995},{"id":819264,"name":"mestham","country":"dz","lat":36.4166667,"lon":5.15},{"id":818769,"name":"mechtat maaza","country":"dz","lat":35.8744444,"lon":4.5430556},{"id":814057,"name":"chekbout","country":"dz","lat":36.3333333,"lon":4.6166667},{"id":818347,"name":"mechta rouissa","country":"dz","lat":35.7,"lon":4.8166667},{"id":816232,"name":"el otsmane","country":"dz","lat":35.5166667,"lon":4.9166667},{"id":815186,"name":"douar nadja","country":"dz","lat":35.5666667,"lon":4.9666667},{"id":822036,"name":"zennouna","country":"dz","lat":36.1,"lon":4.5833333},{"id":819819,"name":"oulad mahdi","country":"dz","lat":36.2,"lon":4.7333333},{"id":817722,"name":"mechta \u0027ain meriout","country":"dz","lat":36.1833333,"lon":5.05},{"id":817768,"name":"mechta bel djoudi","country":"dz","lat":36.2441667,"lon":5.4988889},{"id":819049,"name":"mechtet et tiffrent","country":"dz","lat":35.7863889,"lon":4.6925},{"id":816417,"name":"fereha","country":"dz","lat":36.45,"lon":4.7666667},{"id":819064,"name":"mechtet lablalit","country":"dz","lat":35.95,"lon":5.3666667},{"id":819546,"name":"oued adi guebala","country":"dz","lat":35.6580556,"lon":4.8672222},{"id":812587,"name":"ain tefela","country":"dz","lat":35.9933333,"lon":4.9672222},{"id":822031,"name":"zemmours","country":"dz","lat":36.2694444,"lon":4.8472222},{"id":813779,"name":"bouktene","country":"dz","lat":36.2833333,"lon":4.5833333},{"id":818853,"name":"mechtat ouled bou abdallah","country":"dz","lat":36.05,"lon":4.6},{"id":813522,"name":"bordj magra","country":"dz","lat":35.5941667,"lon":5.0705556},{"id":817274,"name":"lafayette","country":"dz","lat":36.3333333,"lon":5.0833333},{"id":815911,"name":"el hachichia","country":"dz","lat":36.15,"lon":5.3166667},{"id":817971,"name":"mechta er rmel","country":"dz","lat":36.1833333,"lon":5.15},{"id":821190,"name":"tadjel","country":"dz","lat":36.3666667,"lon":5.0},{"id":819626,"name":"ougrina","country":"dz","lat":36.3,"lon":5.4},{"id":818502,"name":"mechtat bitam","country":"dz","lat":35.8,"lon":4.9666667},{"id":815898,"name":"el guetar","country":"dz","lat":36.3666667,"lon":5.1},{"id":821263,"name":"tahadelt","country":"dz","lat":36.45,"lon":5.3833333},{"id":817721,"name":"mechta \u0027ain mellah","country":"dz","lat":36.3666667,"lon":5.2},{"id":819043,"name":"mechtet el rhirane","country":"dz","lat":35.8888889,"lon":5.0197222},{"id":814462,"name":"djemmana","country":"dz","lat":35.8155556,"lon":5.4466667},{"id":813697,"name":"bouhira","country":"dz","lat":36.2155556,"lon":5.2783333},{"id":812434,"name":"aine roua","country":"dz","lat":36.3333333,"lon":5.1833333},{"id":818246,"name":"mechta ouled bou hariz","country":"dz","lat":36.0333333,"lon":4.5666667},{"id":813453,"name":"bordj ben ali cherif","country":"dz","lat":36.2333333,"lon":5.1666667},{"id":818810,"name":"mechtat oued mehaia","country":"dz","lat":35.5688889,"lon":4.6111111},{"id":821477,"name":"tassamert","country":"dz","lat":36.2666667,"lon":4.8166667},{"id":812241,"name":"ahourir","country":"dz","lat":36.35,"lon":4.6833333},{"id":813812,"name":"bou moussa","country":"dz","lat":36.4833333,"lon":5.4833333},{"id":818475,"name":"mechtat beldj","country":"dz","lat":36.0,"lon":4.5833333},{"id":818989,"name":"mechta zouaoucha","country":"dz","lat":35.8011111,"lon":5.1958333},{"id":820590,"name":"rouabich","country":"dz","lat":35.5833333,"lon":4.8166667},{"id":814215,"name":"dar beida","country":"dz","lat":36.1333333,"lon":4.5833333},{"id":817936,"name":"mechta draa el maad","country":"dz","lat":35.9583333,"lon":5.2983333},{"id":812813,"name":"anroual","country":"dz","lat":35.7,"lon":5.2333333},{"id":819439,"name":"mzaret el radjai","country":"dz","lat":35.7333333,"lon":4.7166667},{"id":819288,"name":"metz","country":"dz","lat":36.4611111,"lon":4.5333333},{"id":817905,"name":"mechta dakrla","country":"dz","lat":36.3166667,"lon":5.2166667},{"id":816557,"name":"guechtoula","country":"dz","lat":36.3666667,"lon":4.9333333},{"id":816256,"name":"el ouricia","country":"dz","lat":36.2813889,"lon":5.4044444},{"id":814164,"name":"colbert","country":"dz","lat":35.9230556,"lon":5.2933333},{"id":820847,"name":"sidi ben khalifa","country":"dz","lat":35.5333333,"lon":4.9333333},{"id":820150,"name":"ouled hetf","country":"dz","lat":35.7,"lon":4.9666667},{"id":817267,"name":"la barbinais","country":"dz","lat":36.05,"lon":4.9666667},{"id":818505,"name":"mechtat bou amran","country":"dz","lat":36.4666667,"lon":5.4166667},{"id":813609,"name":"bouchakfa","country":"dz","lat":36.3666667,"lon":4.5},{"id":818275,"name":"mechta ouled nouioua","country":"dz","lat":35.7666667,"lon":5.0166667},{"id":813535,"name":"bordj r\u0027dir","country":"dz","lat":35.9011111,"lon":4.8980556},{"id":813182,"name":"beni lalem","country":"dz","lat":36.2833333,"lon":4.7833333},{"id":821118,"name":"souk ouled nadja","country":"dz","lat":35.6597222,"lon":5.0355556},{"id":815659,"name":"ed derhoune","country":"dz","lat":35.6333333,"lon":4.7},{"id":818423,"name":"mechtat aina","country":"dz","lat":36.3333333,"lon":5.2833333},{"id":821243,"name":"tagounit","country":"dz","lat":36.1833333,"lon":4.65}]});