callback({"markets":[{"id":157631,"name":"mummballup","country":"au","lat":-33.533333,"lon":116.116667},{"id":158041,"name":"noggerup","country":"au","lat":-33.583333,"lon":116.166667},{"id":151508,"name":"beelerup","country":"au","lat":-33.566667,"lon":115.85},{"id":155204,"name":"hester","country":"au","lat":-33.9,"lon":116.15},{"id":155936,"name":"kirup","country":"au","lat":-33.7,"lon":115.9},{"id":153626,"name":"deeside homestead","country":"au","lat":-34.4,"lon":116.416667},{"id":156870,"name":"mayanup","country":"au","lat":-33.95,"lon":116.45},{"id":157806,"name":"nannup mill","country":"au","lat":-33.983333,"lon":115.75},{"id":152655,"name":"capel","country":"au","lat":-33.558079,"lon":115.562782},{"id":161777,"name":"yornup","country":"au","lat":-34.05,"lon":116.166667},{"id":159827,"name":"sussex mill","country":"au","lat":-33.883333,"lon":115.733333},{"id":158557,"name":"pemberton","country":"au","lat":-34.443111,"lon":116.036888},{"id":161633,"name":"yanmah","country":"au","lat":-34.183333,"lon":116.016667},{"id":152127,"name":"bridgetown","country":"au","lat":-33.962421,"lon":116.135979},{"id":154873,"name":"greenbushes","country":"au","lat":-33.849651,"lon":116.058189},{"id":161198,"name":"wilga","country":"au","lat":-33.683333,"lon":116.233333},{"id":155505,"name":"jardee","country":"au","lat":-34.283333,"lon":116.116667},{"id":153934,"name":"eastbrook","country":"au","lat":-34.4,"lon":116.1},{"id":153609,"name":"deanmill","country":"au","lat":-34.25,"lon":116.083333},{"id":157615,"name":"mullalyup","country":"au","lat":-33.733333,"lon":115.933333},{"id":152070,"name":"boyup brook","country":"au","lat":-33.834251,"lon":116.387756},{"id":157807,"name":"nannup","country":"au","lat":-33.978741,"lon":115.764603},{"id":151258,"name":"balbarrup","country":"au","lat":-34.233333,"lon":116.2},{"id":153948,"name":"east kirup mill","country":"au","lat":-33.7,"lon":116.05},{"id":151421,"name":"barronhurst","country":"au","lat":-34.416667,"lon":116.066667},{"id":154647,"name":"glenlynn","country":"au","lat":-34.0,"lon":116.15},{"id":153752,"name":"donnybrook","country":"au","lat":-33.571301,"lon":115.824463},{"id":158418,"name":"palgarup","country":"au","lat":-34.2,"lon":116.166667},{"id":151602,"name":"benjinup","country":"au","lat":-33.766667,"lon":116.316667},{"id":155508,"name":"jarrahwood","country":"au","lat":-33.8,"lon":115.666667},{"id":156541,"name":"lowden","country":"au","lat":-33.533333,"lon":115.966667},{"id":157972,"name":"newlands","country":"au","lat":-33.666667,"lon":115.866667},{"id":151281,"name":"balingup","country":"au","lat":-33.8,"lon":115.966667},{"id":156738,"name":"manjimup","country":"au","lat":-34.241219,"lon":116.145638}]});