callback({"markets":[{"id":2719703,"name":"ban loe ru kro tha","country":"th","lat":17.341556,"lon":98.178472},{"id":1810921,"name":"einde","country":"mm","lat":16.8,"lon":97.7333333},{"id":2702216,"name":"ban blo blo khi","country":"th","lat":17.470584,"lon":98.226111},{"id":1818164,"name":"kyawywa","country":"mm","lat":16.7888889,"lon":97.7491667},{"id":1814194,"name":"kada","country":"mm","lat":17.15,"lon":97.9166667},{"id":1815000,"name":"kanna","country":"mm","lat":16.9844444,"lon":97.7372222},{"id":1815736,"name":"kawtamalein","country":"mm","lat":16.7730556,"lon":97.6811111},{"id":1815453,"name":"kawdun","country":"mm","lat":16.7,"lon":97.6333333},{"id":1832192,"name":"shwege","country":"mm","lat":16.8247222,"lon":97.8663889},{"id":1817260,"name":"kwindala","country":"mm","lat":17.4666667,"lon":97.5333333},{"id":2742321,"name":"ban ta lo to ko","country":"th","lat":17.195778,"lon":98.421445},{"id":2716419,"name":"ban klae mue cho","country":"th","lat":17.223028,"lon":98.291445},{"id":1833906,"name":"taripokwi","country":"mm","lat":17.3333333,"lon":97.8833333},{"id":1817651,"name":"kyaukhpa","country":"mm","lat":17.4166667,"lon":97.65},{"id":1812167,"name":"hmawbiywathit","country":"mm","lat":16.6558333,"lon":97.6002778},{"id":2744891,"name":"ban thi bo khi","country":"th","lat":17.482722,"lon":98.213834},{"id":1840394,"name":"wekanin","country":"mm","lat":16.7666667,"lon":97.75},{"id":1824051,"name":"muya","country":"mm","lat":16.7641667,"lon":97.6511111},{"id":1825795,"name":"natkyigyaung","country":"mm","lat":16.6047222,"lon":97.5205556},{"id":1827085,"name":"nongtiyang","country":"mm","lat":16.7133333,"lon":97.9413889},{"id":1812165,"name":"hmawbi","country":"mm","lat":16.6375,"lon":97.6122222},{"id":1836268,"name":"tilawthi","country":"mm","lat":16.7666667,"lon":98.3333333},{"id":2704929,"name":"ban da kro","country":"th","lat":17.279167,"lon":98.376028},{"id":1833384,"name":"takinlon","country":"mm","lat":17.0666667,"lon":97.6666667},{"id":1822746,"name":"mawwakhi","country":"mm","lat":17.4333333,"lon":98.0166667},{"id":1816327,"name":"klemokhi","country":"mm","lat":17.35,"lon":98.0666667},{"id":1824023,"name":"munthakwi","country":"mm","lat":16.7166667,"lon":97.7333333},{"id":1834398,"name":"tawanpanya","country":"mm","lat":17.0333333,"lon":97.6666667},{"id":1812037,"name":"hlaingkwe","country":"mm","lat":16.5333333,"lon":98.1666667},{"id":1840602,"name":"winkyan","country":"mm","lat":16.7697222,"lon":97.6088889},{"id":2709495,"name":"ban huai pu kaeng nok","country":"th","lat":17.212056,"lon":98.307},{"id":1820730,"name":"lunnya","country":"mm","lat":16.7447222,"lon":97.7883333},{"id":1815776,"name":"kaya-atwin","country":"mm","lat":16.6094444,"lon":97.8338889},{"id":1812575,"name":"hpakalu","country":"mm","lat":16.8666667,"lon":98.35},{"id":1813462,"name":"htiparekhi","country":"mm","lat":17.3,"lon":97.9333333},{"id":1815518,"name":"kawku","country":"mm","lat":16.9666667,"lon":97.65},{"id":1836424,"name":"tiwablaw","country":"mm","lat":16.7666667,"lon":98.35},{"id":1832686,"name":"sinpyu aya","country":"mm","lat":16.5419444,"lon":97.6066667},{"id":1815493,"name":"kawkameik","country":"mm","lat":16.8194444,"lon":97.7158333},{"id":2702680,"name":"ban bra tha","country":"th","lat":17.302445,"lon":98.175722},{"id":1815515,"name":"kawkhwaing","country":"mm","lat":16.5333333,"lon":98.1},{"id":2748548,"name":"ban ya li kui","country":"th","lat":17.345472,"lon":98.353695},{"id":2721790,"name":"ban ma o cho","country":"th","lat":17.29125,"lon":98.39875},{"id":2717672,"name":"ban krae khi","country":"th","lat":17.48175,"lon":98.073361},{"id":1814280,"name":"kadonta","country":"mm","lat":16.6547222,"lon":97.7836111},{"id":1823498,"name":"mizaingchaungbya","country":"mm","lat":17.4666667,"lon":97.5666667},{"id":1835322,"name":"thankalaung","country":"mm","lat":16.5072222,"lon":97.7555556},{"id":1822644,"name":"mawgu","country":"mm","lat":16.6955556,"lon":97.8008333},{"id":1815715,"name":"kawpya","country":"mm","lat":16.9838889,"lon":97.9002778},{"id":2733984,"name":"ban pha lue khi","country":"th","lat":17.280695,"lon":98.240334},{"id":1825939,"name":"naunghtibaw","country":"mm","lat":17.05,"lon":97.8666667},{"id":1829368,"name":"pazungon","country":"mm","lat":16.5166667,"lon":98.2333333},{"id":1823573,"name":"mokkare","country":"mm","lat":16.8666667,"lon":97.8166667},{"id":2733523,"name":"ban pha bo le kho","country":"th","lat":17.325972,"lon":98.283084},{"id":1829290,"name":"payangokto","country":"mm","lat":17.15,"lon":97.8666667},{"id":2712130,"name":"ban khane chue khi","country":"th","lat":17.392806,"lon":98.28275},{"id":1816132,"name":"khweshan","country":"mm","lat":16.7166667,"lon":98.3833333},{"id":2719684,"name":"ban loe do","country":"th","lat":17.393445,"lon":98.366167},{"id":1816385,"name":"kokadit","country":"mm","lat":16.8333333,"lon":97.6833333},{"id":1835009,"name":"thadikho","country":"mm","lat":17.1333333,"lon":97.7666667},{"id":1823260,"name":"mikayin","country":"mm","lat":16.9933333,"lon":97.5936111},{"id":1810922,"name":"eindu","country":"mm","lat":16.7694444,"lon":97.7522222},{"id":1818567,"name":"kyonpago","country":"mm","lat":17.1,"lon":97.6833333},{"id":1813386,"name":"htikane","country":"mm","lat":17.4666667,"lon":97.8166667},{"id":1817400,"name":"kyaikkazin","country":"mm","lat":16.5,"lon":98.0833333},{"id":1816344,"name":"kobashu","country":"mm","lat":16.73,"lon":97.7180556},{"id":2720359,"name":"ban mae khun tuen noi","country":"th","lat":17.315195,"lon":98.332889},{"id":1815992,"name":"kha-neinhpaw","country":"mm","lat":16.75,"lon":98.0666667},{"id":1825978,"name":"naungli","country":"mm","lat":16.65,"lon":98.0666667},{"id":1831569,"name":"seikpugon","country":"mm","lat":16.9666667,"lon":97.95},{"id":1835615,"name":"thayettaw","country":"mm","lat":16.6,"lon":98.0166667},{"id":1835502,"name":"thayagon","country":"mm","lat":16.7386111,"lon":97.8847222},{"id":1818120,"name":"kyaw-kekhi","country":"mm","lat":17.05,"lon":98.0666667},{"id":1836466,"name":"tokkyi","country":"mm","lat":17.4166667,"lon":97.5833333},{"id":1828944,"name":"patpya","country":"mm","lat":17.0166667,"lon":97.9},{"id":1818541,"name":"kyonkanat","country":"mm","lat":17.0833333,"lon":97.5333333},{"id":1824614,"name":"nabu","country":"mm","lat":16.7333333,"lon":98.1166667},{"id":1818547,"name":"kyonkaw","country":"mm","lat":17.0,"lon":97.7166667},{"id":1819539,"name":"ledaing","country":"mm","lat":16.9052778,"lon":97.5836111},{"id":1835328,"name":"thanle","country":"mm","lat":16.6183333,"lon":97.8933333},{"id":2739698,"name":"ban san ton muang","country":"th","lat":17.383167,"lon":98.475695},{"id":2719830,"name":"ban luang","country":"th","lat":17.411139,"lon":98.46525},{"id":2734215,"name":"ban pha no khi","country":"th","lat":17.208361,"lon":98.3305},{"id":1822454,"name":"marteban","country":"mm","lat":16.5313889,"lon":97.6111111},{"id":1817194,"name":"kwanta","country":"mm","lat":16.9166667,"lon":97.9666667},{"id":2709684,"name":"ban huai sena","country":"th","lat":17.083333,"lon":98.433333},{"id":2720469,"name":"ban mae lamoeng","country":"th","lat":17.45,"lon":98.05},{"id":2740683,"name":"ban soe khe ru","country":"th","lat":17.464861,"lon":98.195195},{"id":1841079,"name":"yebugyi","country":"mm","lat":16.55,"lon":98.1166667},{"id":1831860,"name":"shantaung","country":"mm","lat":17.4833333,"lon":97.6833333},{"id":2719576,"name":"ban le khoe","country":"th","lat":17.134056,"lon":98.335778},{"id":1836208,"name":"tibikhi","country":"mm","lat":16.9,"lon":98.2666667},{"id":1840601,"name":"winkawmaw","country":"mm","lat":17.0166667,"lon":97.9333333},{"id":2733983,"name":"ban pha lue di","country":"th","lat":17.299361,"lon":98.258028},{"id":1810414,"name":"dare","country":"mm","lat":16.5,"lon":97.5},{"id":1841094,"name":"yebyagon","country":"mm","lat":16.55,"lon":97.5833333},{"id":1835058,"name":"thaiktaw","country":"mm","lat":17.0333333,"lon":97.6},{"id":1835185,"name":"thamola","country":"mm","lat":17.1166667,"lon":98.0333333},{"id":1823980,"name":"mukani","country":"mm","lat":16.6344444,"lon":97.7658333},{"id":2720754,"name":"ban mae phlu","country":"th","lat":17.366389,"lon":98.121805},{"id":2744890,"name":"ban thi ba tha","country":"th","lat":17.401639,"lon":98.149278},{"id":1835189,"name":"thamo","country":"mm","lat":17.1333333,"lon":98.0166667},{"id":1836485,"name":"tonbogon","country":"mm","lat":16.86,"lon":97.6022222},{"id":1814013,"name":"inshe","country":"mm","lat":16.75,"lon":98.1166667},{"id":1813466,"name":"htiper","country":"mm","lat":17.2166667,"lon":97.9666667},{"id":2734663,"name":"ban pho bue la pu","country":"th","lat":17.304306,"lon":98.162584},{"id":1815696,"name":"kawnwe","country":"mm","lat":16.55,"lon":98.2666667},{"id":2742734,"name":"ban ta phe cho","country":"th","lat":17.297389,"lon":98.302084},{"id":1815712,"name":"kawpaw","country":"mm","lat":16.6166667,"lon":98.0333333},{"id":2720065,"name":"ban lutha","country":"th","lat":17.45,"lon":98.15},{"id":2718997,"name":"ban lam rong","country":"th","lat":17.227084,"lon":98.231417},{"id":1819778,"name":"lerger","country":"mm","lat":17.0833333,"lon":97.9833333},{"id":1813494,"name":"htitabluhta","country":"mm","lat":17.35,"lon":97.9},{"id":2704237,"name":"ban chiang kaeo","country":"th","lat":17.411,"lon":98.1265},{"id":1840862,"name":"yankok","country":"mm","lat":16.6,"lon":98.2333333},{"id":1818329,"name":"kyettuywethaung","country":"mm","lat":16.8236111,"lon":97.5002778},{"id":1816026,"name":"kha-wepan","country":"mm","lat":16.7666667,"lon":98.0666667},{"id":1827150,"name":"nunawa","country":"mm","lat":17.1,"lon":97.5166667},{"id":1827234,"name":"nyapatekhi","country":"mm","lat":17.1666667,"lon":97.9666667},{"id":1823089,"name":"metha","country":"mm","lat":17.05,"lon":98.0333333},{"id":1818883,"name":"kywepalaung","country":"mm","lat":16.9166667,"lon":97.55},{"id":1815503,"name":"kawkathaung","country":"mm","lat":16.6166667,"lon":98.0666667},{"id":1812706,"name":"hpa-on","country":"mm","lat":16.63,"lon":97.64},{"id":1825800,"name":"natkyun","country":"mm","lat":16.6775,"lon":97.7197222},{"id":1826024,"name":"naungtapan","country":"mm","lat":16.6833333,"lon":98.1333333},{"id":1808750,"name":"anphagale","country":"mm","lat":16.5166667,"lon":98.25},{"id":1815477,"name":"kawhlansu","country":"mm","lat":17.05,"lon":97.6666667},{"id":1813394,"name":"htikyaw","country":"mm","lat":17.2666667,"lon":97.55},{"id":1836276,"name":"tilon","country":"mm","lat":16.9977778,"lon":97.7586111},{"id":1825944,"name":"naung-ikhet","country":"mm","lat":16.65,"lon":98.15},{"id":1818721,"name":"kyungyi","country":"mm","lat":16.8302778,"lon":97.9005556},{"id":1815734,"name":"kawtakwan","country":"mm","lat":16.6772222,"lon":97.8747222},{"id":2719575,"name":"ban le kho","country":"th","lat":17.230584,"lon":98.347056},{"id":1816044,"name":"khayon","country":"mm","lat":16.5413889,"lon":97.6944444},{"id":1825929,"name":"naunghin","country":"mm","lat":16.7166667,"lon":98.0833333},{"id":1815510,"name":"kawkhaik","country":"mm","lat":16.5391667,"lon":97.9944444},{"id":2734661,"name":"ban pho bo le kho","country":"th","lat":17.363972,"lon":98.236889},{"id":1824127,"name":"myapadaing","country":"mm","lat":16.6666667,"lon":98.15},{"id":2744918,"name":"ban thi mo kro tha","country":"th","lat":17.400056,"lon":98.103778},{"id":1815747,"name":"kawthein","country":"mm","lat":16.5430556,"lon":97.7641667},{"id":1811535,"name":"haungtharaw","country":"mm","lat":16.5,"lon":98.2166667},{"id":1815703,"name":"kawpamagon","country":"mm","lat":16.6022222,"lon":97.5727778},{"id":1829395,"name":"pebinzeik","country":"mm","lat":17.2666667,"lon":97.6333333},{"id":1827169,"name":"nwagyangon","country":"mm","lat":16.5833333,"lon":98.0666667},{"id":2733840,"name":"ban pha ka se","country":"th","lat":17.30875,"lon":98.437584},{"id":1822720,"name":"mawpokla","country":"mm","lat":17.2833333,"lon":97.8166667},{"id":1837106,"name":"wagoktaw","country":"mm","lat":17.2,"lon":97.7},{"id":1814498,"name":"kalaungkyaw","country":"mm","lat":17.1666667,"lon":97.9333333},{"id":1835039,"name":"thagya","country":"mm","lat":16.7166667,"lon":98.2},{"id":1813940,"name":"ingyingon","country":"mm","lat":16.7808333,"lon":97.5419444},{"id":1813539,"name":"htondaung","country":"mm","lat":17.0833333,"lon":97.6},{"id":2716125,"name":"ban khun huai mae la","country":"th","lat":17.193028,"lon":98.427278},{"id":1840363,"name":"webyan","country":"mm","lat":17.25,"lon":97.6333333},{"id":2709339,"name":"ban huai pang yang","country":"th","lat":17.226389,"lon":98.24725},{"id":1825995,"name":"naungmyalwe","country":"mm","lat":16.85,"lon":97.9833333},{"id":2722246,"name":"ban mo le tha","country":"th","lat":17.426528,"lon":98.209278},{"id":1814242,"name":"kadigan","country":"mm","lat":16.9275,"lon":97.8988889},{"id":1813472,"name":"htipokhi","country":"mm","lat":16.95,"lon":98.05},{"id":1829122,"name":"paung","country":"mm","lat":16.8833333,"lon":98.0666667},{"id":1818579,"name":"kyonsauk","country":"mm","lat":16.6305556,"lon":97.9397222},{"id":2733977,"name":"ban pha lo choe","country":"th","lat":17.150972,"lon":98.442695},{"id":2720311,"name":"ban mae khamu noi","country":"th","lat":17.207028,"lon":98.315195},{"id":1814266,"name":"kado","country":"mm","lat":16.5755556,"lon":97.6594444},{"id":2720867,"name":"ban mae salit khi","country":"th","lat":17.448139,"lon":98.107334},{"id":1823568,"name":"mokkado","country":"mm","lat":16.9911111,"lon":97.7122222},{"id":1815560,"name":"kawmyakyi","country":"mm","lat":16.9,"lon":97.9166667},{"id":1833677,"name":"tanbin","country":"mm","lat":16.6666667,"lon":97.55},{"id":2711073,"name":"ban ka lo de","country":"th","lat":17.302056,"lon":98.2885},{"id":1817947,"name":"kyauktalon","country":"mm","lat":17.0166667,"lon":97.5166667},{"id":1815552,"name":"kawmi","country":"mm","lat":16.5136111,"lon":97.8527778},{"id":1815739,"name":"kawthaik","country":"mm","lat":16.7666667,"lon":97.6666667},{"id":1823126,"name":"metkaw","country":"mm","lat":17.2,"lon":97.9166667},{"id":1811380,"name":"hahtaman","country":"mm","lat":17.2833333,"lon":97.5},{"id":2740258,"name":"ban si blae","country":"th","lat":17.44825,"lon":98.361861},{"id":2739567,"name":"ban san prong","country":"th","lat":17.398611,"lon":98.455111},{"id":1841225,"name":"ye-gyaw","country":"mm","lat":16.5166667,"lon":98.2166667},{"id":2738093,"name":"ban sai noi","country":"th","lat":17.425889,"lon":98.464917},{"id":1823038,"name":"mepale","country":"mm","lat":16.75,"lon":98.4},{"id":1824617,"name":"nabu tagundaing","country":"mm","lat":16.75,"lon":98.2},{"id":2748813,"name":"ban yang mae la noi","country":"th","lat":17.220028,"lon":98.395556},{"id":1822812,"name":"mayingon","country":"mm","lat":16.8908333,"lon":97.5388889},{"id":1815520,"name":"kawkyaik","country":"mm","lat":16.5333333,"lon":98.0166667},{"id":2719689,"name":"ban loek la","country":"th","lat":17.294611,"lon":98.371861},{"id":1814413,"name":"kakathaung","country":"mm","lat":16.8311111,"lon":97.7061111},{"id":2722232,"name":"ban mo ko pho khi","country":"th","lat":17.442195,"lon":98.290417},{"id":1825918,"name":"naungdaing","country":"mm","lat":16.6719444,"lon":97.7761111},{"id":1815502,"name":"kawkataw","country":"mm","lat":16.5622222,"lon":97.9738889},{"id":1831238,"name":"sanpannon","country":"mm","lat":16.9008333,"lon":97.7125},{"id":1825979,"name":"naunglon","country":"mm","lat":16.8005556,"lon":97.7427778},{"id":1809201,"name":"banbwe","country":"mm","lat":17.0833333,"lon":97.5833333},{"id":1809976,"name":"chaungma","country":"mm","lat":17.4833333,"lon":97.6333333},{"id":1814649,"name":"kamawle ale","country":"mm","lat":17.3833333,"lon":97.7166667},{"id":2746667,"name":"ban to pa khi","country":"th","lat":17.498,"lon":98.162139},{"id":2716666,"name":"ban klu chae tha","country":"th","lat":17.420972,"lon":98.117389},{"id":1840621,"name":"winsein","country":"mm","lat":16.7775,"lon":97.8591667},{"id":2719708,"name":"ban loe toe","country":"th","lat":17.195611,"lon":98.486639},{"id":1808704,"name":"ananbingon","country":"mm","lat":16.9,"lon":97.5},{"id":1841997,"name":"zaza","country":"mm","lat":16.9325,"lon":97.9888889},{"id":1834239,"name":"taunglon","country":"mm","lat":16.7833333,"lon":97.85},{"id":1810004,"name":"chaungnyinaung","country":"mm","lat":17.2833333,"lon":97.6166667},{"id":1822953,"name":"meketo","country":"mm","lat":17.4166667,"lon":97.9},{"id":1816373,"name":"kodri","country":"mm","lat":16.8788889,"lon":97.7319444},{"id":1833191,"name":"tada-u","country":"mm","lat":16.9111111,"lon":97.7713889},{"id":2744908,"name":"ban thi khu khi tai","country":"th","lat":17.469,"lon":98.14625},{"id":2720668,"name":"ban mae ok pha ru","country":"th","lat":17.102611,"lon":98.321667},{"id":1815724,"name":"kawseinban","country":"mm","lat":16.7486111,"lon":97.7366667},{"id":1826015,"name":"naungsauk","country":"mm","lat":16.7,"lon":98.1},{"id":1813360,"name":"htigale","country":"mm","lat":16.7,"lon":98.2},{"id":1831436,"name":"sawlawge","country":"mm","lat":16.9666667,"lon":98.2833333},{"id":1837172,"name":"wa-kyaw","country":"mm","lat":17.1833333,"lon":98.1666667},{"id":1821239,"name":"malagon","country":"mm","lat":16.5,"lon":98.1166667},{"id":2733989,"name":"ban pha ma-i","country":"th","lat":17.283333,"lon":98.233333},{"id":1816832,"name":"kotalauk","country":"mm","lat":16.75,"lon":97.6666667},{"id":1836259,"name":"tikotaw zayat","country":"mm","lat":16.85,"lon":98.4666667},{"id":1830057,"name":"pote","country":"mm","lat":16.8166667,"lon":98.3333333},{"id":2719691,"name":"ban loe ko khi","country":"th","lat":17.33525,"lon":98.244278},{"id":1823470,"name":"minzi","country":"mm","lat":17.0,"lon":97.6166667},{"id":1809105,"name":"ayu","country":"mm","lat":16.6666667,"lon":98.2166667},{"id":1819953,"name":"letpan","country":"mm","lat":16.5544444,"lon":97.7063889},{"id":1825866,"name":"natthagaung","country":"mm","lat":16.8833333,"lon":97.7333333},{"id":1823500,"name":"mizan","country":"mm","lat":16.9497222,"lon":97.6597222},{"id":1834006,"name":"ta-u-ke","country":"mm","lat":17.2166667,"lon":98.1666667},{"id":1815701,"name":"kawpalan","country":"mm","lat":16.7166667,"lon":98.15},{"id":1826020,"name":"naungtaing","country":"mm","lat":16.9813889,"lon":97.8666667},{"id":2716551,"name":"ban kloe kro lu","country":"th","lat":17.350056,"lon":98.26775},{"id":1810648,"name":"dawpya","country":"mm","lat":16.65,"lon":98.0},{"id":1812024,"name":"hlaga","country":"mm","lat":16.8833333,"lon":97.5833333},{"id":2733562,"name":"ban pha do ki","country":"th","lat":17.478389,"lon":98.141695},{"id":1841178,"name":"ye-e","country":"mm","lat":17.2833333,"lon":97.5166667},{"id":1825961,"name":"naungkhwi","country":"mm","lat":16.8,"lon":98.0833333},{"id":2725956,"name":"ban noe khi","country":"th","lat":17.086028,"lon":98.005778},{"id":1825647,"name":"nantha-ohn","country":"mm","lat":17.0833333,"lon":97.6333333},{"id":1833424,"name":"talaingkayin","country":"mm","lat":17.3,"lon":97.5},{"id":1823134,"name":"metsameik","country":"mm","lat":17.1666667,"lon":97.85},{"id":1834051,"name":"taungbaw","country":"mm","lat":17.0,"lon":97.9666667},{"id":1814994,"name":"kanmaya","country":"mm","lat":16.5833333,"lon":98.2},{"id":2741928,"name":"ban ta kho bi","country":"th","lat":17.301584,"lon":98.176584},{"id":2736617,"name":"ban pro phro","country":"th","lat":17.449139,"lon":98.397806},{"id":1815461,"name":"kaw-emi","country":"mm","lat":16.6833333,"lon":97.65},{"id":1814970,"name":"kankare","country":"mm","lat":16.8083333,"lon":97.93},{"id":1815741,"name":"kawthaluk","country":"mm","lat":16.7527778,"lon":97.6925},{"id":1816122,"name":"khunnataing","country":"mm","lat":16.5666667,"lon":98.1166667},{"id":1826856,"name":"ngayon","country":"mm","lat":16.5252778,"lon":97.9755556},{"id":2720676,"name":"ban maeo maethoei","country":"th","lat":17.392917,"lon":98.316445},{"id":1815524,"name":"kawlamu","country":"mm","lat":16.5219444,"lon":97.7997222},{"id":1814928,"name":"kangyi","country":"mm","lat":16.9511111,"lon":97.585},{"id":1828093,"name":"paingla","country":"mm","lat":17.4833333,"lon":97.7333333},{"id":1833200,"name":"tadokihta","country":"mm","lat":17.0166667,"lon":98.2666667},{"id":1832218,"name":"shwegyaw","country":"mm","lat":17.2666667,"lon":97.6666667},{"id":1833461,"name":"tale","country":"mm","lat":17.1666667,"lon":98.1833333},{"id":1832226,"name":"shwegyi","country":"mm","lat":17.3833333,"lon":97.5333333},{"id":1834563,"name":"tawokywa","country":"mm","lat":16.8666667,"lon":98.3666667},{"id":1808846,"name":"atet paingkyon","country":"mm","lat":17.0166667,"lon":98.0166667},{"id":1827073,"name":"nokawla","country":"mm","lat":17.25,"lon":97.5166667},{"id":1817414,"name":"kyaikpun","country":"mm","lat":16.5766667,"lon":97.5861111},{"id":2736380,"name":"ban po ya lu","country":"th","lat":17.262695,"lon":98.306056},{"id":1811321,"name":"gyochaung","country":"mm","lat":17.1166667,"lon":97.6666667},{"id":1816007,"name":"khare","country":"mm","lat":16.6294444,"lon":97.9933333},{"id":1813416,"name":"htimohtihta","country":"mm","lat":17.4666667,"lon":97.85},{"id":2709604,"name":"ban huai sai khao","country":"th","lat":17.376306,"lon":98.484528},{"id":1816447,"name":"ko-maung","country":"mm","lat":17.2166667,"lon":97.6333333},{"id":1818763,"name":"kyunywa","country":"mm","lat":16.8461111,"lon":97.8530556},{"id":1815500,"name":"kawka-rwin","country":"mm","lat":16.6666667,"lon":97.6666667},{"id":2722202,"name":"ban mo doe khi","country":"th","lat":17.472139,"lon":98.291695},{"id":1823567,"name":"mokkadi","country":"mm","lat":16.9333333,"lon":97.6166667},{"id":1816090,"name":"kho-wa","country":"mm","lat":16.6666667,"lon":98.1},{"id":1812523,"name":"hpabaung","country":"mm","lat":17.3333333,"lon":97.6},{"id":1809787,"name":"byetka","country":"mm","lat":16.8680556,"lon":97.8205556},{"id":1823113,"name":"methpale","country":"mm","lat":16.6666667,"lon":98.2},{"id":1823040,"name":"mepara-atet","country":"mm","lat":17.0333333,"lon":98.0666667},{"id":1814613,"name":"kamamaung","country":"mm","lat":17.35,"lon":97.6666667},{"id":1818582,"name":"kyonsein","country":"mm","lat":16.5425,"lon":97.6661111},{"id":2741929,"name":"ban ta kho chi","country":"th","lat":17.270945,"lon":98.322166},{"id":1826028,"name":"naungtodi","country":"mm","lat":16.8883333,"lon":97.8027778},{"id":2741463,"name":"ban sui pha nga de","country":"th","lat":17.306806,"lon":98.423111},{"id":2709086,"name":"ban huai maeng bung","country":"th","lat":17.262556,"lon":98.255667},{"id":1835677,"name":"thebyugon","country":"mm","lat":16.6138889,"lon":97.5727778},{"id":1841226,"name":"yegyaw","country":"mm","lat":16.7355556,"lon":97.5838889},{"id":1834327,"name":"taungthugon","country":"mm","lat":16.6333333,"lon":97.6666667},{"id":2748970,"name":"ban yang thoei","country":"th","lat":17.35,"lon":98.333333},{"id":1834456,"name":"tawgyigon","country":"mm","lat":16.8486111,"lon":97.5869444},{"id":2721097,"name":"ban mae tuen noi","country":"th","lat":17.364972,"lon":98.484861},{"id":1815526,"name":"kawlapla","country":"mm","lat":16.6166667,"lon":97.6833333},{"id":1834680,"name":"tebok","country":"mm","lat":16.85,"lon":98.1166667},{"id":2748961,"name":"ban yang tanu","country":"th","lat":17.183333,"lon":98.333333},{"id":2722220,"name":"ban mo khloe khi","country":"th","lat":17.425917,"lon":98.27575},{"id":1808642,"name":"ale-ywa","country":"mm","lat":16.8541667,"lon":97.8352778},{"id":2716133,"name":"ban khun huai mai ngam","country":"th","lat":17.238972,"lon":98.451167},{"id":1818121,"name":"kyaw-kekho","country":"mm","lat":17.2166667,"lon":97.95},{"id":1814655,"name":"kamawsaing","country":"mm","lat":17.2333333,"lon":97.5833333},{"id":2742774,"name":"ban ta prue yo","country":"th","lat":17.272111,"lon":98.313722},{"id":2744903,"name":"ban thi khi tha","country":"th","lat":17.159028,"lon":98.42},{"id":1819488,"name":"lazan","country":"mm","lat":16.8333333,"lon":97.75},{"id":1812045,"name":"hlaing-wa","country":"mm","lat":16.5333333,"lon":98.2166667},{"id":1833710,"name":"tanetharaw","country":"mm","lat":17.0333333,"lon":98.05},{"id":1815468,"name":"kawgu","country":"mm","lat":16.5105556,"lon":97.8708333},{"id":1840300,"name":"wawle","country":"mm","lat":16.8,"lon":98.15},{"id":1814328,"name":"kahta","country":"mm","lat":17.1166667,"lon":98.2},{"id":1815964,"name":"khaledi","country":"mm","lat":17.4,"lon":98.0333333},{"id":1826027,"name":"naungthange","country":"mm","lat":16.9627778,"lon":97.745},{"id":1815713,"name":"kawpe","country":"mm","lat":16.7913889,"lon":97.8861111},{"id":1814846,"name":"kangale","country":"mm","lat":16.9272222,"lon":97.6044444},{"id":1824106,"name":"myaing","country":"mm","lat":17.2,"lon":97.6333333},{"id":2720505,"name":"ban mae la yang","country":"th","lat":17.14,"lon":98.315111},{"id":1815775,"name":"kaya-apyin","country":"mm","lat":16.5933333,"lon":97.84},{"id":2737306,"name":"ban re ka ti","country":"th","lat":17.347834,"lon":98.203222},{"id":1836426,"name":"tiwakale","country":"mm","lat":16.95,"lon":98.3},{"id":1815704,"name":"kawpamut","country":"mm","lat":16.8380556,"lon":97.9597222},{"id":1837150,"name":"waingthit","country":"mm","lat":16.9930556,"lon":97.9697222},{"id":1815745,"name":"kawthat","country":"mm","lat":16.5208333,"lon":97.7558333},{"id":1836010,"name":"thitkaung","country":"mm","lat":16.75,"lon":97.5},{"id":2726292,"name":"ban noi dam","country":"th","lat":17.083333,"lon":98.333333},{"id":1828236,"name":"palin","country":"mm","lat":16.75,"lon":97.6},{"id":2735679,"name":"ban pi yo tha","country":"th","lat":17.321972,"lon":98.374334},{"id":1823202,"name":"mibon","country":"mm","lat":17.15,"lon":97.6333333},{"id":1822980,"name":"melan","country":"mm","lat":17.1166667,"lon":97.6166667},{"id":1833403,"name":"takreni","country":"mm","lat":17.2166667,"lon":97.9833333},{"id":1824077,"name":"mwehta","country":"mm","lat":17.25,"lon":97.95},{"id":1841383,"name":"yetagun","country":"mm","lat":16.7833333,"lon":97.6666667},{"id":1817262,"name":"kwingale","country":"mm","lat":16.6333333,"lon":98.3833333},{"id":2741711,"name":"ban ta fi doe","country":"th","lat":17.451361,"lon":98.207167},{"id":2735121,"name":"ban phrabat","country":"th","lat":17.329528,"lon":98.400417},{"id":2712109,"name":"ban khanaen chu","country":"th","lat":17.35,"lon":98.15},{"id":2720222,"name":"ban mae hin luang","country":"th","lat":17.231306,"lon":98.437167},{"id":2720732,"name":"ban mae pha daeng","country":"th","lat":17.478722,"lon":98.166917},{"id":1836148,"name":"thogya","country":"mm","lat":16.5666667,"lon":97.55},{"id":1817465,"name":"kyakatngu","country":"mm","lat":16.5833333,"lon":97.5333333},{"id":1825607,"name":"nanmyahlwe","country":"mm","lat":16.85,"lon":98.0},{"id":1815760,"name":"kawwale","country":"mm","lat":16.5666667,"lon":98.0666667},{"id":1815769,"name":"kawye","country":"mm","lat":17.0666667,"lon":97.8333333},{"id":1816281,"name":"kinywa","country":"mm","lat":16.7058333,"lon":97.5694444},{"id":2744958,"name":"ban thi suai khi","country":"th","lat":17.362417,"lon":98.2105},{"id":1817179,"name":"kwanbi","country":"mm","lat":17.1833333,"lon":97.8},{"id":1815555,"name":"kawmitok","country":"mm","lat":16.7294444,"lon":97.6391667},{"id":2748148,"name":"ban wa so tha","country":"th","lat":17.331417,"lon":98.387111},{"id":2719692,"name":"ban loe mae bo tha","country":"th","lat":17.409139,"lon":98.174111},{"id":1833769,"name":"tanigon","country":"mm","lat":16.7666667,"lon":97.5833333},{"id":2716135,"name":"ban khun huai nok kok","country":"th","lat":17.247445,"lon":98.35075},{"id":1815483,"name":"kawhtaye","country":"mm","lat":16.9833333,"lon":98.0166667},{"id":1825625,"name":"nansale","country":"mm","lat":16.75,"lon":98.1833333},{"id":1815708,"name":"kawparan","country":"mm","lat":16.6605556,"lon":97.8961111},{"id":2744936,"name":"ban thi no kho","country":"th","lat":17.306945,"lon":98.170056},{"id":2708140,"name":"ban hong","country":"th","lat":17.406806,"lon":98.464917},{"id":1832969,"name":"sukli","country":"mm","lat":16.6833333,"lon":98.3666667},{"id":1832323,"name":"shwetaw","country":"mm","lat":16.7,"lon":97.6666667},{"id":2721226,"name":"ban mai","country":"th","lat":17.402306,"lon":98.456583},{"id":1813476,"name":"htipozan","country":"mm","lat":16.6666667,"lon":98.1833333},{"id":2736547,"name":"ban pre lu","country":"th","lat":17.457472,"lon":98.271306},{"id":2755306,"name":"tha song yang","country":"th","lat":17.227084,"lon":98.225722},{"id":1815256,"name":"karit","country":"mm","lat":16.8438889,"lon":97.6438889},{"id":1829210,"name":"pawtaw","country":"mm","lat":16.9833333,"lon":97.6333333},{"id":1814650,"name":"kamawlechaung","country":"mm","lat":17.35,"lon":97.7333333},{"id":1826393,"name":"nawre","country":"mm","lat":16.7833333,"lon":98.0833333},{"id":1832745,"name":"sinywa","country":"mm","lat":16.6672222,"lon":97.5341667},{"id":1810499,"name":"da-weda","country":"mm","lat":16.7333333,"lon":98.15},{"id":1826029,"name":"naungtok","country":"mm","lat":16.8541667,"lon":97.7705556},{"id":2721549,"name":"ban mai thong","country":"th","lat":17.398445,"lon":98.334722},{"id":2737310,"name":"ban re wo kro","country":"th","lat":17.469278,"lon":98.144556},{"id":1818605,"name":"kyonwa","country":"mm","lat":16.7172222,"lon":97.5413889},{"id":2716121,"name":"ban khun huai kha ne chue","country":"th","lat":17.106611,"lon":98.483528},{"id":2731934,"name":"ban pa kha","country":"th","lat":17.387389,"lon":98.46975},{"id":1808619,"name":"ale mekane","country":"mm","lat":16.6666667,"lon":98.4166667},{"id":2722363,"name":"ban mo thi tha","country":"th","lat":17.394722,"lon":98.253528},{"id":1815551,"name":"kawmayan","country":"mm","lat":16.8147222,"lon":97.63},{"id":2709101,"name":"ban huai mai hok","country":"th","lat":17.427056,"lon":98.461084},{"id":1824138,"name":"myatle","country":"mm","lat":17.3166667,"lon":97.6666667},{"id":1815873,"name":"kedauk","country":"mm","lat":16.9166667,"lon":97.6166667},{"id":2742768,"name":"ban ta po pu","country":"th","lat":17.265084,"lon":98.331445},{"id":1816824,"name":"koshwe-e","country":"mm","lat":17.4833333,"lon":97.7833333},{"id":1818331,"name":"kyet-u-taung","country":"mm","lat":16.8166667,"lon":98.1666667},{"id":2746103,"name":"ban thung ton ngiu","country":"th","lat":17.256667,"lon":98.408861},{"id":2743399,"name":"ban tha kham klang","country":"th","lat":17.386584,"lon":98.466222},{"id":1815702,"name":"kawpalut","country":"mm","lat":16.6166667,"lon":98.0166667},{"id":1815488,"name":"kawka","country":"mm","lat":16.5333333,"lon":98.05},{"id":1815519,"name":"kawkya-hpa-kaw","country":"mm","lat":16.9333333,"lon":98.05},{"id":1815773,"name":"kawzugon","country":"mm","lat":16.8333333,"lon":98.05},{"id":1815476,"name":"kawhla","country":"mm","lat":16.5697222,"lon":97.6755556},{"id":2748654,"name":"ban yang di poei","country":"th","lat":17.266667,"lon":98.233333},{"id":1815707,"name":"kawparaing","country":"mm","lat":16.7666667,"lon":98.0166667},{"id":1840901,"name":"yathebyan","country":"mm","lat":16.8333333,"lon":97.5833333},{"id":1841476,"name":"yinbaing","country":"mm","lat":17.4166667,"lon":97.7666667},{"id":1833383,"name":"takhrikho","country":"mm","lat":17.4166667,"lon":97.6833333},{"id":1813315,"name":"htawywe","country":"mm","lat":17.2666667,"lon":97.6833333},{"id":1818575,"name":"kyonpaye","country":"mm","lat":16.81,"lon":97.5458333},{"id":2716137,"name":"ban khun huai pong","country":"th","lat":17.233334,"lon":98.46675},{"id":2744979,"name":"ban tho bue ra khi","country":"th","lat":17.448167,"lon":98.160945},{"id":1810581,"name":"dawlan","country":"mm","lat":16.7333333,"lon":98.0166667},{"id":1811526,"name":"hattaleik","country":"mm","lat":17.25,"lon":97.5},{"id":1822854,"name":"mebaung","country":"mm","lat":16.8816667,"lon":97.6652778},{"id":1818682,"name":"kyundaw","country":"mm","lat":17.25,"lon":97.6833333},{"id":1810201,"name":"chinmido","country":"mm","lat":16.8952778,"lon":97.6861111},{"id":2744941,"name":"ban thi pa noi tha","country":"th","lat":17.223,"lon":98.478917},{"id":1808751,"name":"anphagyi","country":"mm","lat":16.5,"lon":98.2666667},{"id":1816461,"name":"konanya","country":"mm","lat":16.7955556,"lon":97.6769444},{"id":2722224,"name":"ban mo klo","country":"th","lat":17.482945,"lon":98.203778},{"id":1813449,"name":"htinyakya","country":"mm","lat":17.3,"lon":97.6166667},{"id":2720428,"name":"ban mae la","country":"th","lat":17.126639,"lon":98.300222},{"id":1827093,"name":"nopobi","country":"mm","lat":16.7666667,"lon":98.1833333},{"id":1810628,"name":"dawparein","country":"mm","lat":16.8166667,"lon":97.6},{"id":1837024,"name":"wabodaw","country":"mm","lat":16.9666667,"lon":97.5166667},{"id":1815435,"name":"kawbahtaw","country":"mm","lat":16.6833333,"lon":97.7833333},{"id":2722234,"name":"ban mo kro","country":"th","lat":17.27625,"lon":98.401111},{"id":1829246,"name":"payagon","country":"mm","lat":16.8022222,"lon":97.5908333},{"id":1828068,"name":"paigkyon","country":"mm","lat":17.0333333,"lon":97.9833333},{"id":1818849,"name":"kywegyangyi","country":"mm","lat":16.5605556,"lon":97.5972222},{"id":1814079,"name":"i-rein","country":"mm","lat":16.6913889,"lon":97.8247222},{"id":1818500,"name":"kyonbaing","country":"mm","lat":16.6333333,"lon":98.0833333},{"id":1818581,"name":"kyonsein","country":"mm","lat":16.8,"lon":98.05},{"id":2740558,"name":"ban si su","country":"th","lat":17.4025,"lon":98.306445},{"id":1813493,"name":"htiswan","country":"mm","lat":16.75,"lon":98.1333333},{"id":1822969,"name":"mela-a","country":"mm","lat":17.2666667,"lon":98.1333333},{"id":1822982,"name":"melaung","country":"mm","lat":17.1,"lon":97.8666667},{"id":2708507,"name":"ban huai din mo","country":"th","lat":17.388389,"lon":98.454306},{"id":2748464,"name":"ban ya brae tha","country":"th","lat":17.469972,"lon":98.180611},{"id":2717071,"name":"ban ko la heng","country":"th","lat":17.491834,"lon":98.006861},{"id":2709080,"name":"ban huai mae la","country":"th","lat":17.187528,"lon":98.363861},{"id":2709017,"name":"ban huai lo khuk","country":"th","lat":17.35,"lon":98.433333},{"id":1817411,"name":"kyaikpaung","country":"mm","lat":16.75,"lon":98.05},{"id":1823074,"name":"meseik ashe","country":"mm","lat":17.45,"lon":97.7666667},{"id":1815730,"name":"kawtagya","country":"mm","lat":16.6588889,"lon":97.835},{"id":2716736,"name":"ban ko bo tha","country":"th","lat":17.468611,"lon":98.167917},{"id":1823484,"name":"mitharaung","country":"mm","lat":16.8302778,"lon":97.8488889},{"id":1808834,"name":"atet kwingale","country":"mm","lat":16.6,"lon":98.4},{"id":1825910,"name":"naungbo","country":"mm","lat":16.7194444,"lon":97.9005556},{"id":1823622,"name":"monaing","country":"mm","lat":17.0333333,"lon":98.0166667},{"id":1840395,"name":"wekarein","country":"mm","lat":16.7166667,"lon":97.9166667},{"id":2741988,"name":"ban ta ko khi","country":"th","lat":17.345945,"lon":98.272806},{"id":1827094,"name":"nori","country":"mm","lat":17.1833333,"lon":98.0166667},{"id":2716129,"name":"ban khun huai mae tan","country":"th","lat":17.27175,"lon":98.236084},{"id":1823457,"name":"min-ywa","country":"mm","lat":16.5297222,"lon":97.875},{"id":1823499,"name":"mizaingchaungwa","country":"mm","lat":17.3166667,"lon":97.6333333},{"id":2746063,"name":"ban thung tham","country":"th","lat":17.270445,"lon":98.204639},{"id":1813556,"name":"htothukhi","country":"mm","lat":16.8666667,"lon":98.2833333},{"id":1834329,"name":"taungthu","country":"mm","lat":17.1166667,"lon":97.5},{"id":1812814,"name":"hpehtaw","country":"mm","lat":16.5833333,"lon":97.6844444},{"id":1809117,"name":"babugon","country":"mm","lat":16.5169444,"lon":97.6777778},{"id":1825924,"name":"naunggon","country":"mm","lat":16.6833333,"lon":97.8666667},{"id":1841920,"name":"zathabyin","country":"mm","lat":16.5672222,"lon":97.7422222},{"id":2720934,"name":"ban mae song noi","country":"th","lat":17.389334,"lon":98.149639},{"id":1814653,"name":"kamawnyaw","country":"mm","lat":16.9083333,"lon":97.6675},{"id":1812292,"name":"hnitcha","country":"mm","lat":16.795,"lon":97.5936111},{"id":1812213,"name":"hnaingkharaung","country":"mm","lat":16.6333333,"lon":98.1},{"id":1825990,"name":"naungmi","country":"mm","lat":16.6666667,"lon":98.1666667},{"id":2744643,"name":"ban that","country":"th","lat":17.179278,"lon":98.444861},{"id":1826030,"name":"naungtra","country":"mm","lat":16.9002778,"lon":97.7922222},{"id":1824024,"name":"munthwi","country":"mm","lat":16.7166667,"lon":97.6333333},{"id":1808841,"name":"atet mekane","country":"mm","lat":16.65,"lon":98.4166667},{"id":1835709,"name":"the-ein","country":"mm","lat":16.7494444,"lon":97.5111111},{"id":1826018,"name":"naungshwe","country":"mm","lat":16.7586111,"lon":97.8708333},{"id":2744896,"name":"ban thi chue lo khi","country":"th","lat":17.229972,"lon":98.377528},{"id":1809484,"name":"bisakhat","country":"mm","lat":16.85,"lon":98.0833333},{"id":1815531,"name":"kawliche","country":"mm","lat":16.7997222,"lon":97.6205556},{"id":1826022,"name":"naungtalon","country":"mm","lat":16.7333333,"lon":97.6166667},{"id":1815556,"name":"kawmunkwa","country":"mm","lat":16.7408333,"lon":97.6547222},{"id":1810740,"name":"deikcha","country":"mm","lat":17.3833333,"lon":97.9333333},{"id":1840611,"name":"winpar","country":"mm","lat":16.9716667,"lon":97.9205556},{"id":2721126,"name":"ban mae u su","country":"th","lat":17.302917,"lon":98.179222},{"id":1827083,"name":"nongpatok","country":"mm","lat":16.6708333,"lon":97.9786111},{"id":1823127,"name":"metke","country":"mm","lat":17.3,"lon":98.1},{"id":1815251,"name":"karetaw","country":"mm","lat":16.9830556,"lon":97.9280556},{"id":2733040,"name":"ban pa noi pu","country":"th","lat":17.326139,"lon":98.18775},{"id":1815549,"name":"kawmatke","country":"mm","lat":16.7666667,"lon":97.7333333},{"id":1833213,"name":"tagaungbo","country":"mm","lat":17.1333333,"lon":97.65},{"id":1832597,"name":"singyon","country":"mm","lat":16.7844444,"lon":97.5594444},{"id":1818008,"name":"kyaukyedwin","country":"mm","lat":16.5372222,"lon":97.9536111},{"id":1816812,"name":"kopok","country":"mm","lat":16.6911111,"lon":97.7327778},{"id":2712129,"name":"ban kha ne chue","country":"th","lat":17.042306,"lon":98.491917},{"id":1830664,"name":"rawhta","country":"mm","lat":17.15,"lon":97.9666667},{"id":1823091,"name":"methamu","country":"mm","lat":17.2833333,"lon":97.8666667},{"id":2720933,"name":"ban mae song","country":"th","lat":17.396222,"lon":98.093778},{"id":1810876,"name":"durein","country":"mm","lat":16.6666667,"lon":97.9666667},{"id":1817270,"name":"kwingyigon","country":"mm","lat":16.5058333,"lon":97.6866667},{"id":1833694,"name":"tandaw","country":"mm","lat":16.9125,"lon":97.6527778},{"id":1815467,"name":"kawgo","country":"mm","lat":16.6005556,"lon":97.9266667},{"id":1815242,"name":"kare","country":"mm","lat":16.5769444,"lon":97.965},{"id":2747111,"name":"ban wa me tha","country":"th","lat":17.272722,"lon":98.377361},{"id":1815765,"name":"kawyahkaing","country":"mm","lat":16.6647222,"lon":97.6133333},{"id":2747059,"name":"ban wa bloe lu","country":"th","lat":17.470528,"lon":98.209889},{"id":1836118,"name":"thittogon","country":"mm","lat":16.7666667,"lon":97.5666667},{"id":1841398,"name":"yetha","country":"mm","lat":16.8333333,"lon":97.6333333},{"id":1840778,"name":"yakhi-kan","country":"mm","lat":16.9666667,"lon":98.0166667},{"id":1833816,"name":"ta-nyingon","country":"mm","lat":16.9,"lon":98.0166667},{"id":1812628,"name":"hpakye","country":"mm","lat":17.05,"lon":97.5666667},{"id":1814600,"name":"kama","country":"mm","lat":16.8669444,"lon":97.5213889},{"id":1827851,"name":"pa-an","country":"mm","lat":16.8905556,"lon":97.6333333},{"id":1815482,"name":"kawhtawke","country":"mm","lat":16.5333333,"lon":98.0333333},{"id":1819812,"name":"letkana","country":"mm","lat":16.8166667,"lon":97.7166667},{"id":2748537,"name":"ban ya ka toe kho","country":"th","lat":17.434806,"lon":98.178556},{"id":2716141,"name":"ban khun huai wok","country":"th","lat":17.45,"lon":98.233333},{"id":1812035,"name":"hlaingkaba","country":"mm","lat":16.7736111,"lon":97.6591667},{"id":1817250,"name":"kwile","country":"mm","lat":17.3,"lon":97.8333333},{"id":1812581,"name":"hpakekwi","country":"mm","lat":17.2,"lon":98.0166667},{"id":2716147,"name":"ban khun khanaeng khi thoe","country":"th","lat":17.135722,"lon":98.484195},{"id":1810788,"name":"dithakhe","country":"mm","lat":16.9833333,"lon":98.2833333},{"id":1823242,"name":"migyaung","country":"mm","lat":17.0833333,"lon":98.05},{"id":1828249,"name":"palonyathe","country":"mm","lat":17.2333333,"lon":97.9333333},{"id":2722231,"name":"ban mo ko khi","country":"th","lat":17.422889,"lon":98.257139},{"id":1814592,"name":"kama-in-gon","country":"mm","lat":16.5333333,"lon":98.25},{"id":1817251,"name":"kwilwe","country":"mm","lat":17.2166667,"lon":98.0166667},{"id":2716279,"name":"ban khu tha","country":"th","lat":17.454084,"lon":98.188166},{"id":2720461,"name":"ban mae la khi","country":"th","lat":17.172834,"lon":98.457528},{"id":2708176,"name":"ban hong ku khao","country":"th","lat":17.391972,"lon":98.459611},{"id":1817248,"name":"kwilawplaw","country":"mm","lat":17.4333333,"lon":97.9666667},{"id":1817172,"name":"kuzeik","country":"mm","lat":16.8791667,"lon":97.6011111},{"id":1833853,"name":"tapaung","country":"mm","lat":16.9622222,"lon":97.8952778},{"id":2744907,"name":"ban thi khu khi nuea","country":"th","lat":17.474695,"lon":98.143695},{"id":1817455,"name":"kya-in ywagale","country":"mm","lat":16.9961111,"lon":97.5655556},{"id":1815501,"name":"kawkaswe","country":"mm","lat":16.8438889,"lon":97.9713889},{"id":1814494,"name":"kalauktaung","country":"mm","lat":16.85,"lon":97.7333333},{"id":2717980,"name":"ban kuea ko","country":"th","lat":17.318695,"lon":98.352361},{"id":1815705,"name":"kawpanaw","country":"mm","lat":16.6425,"lon":97.8680556},{"id":1810466,"name":"daungkala","country":"mm","lat":16.8647222,"lon":97.7275},{"id":1833560,"name":"tamawsein","country":"mm","lat":16.8672222,"lon":97.7761111},{"id":2717808,"name":"ban kro chi kro","country":"th","lat":17.364584,"lon":98.292917},{"id":1813418,"name":"htimu","country":"mm","lat":17.0666667,"lon":97.5166667},{"id":1813922,"name":"ingyi","country":"mm","lat":16.5833333,"lon":98.0833333},{"id":1815557,"name":"kawmuntha","country":"mm","lat":16.7163889,"lon":97.6941667},{"id":1829526,"name":"pekata","country":"mm","lat":16.6125,"lon":97.6605556},{"id":1832279,"name":"shwelu","country":"mm","lat":17.0833333,"lon":97.55},{"id":1826505,"name":"netpali","country":"mm","lat":17.0333333,"lon":97.9666667},{"id":1826484,"name":"nehpokhi","country":"mm","lat":17.2,"lon":98.15},{"id":1825956,"name":"naungkayaing","country":"mm","lat":16.8166667,"lon":97.6333333},{"id":2746950,"name":"ban u hu","country":"th","lat":17.204445,"lon":98.281},{"id":1827091,"name":"nopadaw","country":"mm","lat":17.0333333,"lon":97.5166667},{"id":2709304,"name":"ban huai nok kok","country":"th","lat":17.187445,"lon":98.328028},{"id":1834109,"name":"taungcheyin","country":"mm","lat":17.4,"lon":97.5833333},{"id":1815845,"name":"kazaing","country":"mm","lat":16.8611111,"lon":97.9225},{"id":1841875,"name":"zakawlon","country":"mm","lat":17.4666667,"lon":97.6833333},{"id":1831999,"name":"shewegun","country":"mm","lat":17.15,"lon":97.65},{"id":2712107,"name":"ban kha nae kho kro","country":"th","lat":17.398195,"lon":98.205917},{"id":1822657,"name":"mawhpoklo","country":"mm","lat":17.4,"lon":98.0666667},{"id":1815450,"name":"kawdo","country":"mm","lat":16.5561111,"lon":97.8763889},{"id":1815224,"name":"kappali","country":"mm","lat":17.1666667,"lon":97.7},{"id":2748800,"name":"ban yang mae hae","country":"th","lat":17.45,"lon":98.333333},{"id":2722177,"name":"ban mi yo cho","country":"th","lat":17.448306,"lon":98.261334},{"id":1828201,"name":"palawkitko","country":"mm","lat":17.1666667,"lon":97.9},{"id":2712131,"name":"ban kha ne chue tha","country":"th","lat":17.370556,"lon":98.262945},{"id":1831237,"name":"sanpannagon","country":"mm","lat":16.6666667,"lon":97.5833333},{"id":1819088,"name":"lakaman","country":"mm","lat":16.7666667,"lon":98.0},{"id":1824331,"name":"myenu-kyuu","country":"mm","lat":16.975,"lon":97.6341667},{"id":2720965,"name":"ban mae tae lae kui","country":"th","lat":17.335917,"lon":98.344889},{"id":1824102,"name":"myainggale","country":"mm","lat":16.8666667,"lon":97.6},{"id":2743125,"name":"ban thaep boe khi","country":"th","lat":17.406806,"lon":98.17025},{"id":1818545,"name":"kyonkauk","country":"mm","lat":16.6219444,"lon":97.9469444},{"id":1826397,"name":"nawtara","country":"mm","lat":17.1666667,"lon":97.6166667},{"id":1827644,"name":"okkan","country":"mm","lat":16.5516667,"lon":97.5225},{"id":1815743,"name":"kawthanka","country":"mm","lat":16.7063889,"lon":97.6366667},{"id":1828996,"name":"pauklauk","country":"mm","lat":16.9166667,"lon":98.0},{"id":1816874,"name":"kronkarok","country":"mm","lat":16.6305556,"lon":97.7211111},{"id":1827833,"name":"ontabin","country":"mm","lat":16.6508333,"lon":97.5425},{"id":1813290,"name":"htathein","country":"mm","lat":17.2333333,"lon":97.8},{"id":1827292,"name":"nyaungbin","country":"mm","lat":17.1,"lon":97.7},{"id":2747022,"name":"ban usu pho khi","country":"th","lat":17.371417,"lon":98.190278},{"id":1818534,"name":"kyonhpe","country":"mm","lat":16.5963889,"lon":97.7705556},{"id":1814833,"name":"kaneindut","country":"mm","lat":16.7536111,"lon":97.8052778},{"id":1815717,"name":"kawra","country":"mm","lat":16.6133333,"lon":97.7186111},{"id":1833545,"name":"taman","country":"mm","lat":16.8,"lon":97.7166667},{"id":2709494,"name":"ban huai pu kaeng nai","country":"th","lat":17.222028,"lon":98.303472},{"id":1816087,"name":"khothawkhi","country":"mm","lat":17.2666667,"lon":97.95},{"id":1819115,"name":"lakuhta","country":"mm","lat":16.725,"lon":97.8005556},{"id":1815770,"name":"kawyin","country":"mm","lat":16.9125,"lon":97.5380556},{"id":1817187,"name":"kwanhpo","country":"mm","lat":16.6886111,"lon":97.9755556},{"id":1828937,"name":"patoklo zayat","country":"mm","lat":17.1166667,"lon":98.1166667},{"id":2744844,"name":"ban the nue de","country":"th","lat":17.169472,"lon":98.4095},{"id":2737807,"name":"ban sa doe ka tha","country":"th","lat":17.445556,"lon":98.221028},{"id":1808763,"name":"anyawcon","country":"mm","lat":16.8836111,"lon":97.5302778},{"id":1828867,"name":"papun","country":"mm","lat":17.1,"lon":97.85},{"id":1813475,"name":"htipota","country":"mm","lat":16.8166667,"lon":98.15},{"id":1818539,"name":"kyonkadun","country":"mm","lat":16.8836111,"lon":97.9508333},{"id":1822960,"name":"mekre","country":"mm","lat":17.4666667,"lon":97.9666667},{"id":1815469,"name":"kawgun","country":"mm","lat":16.8166667,"lon":97.5833333},{"id":1815444,"name":"kawcha-in","country":"mm","lat":16.6875,"lon":97.7794444},{"id":1834220,"name":"taungkhaya","country":"mm","lat":16.9333333,"lon":98.0166667},{"id":2748686,"name":"ban yang huai khanun","country":"th","lat":17.498338,"lon":98.372736},{"id":2716124,"name":"ban khun huai mae khamo","country":"th","lat":17.29025,"lon":98.302389},{"id":2742714,"name":"ban ta pa ru","country":"th","lat":17.238917,"lon":98.425139},{"id":1836828,"name":"udaung","country":"mm","lat":17.0666667,"lon":97.6166667},{"id":1823216,"name":"migalon","country":"mm","lat":16.5166667,"lon":98.0666667},{"id":1840256,"name":"wasu","country":"mm","lat":16.7833333,"lon":97.6333333},{"id":1812938,"name":"hpyathlaing","country":"mm","lat":16.7336111,"lon":97.7116667},{"id":1826737,"name":"ngapyawdaw","country":"mm","lat":16.85,"lon":97.55},{"id":1815436,"name":"kawbein","country":"mm","lat":16.5444444,"lon":97.8572222},{"id":1815485,"name":"kawkada","country":"mm","lat":16.7236111,"lon":97.8205556},{"id":1834138,"name":"taunggale-auk","country":"mm","lat":16.81,"lon":97.5880556},{"id":1815398,"name":"kaungmu","country":"mm","lat":16.6166667,"lon":98.2666667},{"id":1817869,"name":"kyauksarit","country":"mm","lat":16.6347222,"lon":97.5619444},{"id":1836026,"name":"thitmawku","country":"mm","lat":17.1333333,"lon":98.2},{"id":1814648,"name":"kamawkchu","country":"mm","lat":17.1333333,"lon":97.85},{"id":1825730,"name":"naseingon","country":"mm","lat":16.5666667,"lon":97.5666667},{"id":2704919,"name":"ban dae pha tho tha","country":"th","lat":17.263972,"lon":98.238361},{"id":1815498,"name":"kawkareit","country":"mm","lat":16.55,"lon":98.2333333},{"id":2720756,"name":"ban mae pho","country":"th","lat":17.244722,"lon":98.270195},{"id":2716130,"name":"ban khun huai mae tan noi","country":"th","lat":17.323417,"lon":98.257445},{"id":2733568,"name":"ban phae","country":"th","lat":17.417278,"lon":98.465583},{"id":1833717,"name":"ta-ngaw","country":"mm","lat":17.1,"lon":97.95},{"id":1814519,"name":"kala-ywa","country":"mm","lat":16.8166667,"lon":98.05},{"id":1835953,"name":"thingannyinaung","country":"mm","lat":16.6833333,"lon":98.4},{"id":1833895,"name":"tarana","country":"mm","lat":16.5191667,"lon":97.7727778},{"id":1817654,"name":"kyaukhpya","country":"mm","lat":16.5166667,"lon":98.05},{"id":1825948,"name":"naungkaing","country":"mm","lat":16.6833333,"lon":98.2},{"id":1813748,"name":"i-he","country":"mm","lat":17.15,"lon":97.5166667},{"id":2702213,"name":"ban bla pho","country":"th","lat":17.214722,"lon":98.442444},{"id":2719690,"name":"ban loe kloe","country":"th","lat":17.314,"lon":98.184667},{"id":1829366,"name":"pazunchaung","country":"mm","lat":17.4,"lon":97.6833333},{"id":1819896,"name":"letpandan","country":"mm","lat":17.1833333,"lon":97.65},{"id":1827069,"name":"nohkade","country":"mm","lat":17.2833333,"lon":97.5333333},{"id":2747061,"name":"ban wa bop khi","country":"th","lat":17.399361,"lon":98.271972},{"id":1812046,"name":"hlaingwa","country":"mm","lat":16.8508333,"lon":97.6972222},{"id":1826067,"name":"nawkaw","country":"mm","lat":17.2166667,"lon":97.7},{"id":2720868,"name":"ban mae salit luang","country":"th","lat":17.43625,"lon":98.063528},{"id":1840279,"name":"wathokho","country":"mm","lat":17.4666667,"lon":97.5833333},{"id":1815755,"name":"kawthun","country":"mm","lat":16.7697222,"lon":97.9047222},{"id":1836219,"name":"tichara","country":"mm","lat":16.7666667,"lon":98.4166667},{"id":1813745,"name":"i-byit","country":"mm","lat":16.6766667,"lon":97.5547222},{"id":1829668,"name":"phalantaung","country":"mm","lat":17.2333333,"lon":97.55},{"id":2748994,"name":"ban yang usu","country":"th","lat":17.35,"lon":98.233333},{"id":1809381,"name":"bawthabyu","country":"mm","lat":17.1833333,"lon":97.6166667},{"id":2748687,"name":"ban yang huai la","country":"th","lat":17.423222,"lon":98.456334},{"id":1834409,"name":"tawbon","country":"mm","lat":16.8036111,"lon":97.6630556},{"id":1833380,"name":"takhe-in","country":"mm","lat":16.7108333,"lon":97.7544444},{"id":1815699,"name":"kawpado","country":"mm","lat":16.9266667,"lon":97.9411111},{"id":1831935,"name":"shaukkon","country":"mm","lat":17.0666667,"lon":97.5},{"id":1815529,"name":"kawlayan","country":"mm","lat":16.5538889,"lon":97.9941667},{"id":1840725,"name":"wutgyi","country":"mm","lat":17.0666667,"lon":97.6},{"id":1815544,"name":"kawlunsein","country":"mm","lat":16.6897222,"lon":97.6483333},{"id":2742852,"name":"ban ta to kro","country":"th","lat":17.211195,"lon":98.366306},{"id":1814642,"name":"kamawdaw","country":"mm","lat":17.0166667,"lon":97.6333333},{"id":2720342,"name":"ban mae kho kro","country":"th","lat":17.495334,"lon":98.038917},{"id":1815720,"name":"kawsanmein","country":"mm","lat":16.9119444,"lon":97.9444444},{"id":1814437,"name":"kalagon","country":"mm","lat":16.5786111,"lon":97.7361111},{"id":1833366,"name":"takara","country":"mm","lat":16.8833333,"lon":98.0833333},{"id":2734384,"name":"ban pha tuek","country":"th","lat":17.246945,"lon":98.431139},{"id":2747103,"name":"ban wa khae kro","country":"th","lat":17.340889,"lon":98.148195},{"id":1823104,"name":"methawe","country":"mm","lat":17.0666667,"lon":98.2333333},{"id":1815271,"name":"kaso","country":"mm","lat":17.0166667,"lon":97.95},{"id":1810319,"name":"daingbya","country":"mm","lat":17.1,"lon":97.8166667},{"id":2748592,"name":"ban yang","country":"th","lat":17.416667,"lon":98.466667},{"id":1815716,"name":"kawpyin","country":"mm","lat":17.0166667,"lon":97.5833333},{"id":1815767,"name":"kawya","country":"mm","lat":16.6666667,"lon":97.8333333},{"id":2721044,"name":"ban mae tho","country":"th","lat":17.377611,"lon":98.335611},{"id":1829543,"name":"pemnedaw","country":"mm","lat":16.8666667,"lon":97.6666667},{"id":1831242,"name":"sanpri","country":"mm","lat":16.9333333,"lon":97.7333333},{"id":1815723,"name":"kawsein ale","country":"mm","lat":17.2166667,"lon":97.6666667},{"id":1814743,"name":"kanbani","country":"mm","lat":17.1666667,"lon":97.7833333},{"id":2705269,"name":"ban doi","country":"th","lat":17.412167,"lon":98.456917},{"id":1815509,"name":"kawkayit","country":"mm","lat":17.3666667,"lon":97.6666667},{"id":2702241,"name":"ban bo brue le kho","country":"th","lat":17.260389,"lon":98.396472},{"id":2748745,"name":"ban yang khun usu","country":"th","lat":17.350528,"lon":98.310861},{"id":1837199,"name":"wami-kla","country":"mm","lat":17.3166667,"lon":97.9166667},{"id":2746292,"name":"ban to che","country":"th","lat":17.481222,"lon":98.183444},{"id":1813358,"name":"htigahaw","country":"mm","lat":17.4,"lon":97.9},{"id":1828933,"name":"patkyaw","country":"mm","lat":17.05,"lon":97.9},{"id":1817156,"name":"kuseik","country":"mm","lat":17.4,"lon":97.8},{"id":1815470,"name":"kawhe","country":"mm","lat":17.4,"lon":97.5333333},{"id":2734662,"name":"ban pho bra khi","country":"th","lat":17.438389,"lon":98.219528},{"id":1818638,"name":"kyuhta","country":"mm","lat":17.15,"lon":98.0333333},{"id":2740669,"name":"ban so ae","country":"th","lat":17.371667,"lon":98.340417},{"id":1812030,"name":"hlaingbwe","country":"mm","lat":17.1333333,"lon":97.8333333},{"id":1827884,"name":"pachaung","country":"mm","lat":16.6833333,"lon":98.4333333},{"id":2739710,"name":"ban san ton pin","country":"th","lat":17.41825,"lon":98.457084},{"id":2736893,"name":"ban rai din daeng","country":"th","lat":17.037111,"lon":98.482361},{"id":1815697,"name":"kawnyaing","country":"mm","lat":16.7333333,"lon":98.1833333},{"id":1809476,"name":"bingyi","country":"mm","lat":16.9791667,"lon":97.5122222},{"id":1828622,"name":"pangon","country":"mm","lat":16.8166667,"lon":97.5333333},{"id":1810100,"name":"chenanlan","country":"mm","lat":17.4333333,"lon":97.6333333},{"id":1814589,"name":"kamahta","country":"mm","lat":17.3333333,"lon":97.8666667},{"id":2711373,"name":"ban ka pha do","country":"th","lat":17.181195,"lon":98.393472},{"id":2740016,"name":"ban sa sui pu","country":"th","lat":17.427167,"lon":98.176584},{"id":1821126,"name":"maitabu","country":"mm","lat":16.9833333,"lon":98.05},{"id":1818516,"name":"kyondo","country":"mm","lat":16.5833333,"lon":98.05},{"id":1823390,"name":"minkyan","country":"mm","lat":16.75,"lon":97.6333333},{"id":1827216,"name":"nyamaraw","country":"mm","lat":17.0666667,"lon":98.0333333},{"id":1828012,"name":"pagat","country":"mm","lat":16.8444444,"lon":97.6041667},{"id":1822937,"name":"mekado","country":"mm","lat":17.3833333,"lon":97.8},{"id":1822991,"name":"melayaw","country":"mm","lat":17.4166667,"lon":97.85},{"id":1835653,"name":"theawhpa","country":"mm","lat":17.3833333,"lon":98.0166667},{"id":1832301,"name":"shwe-ok","country":"mm","lat":17.3833333,"lon":97.5},{"id":1812043,"name":"hlaingtaung","country":"mm","lat":16.925,"lon":97.755},{"id":1834402,"name":"tawawhto","country":"mm","lat":17.4833333,"lon":97.6666667},{"id":1810334,"name":"dalaban","country":"mm","lat":16.795,"lon":97.515},{"id":1828315,"name":"pandawmi","country":"mm","lat":17.2833333,"lon":97.7333333},{"id":2735866,"name":"ban pla kong","country":"th","lat":17.069,"lon":98.379778},{"id":1812032,"name":"hlaing","country":"mm","lat":16.5663889,"lon":97.9283333},{"id":1841807,"name":"ywathitkon","country":"mm","lat":16.55,"lon":98.2833333},{"id":1833155,"name":"tabuto","country":"mm","lat":17.0,"lon":97.75},{"id":2748911,"name":"ban yang phayo","country":"th","lat":17.352703,"lon":98.490697},{"id":2716013,"name":"ban khu khi","country":"th","lat":17.444528,"lon":98.183278},{"id":1815766,"name":"kawyahkat","country":"mm","lat":16.6183333,"lon":97.8472222},{"id":1833412,"name":"takwetpo","country":"mm","lat":17.3166667,"lon":97.6833333},{"id":1810125,"name":"chidaing","country":"mm","lat":16.9508333,"lon":97.7136111},{"id":1827875,"name":"pabu","country":"mm","lat":16.9052778,"lon":97.6269444},{"id":1810787,"name":"dipeikkon","country":"mm","lat":16.9,"lon":98.0333333},{"id":2733564,"name":"ban pha du","country":"th","lat":17.428834,"lon":98.353889},{"id":1825633,"name":"nanshwemeik","country":"mm","lat":16.6166667,"lon":98.2166667},{"id":1825560,"name":"nanhpawgon","country":"mm","lat":16.5,"lon":98.1333333},{"id":1815737,"name":"kawtaw","country":"mm","lat":16.9275,"lon":97.6638889},{"id":1822974,"name":"melamu","country":"mm","lat":17.2333333,"lon":98.15},{"id":1841728,"name":"ywakaingkaung","country":"mm","lat":16.9333333,"lon":97.9333333},{"id":1823095,"name":"methaponkhi","country":"mm","lat":17.4,"lon":97.9833333},{"id":1808421,"name":"ahlan","country":"mm","lat":17.2833333,"lon":97.6333333},{"id":1825949,"name":"naungkamyaing","country":"mm","lat":17.0166667,"lon":97.6833333},{"id":2722219,"name":"ban mo khli","country":"th","lat":17.293528,"lon":98.354584},{"id":1823107,"name":"methe","country":"mm","lat":17.3333333,"lon":97.5166667},{"id":1813561,"name":"htun-aing","country":"mm","lat":16.7166667,"lon":97.6166667},{"id":1829166,"name":"pawhtaw","country":"mm","lat":17.0,"lon":97.65},{"id":1834587,"name":"taw-u zayat","country":"mm","lat":17.05,"lon":98.4}]});