callback({"markets":[{"id":2576996,"name":"ash sha`laniyah","country":"sa","lat":27.728121,"lon":42.562875},{"id":2576339,"name":"al mihayniyah","country":"sa","lat":27.697586,"lon":43.061019},{"id":2576454,"name":"al muyyah","country":"sa","lat":27.844519,"lon":42.774822},{"id":2579556,"name":"talha\u0027","country":"sa","lat":27.691126,"lon":42.936015},{"id":2576220,"name":"al luwaybidah","country":"sa","lat":27.563881,"lon":42.725671},{"id":2577072,"name":"ash shurayhiyah","country":"sa","lat":27.867053,"lon":42.721271},{"id":2579382,"name":"shu`aybah","country":"sa","lat":27.890386,"lon":42.681883},{"id":2576518,"name":"al qas`a\u0027","country":"sa","lat":27.642132,"lon":42.545663},{"id":2576052,"name":"al jithyathah","country":"sa","lat":27.715817,"lon":42.628055},{"id":2575796,"name":"al ghumayyisah","country":"sa","lat":27.9,"lon":42.683333},{"id":2575851,"name":"al hamjah","country":"sa","lat":27.613478,"lon":43.203736},{"id":2576789,"name":"an nasiriyah","country":"sa","lat":27.682931,"lon":42.551833},{"id":2577045,"name":"ash shu`aybah","country":"sa","lat":27.836396,"lon":42.740985},{"id":2579650,"name":"turubah","country":"sa","lat":28.256334,"lon":42.924445}]});