callback({"markets":[{"id":2581109,"name":"konggu","country":"sb","lat":-8.2666667,"lon":157.8166667},{"id":2580606,"name":"hapai","country":"sb","lat":-8.2833333,"lon":157.5666667},{"id":2581408,"name":"makambo","country":"sb","lat":-8.3666667,"lon":157.85},{"id":2580699,"name":"hovoro","country":"sb","lat":-8.0833333,"lon":157.6},{"id":2581036,"name":"kolumbaghea","country":"sb","lat":-8.0166667,"lon":157.6},{"id":2583128,"name":"tetomera","country":"sb","lat":-8.4833333,"lon":157.7333333},{"id":2580905,"name":"keru village","country":"sb","lat":-8.1833333,"lon":157.6666667},{"id":2582663,"name":"saikile","country":"sb","lat":-8.3,"lon":157.55},{"id":2582158,"name":"ngurengure","country":"sb","lat":-8.3166667,"lon":157.8166667},{"id":2581756,"name":"mbuini tusu","country":"sb","lat":-8.4833333,"lon":157.9},{"id":2580911,"name":"kia","country":"sb","lat":-7.55,"lon":158.4333333},{"id":2581977,"name":"naruo","country":"sb","lat":-7.6333333,"lon":158.35},{"id":2583216,"name":"tusumine","country":"sb","lat":-8.0333333,"lon":157.6}]});