callback({"markets":[{"id":584914,"name":"shuixie","country":"cn","lat":25.15,"lon":99.7},{"id":584081,"name":"shuidi","country":"cn","lat":25.083333,"lon":99.733333},{"id":434128,"name":"changjie","country":"cn","lat":25.25,"lon":99.583333},{"id":466517,"name":"fengshanchen","country":"cn","lat":24.583333,"lon":99.9},{"id":541241,"name":"mituchen","country":"cn","lat":25.32037,"lon":100.499313},{"id":531657,"name":"luodang","country":"cn","lat":24.533333,"lon":100.016667},{"id":576019,"name":"shejie","country":"cn","lat":25.283333,"lon":100.066667},{"id":536444,"name":"maolan","country":"cn","lat":24.6,"lon":100.25},{"id":447288,"name":"dacang","country":"cn","lat":25.433333,"lon":100.216667},{"id":513090,"name":"kunglang","country":"cn","lat":24.9,"lon":100.333333},{"id":535738,"name":"mangshui","country":"cn","lat":24.9,"lon":99.733333},{"id":627342,"name":"xinlongjie","country":"cn","lat":24.8,"lon":100.233333},{"id":539006,"name":"mengchengchen","country":"cn","lat":25.266667,"lon":100.35},{"id":433508,"name":"changchongjie","country":"cn","lat":24.933333,"lon":100.366667},{"id":630208,"name":"xiyao","country":"cn","lat":25.016667,"lon":100.2},{"id":490262,"name":"hsiniuchieh","country":"cn","lat":24.95,"lon":100.05},{"id":656208,"name":"zhujie","country":"cn","lat":25.083333,"lon":99.966667},{"id":546569,"name":"nanzhao","country":"cn","lat":25.222218,"lon":100.303444},{"id":645805,"name":"yungpinghsien","country":"cn","lat":25.448286,"lon":99.556102},{"id":532991,"name":"lushih","country":"cn","lat":24.833333,"lon":99.966667},{"id":539446,"name":"mengyou","country":"cn","lat":24.633333,"lon":99.766667},{"id":642291,"name":"youdian","country":"cn","lat":24.828942,"lon":99.592317}]});