callback({"markets":[{"id":372399,"name":"teke","country":"cd","lat":-3.35,"lon":23.383333},{"id":3156116,"name":"iwala","country":"zr","lat":-3.2666667,"lon":22.9666667},{"id":361066,"name":"kelalulu","country":"cd","lat":-2.8,"lon":23.083333},{"id":356368,"name":"diwoko","country":"cd","lat":-3.266667,"lon":23.1},{"id":356496,"name":"djovu","country":"cd","lat":-3.316667,"lon":23.25},{"id":3168832,"name":"sadiboko","country":"zr","lat":-2.9166667,"lon":23.3666667},{"id":369887,"name":"nkoso","country":"cd","lat":-2.7,"lon":22.65},{"id":3168512,"name":"petshi-utshimu","country":"zr","lat":-2.9833333,"lon":22.75},{"id":373739,"name":"wimbo","country":"cd","lat":-3.2,"lon":22.966667},{"id":371934,"name":"shule","country":"cd","lat":-2.783333,"lon":22.533333},{"id":370445,"name":"osenge","country":"cd","lat":-3.316667,"lon":22.6},{"id":3166163,"name":"musadi","country":"zr","lat":-2.5666667,"lon":22.7833333},{"id":3168120,"name":"onema","country":"zr","lat":-3.0166667,"lon":23.4833333},{"id":3168119,"name":"onema lutabe","country":"zr","lat":-3.4333333,"lon":23.1},{"id":3154969,"name":"fundji","country":"zr","lat":-3.4333333,"lon":23.45},{"id":3171521,"name":"wungu","country":"zr","lat":-3.45,"lon":22.8666667},{"id":3171139,"name":"ukutu","country":"zr","lat":-3.3833333,"lon":22.9},{"id":3162542,"name":"lukavukavu","country":"zr","lat":-2.9166667,"lon":23.3333333},{"id":364737,"name":"luhuma","country":"cd","lat":-3.35,"lon":23.183333},{"id":3171081,"name":"tusanga","country":"zr","lat":-3.4,"lon":23.45},{"id":3161452,"name":"lapa","country":"zr","lat":-3.1666667,"lon":22.75},{"id":358276,"name":"ishenga owala","country":"cd","lat":-3.483333,"lon":22.7},{"id":370571,"name":"panga","country":"cd","lat":-3.1,"lon":22.766667},{"id":373258,"name":"tukumbi","country":"cd","lat":-3.316667,"lon":23.05},{"id":373648,"name":"wania","country":"cd","lat":-3.15,"lon":22.9},{"id":371095,"name":"sadiboko","country":"cd","lat":-2.916667,"lon":23.366667},{"id":356468,"name":"djombe","country":"cd","lat":-3.416667,"lon":22.5},{"id":3155055,"name":"ganda","country":"zr","lat":-3.1833333,"lon":22.7166667},{"id":364348,"name":"longombi","country":"cd","lat":-3.416667,"lon":22.9},{"id":3155895,"name":"intoko","country":"zr","lat":-2.8833333,"lon":22.55},{"id":3168308,"name":"panga","country":"zr","lat":-3.1,"lon":22.7666667},{"id":3167984,"name":"okita luhanga","country":"zr","lat":-3.3666667,"lon":23.3666667},{"id":3168101,"name":"ompula","country":"zr","lat":-2.7833333,"lon":22.55},{"id":3154772,"name":"epombo okula","country":"zr","lat":-3.4833333,"lon":22.55},{"id":3154539,"name":"efunga","country":"zr","lat":-3.4333333,"lon":22.8166667},{"id":370658,"name":"pelenge","country":"cd","lat":-2.766667,"lon":22.616667},{"id":3171438,"name":"wema","country":"zr","lat":-3.1166667,"lon":23.1833333},{"id":3154251,"name":"djumi","country":"zr","lat":-3.4833333,"lon":23.2333333},{"id":370344,"name":"omekenge","country":"cd","lat":-3.383333,"lon":23.45},{"id":3165753,"name":"mukumari","country":"zr","lat":-2.8333333,"lon":23.1166667},{"id":3168216,"name":"otepele","country":"zr","lat":-2.6,"lon":22.7666667},{"id":363230,"name":"kombeswe","country":"cd","lat":-3.266667,"lon":23.066667},{"id":359052,"name":"kaki","country":"cd","lat":-2.633333,"lon":22.733333},{"id":3171156,"name":"ulunga","country":"zr","lat":-3.4833333,"lon":22.9833333},{"id":3162116,"name":"looto","country":"zr","lat":-2.9333333,"lon":22.7333333},{"id":370839,"name":"poie","country":"cd","lat":-2.833333,"lon":23.233333},{"id":3160895,"name":"koiekoie","country":"zr","lat":-3.3666667,"lon":23.25},{"id":3168061,"name":"omaniundu","country":"zr","lat":-3.35,"lon":23.2666667},{"id":3162066,"name":"longangwa","country":"zr","lat":-3.0,"lon":22.75},{"id":3155691,"name":"ikundju","country":"zr","lat":-3.4666667,"lon":22.5833333},{"id":3168236,"name":"owende","country":"zr","lat":-2.7666667,"lon":23.2333333},{"id":3162517,"name":"lukamba","country":"zr","lat":-2.9666667,"lon":23.1166667},{"id":370583,"name":"pangu","country":"cd","lat":-3.033333,"lon":22.783333},{"id":368017,"name":"mukumasi","country":"cd","lat":-2.85,"lon":23.233333},{"id":364379,"name":"looto","country":"cd","lat":-2.933333,"lon":22.733333},{"id":3156013,"name":"ishenga owala","country":"zr","lat":-3.4833333,"lon":22.7},{"id":357325,"name":"ganda lapa","country":"cd","lat":-3.183333,"lon":22.716667},{"id":373704,"name":"wembo-niama","country":"cd","lat":-3.466667,"lon":23.216667},{"id":374314,"name":"yani","country":"cd","lat":-3.333333,"lon":23.05},{"id":3169671,"name":"shule","country":"zr","lat":-2.7833333,"lon":22.5333333},{"id":364183,"name":"loja","country":"cd","lat":-3.483333,"lon":23.433333},{"id":3168395,"name":"pelenge","country":"zr","lat":-2.7666667,"lon":22.6166667},{"id":363158,"name":"koiekoie","country":"cd","lat":-3.366667,"lon":23.25},{"id":3160979,"name":"komeswe","country":"zr","lat":-3.2666667,"lon":23.0666667},{"id":372520,"name":"tokete","country":"cd","lat":-3.316667,"lon":22.566667},{"id":357952,"name":"ikumu","country":"cd","lat":-2.516667,"lon":22.8},{"id":373182,"name":"tshula","country":"cd","lat":-2.516667,"lon":22.9},{"id":370274,"name":"okotanema","country":"cd","lat":-3.45,"lon":22.9},{"id":370382,"name":"onema lutabe","country":"cd","lat":-3.433333,"lon":23.1},{"id":3169780,"name":"soko","country":"zr","lat":-3.3666667,"lon":23.3166667},{"id":356287,"name":"dikoti","country":"cd","lat":-2.933333,"lon":22.716667},{"id":363464,"name":"kulumbi","country":"cd","lat":-2.7,"lon":23.233333},{"id":3167937,"name":"odiko","country":"zr","lat":-2.8833333,"lon":23.3166667},{"id":3165754,"name":"mukumasi","country":"zr","lat":-2.85,"lon":23.2333333},{"id":364145,"name":"lodi","country":"cd","lat":-3.483333,"lon":23.333333},{"id":365215,"name":"lutanga","country":"cd","lat":-3.0,"lon":23.483333},{"id":3154157,"name":"djelo","country":"zr","lat":-3.2166667,"lon":22.65},{"id":356801,"name":"efunga","country":"cd","lat":-3.433333,"lon":22.816667},{"id":3154188,"name":"djinda","country":"zr","lat":-2.8833333,"lon":22.95},{"id":3168182,"name":"osenge","country":"zr","lat":-3.3166667,"lon":22.6},{"id":367579,"name":"mpama","country":"cd","lat":-2.816667,"lon":23.066667},{"id":363715,"name":"lapa","country":"cd","lat":-3.166667,"lon":22.75},{"id":352184,"name":"asomelo","country":"cd","lat":-3.416667,"lon":23.466667},{"id":3153939,"name":"diaki","country":"zr","lat":-3.3,"lon":23.1666667},{"id":372087,"name":"songo-buyu","country":"cd","lat":-3.333333,"lon":22.55},{"id":373402,"name":"ukutu","country":"cd","lat":-3.383333,"lon":22.9},{"id":3156789,"name":"kaki","country":"zr","lat":-2.6333333,"lon":22.7333333},{"id":352833,"name":"banda kombe","country":"cd","lat":-3.283333,"lon":22.983333},{"id":3168023,"name":"olandji","country":"zr","lat":-3.0333333,"lon":23.15},{"id":370401,"name":"oniangondo","country":"cd","lat":-2.583333,"lon":23.2},{"id":3162890,"name":"luseke","country":"zr","lat":-2.85,"lon":23.1333333},{"id":363144,"name":"koditshale","country":"cd","lat":-3.216667,"lon":23.2},{"id":358156,"name":"intako","country":"cd","lat":-2.883333,"lon":22.55},{"id":368426,"name":"musadi","country":"cd","lat":-2.566667,"lon":22.783333},{"id":3159997,"name":"kingete","country":"zr","lat":-3.3833333,"lon":23.1666667},{"id":370218,"name":"oikete","country":"cd","lat":-2.516667,"lon":22.833333},{"id":369859,"name":"nkole","country":"cd","lat":-2.55,"lon":22.733333},{"id":3168602,"name":"pombi-kakese","country":"zr","lat":-2.9,"lon":22.85},{"id":357585,"name":"gongo-piete","country":"cd","lat":-3.433333,"lon":23.166667},{"id":3158831,"name":"kembi","country":"zr","lat":-3.2,"lon":22.6666667},{"id":361529,"name":"kifumu","country":"cd","lat":-3.1,"lon":22.933333},{"id":3168078,"name":"omeduye","country":"zr","lat":-2.9,"lon":23.2833333},{"id":3168576,"name":"poie","country":"zr","lat":-2.8333333,"lon":23.2333333},{"id":3155322,"name":"gongo-piete","country":"zr","lat":-3.4333333,"lon":23.1666667},{"id":3162474,"name":"luhuma","country":"zr","lat":-3.35,"lon":23.1833333},{"id":370271,"name":"okonga","country":"cd","lat":-3.466667,"lon":23.066667},{"id":3155325,"name":"gongwa","country":"zr","lat":-3.0666667,"lon":22.7833333},{"id":3161883,"name":"lodja","country":"zr","lat":-3.4833333,"lon":23.4333333},{"id":370229,"name":"okania","country":"cd","lat":-2.85,"lon":22.633333},{"id":370499,"name":"owende","country":"cd","lat":-2.766667,"lon":23.233333},{"id":370224,"name":"okala","country":"cd","lat":-2.916667,"lon":22.6},{"id":3169825,"name":"songo kuto","country":"zr","lat":-2.6666667,"lon":23.2166667},{"id":3154234,"name":"djovu","country":"zr","lat":-3.3166667,"lon":23.25},{"id":3169403,"name":"shaie","country":"zr","lat":-2.8,"lon":23.2333333},{"id":3168138,"name":"oniangondo","country":"zr","lat":-2.5833333,"lon":23.2},{"id":3171441,"name":"wembo-niama","country":"zr","lat":-3.4666667,"lon":23.2166667},{"id":370324,"name":"omaniundu","country":"cd","lat":-3.35,"lon":23.266667},{"id":365001,"name":"lumpeto","country":"cd","lat":-2.916667,"lon":23.133333},{"id":3169851,"name":"stokodi","country":"zr","lat":-3.45,"lon":23.15},{"id":3154216,"name":"djombo-okala","country":"zr","lat":-2.9166667,"lon":22.5833333},{"id":356478,"name":"djombo-okala","country":"cd","lat":-2.916667,"lon":22.583333},{"id":370200,"name":"odiko","country":"cd","lat":-2.883333,"lon":23.316667},{"id":373691,"name":"welenge","country":"cd","lat":-2.65,"lon":22.733333},{"id":361094,"name":"kembi","country":"cd","lat":-3.2,"lon":22.666667},{"id":3168007,"name":"okonga djovu","country":"zr","lat":-3.4666667,"lon":23.0666667},{"id":3161201,"name":"kulumbi","country":"zr","lat":-2.7,"lon":23.2333333},{"id":357954,"name":"ikundju","country":"cd","lat":-3.466667,"lon":22.583333},{"id":3168319,"name":"pangu ii","country":"zr","lat":-3.0333333,"lon":22.7833333},{"id":357588,"name":"gongwa","country":"cd","lat":-3.066667,"lon":22.783333},{"id":3150571,"name":"banda kombe","country":"zr","lat":-3.2833333,"lon":22.9833333},{"id":371666,"name":"shaie","country":"cd","lat":-2.8,"lon":23.233333},{"id":3170995,"name":"tukumbi","country":"zr","lat":-3.3166667,"lon":23.05},{"id":363573,"name":"kuto","country":"cd","lat":-2.666667,"lon":23.216667},{"id":364780,"name":"lukamba","country":"cd","lat":-2.966667,"lon":23.116667},{"id":3167966,"name":"okania","country":"zr","lat":-2.85,"lon":22.6333333},{"id":3155689,"name":"ikumu","country":"zr","lat":-2.5166667,"lon":22.8},{"id":3167596,"name":"nkole","country":"zr","lat":-2.55,"lon":22.7333333},{"id":3170919,"name":"tshula","country":"zr","lat":-2.5166667,"lon":22.9},{"id":3159266,"name":"kifumu","country":"zr","lat":-3.1,"lon":22.9333333},{"id":3167955,"name":"oikete","country":"zr","lat":-2.5166667,"lon":22.8333333},{"id":373784,"name":"wungu","country":"cd","lat":-3.45,"lon":22.866667},{"id":356513,"name":"djumi","country":"cd","lat":-3.483333,"lon":23.233333},{"id":3154611,"name":"ekote-oniate","country":"zr","lat":-2.9,"lon":22.6666667},{"id":356450,"name":"djinda","country":"cd","lat":-2.883333,"lon":22.95},{"id":3169096,"name":"sangadjale","country":"zr","lat":-3.45,"lon":23.1},{"id":3160881,"name":"koditshale","country":"zr","lat":-3.2166667,"lon":23.2},{"id":3167961,"name":"okala","country":"zr","lat":-2.9166667,"lon":22.6},{"id":373419,"name":"ulunga","country":"cd","lat":-3.483333,"lon":22.983333},{"id":370775,"name":"petshi-utshimu","country":"cd","lat":-2.983333,"lon":22.75},{"id":370286,"name":"olandji","country":"cd","lat":-3.033333,"lon":23.15},{"id":3162737,"name":"lumpete","country":"zr","lat":-2.9166667,"lon":23.1333333},{"id":370247,"name":"okita luhanga","country":"cd","lat":-3.366667,"lon":23.366667},{"id":356201,"name":"diaki","country":"cd","lat":-3.3,"lon":23.166667},{"id":3161882,"name":"lodi","country":"zr","lat":-3.4833333,"lon":23.3333333},{"id":370479,"name":"otepele","country":"cd","lat":-2.6,"lon":22.766667},{"id":373696,"name":"welo","country":"cd","lat":-3.416667,"lon":23.4},{"id":3170257,"name":"tokete","country":"zr","lat":-3.3166667,"lon":22.5666667},{"id":3162952,"name":"lutanga","country":"zr","lat":-3.0,"lon":23.4833333},{"id":3168235,"name":"owende-ontole","country":"zr","lat":-2.7333333,"lon":22.65},{"id":368016,"name":"mukumari","country":"cd","lat":-2.833333,"lon":23.116667},{"id":361084,"name":"kemba","country":"cd","lat":-3.15,"lon":22.95},{"id":356419,"name":"djelo","country":"cd","lat":-3.216667,"lon":22.65},{"id":3172051,"name":"yani","country":"zr","lat":-3.3333333,"lon":23.05},{"id":370467,"name":"oswe","country":"cd","lat":-3.083333,"lon":22.883333},{"id":3171433,"name":"welo","country":"zr","lat":-3.4166667,"lon":23.4},{"id":370383,"name":"onema","country":"cd","lat":-3.016667,"lon":23.483333},{"id":3168081,"name":"omekenge","country":"zr","lat":-3.3833333,"lon":23.45},{"id":358379,"name":"iwala","country":"cd","lat":-3.266667,"lon":22.966667},{"id":3154106,"name":"diwoko","country":"zr","lat":-3.2666667,"lon":23.1},{"id":357232,"name":"fundji","country":"cd","lat":-3.433333,"lon":23.45},{"id":365153,"name":"luseke","country":"cd","lat":-2.85,"lon":23.133333},{"id":3152035,"name":"boi lukenie","country":"zr","lat":-3.3666667,"lon":22.5166667},{"id":357034,"name":"epombo okula","country":"cd","lat":-3.483333,"lon":22.55},{"id":3169824,"name":"songo-buyu","country":"zr","lat":-3.3333333,"lon":22.55},{"id":3154007,"name":"dikati","country":"zr","lat":-2.9333333,"lon":22.7166667},{"id":362260,"name":"kingete","country":"cd","lat":-3.383333,"lon":23.166667},{"id":356874,"name":"ekote oniote","country":"cd","lat":-2.9,"lon":22.666667},{"id":3154255,"name":"djunga","country":"zr","lat":-3.45,"lon":23.3166667},{"id":371347,"name":"sandjula","country":"cd","lat":-3.116667,"lon":23.183333},{"id":356517,"name":"djunga","country":"cd","lat":-3.45,"lon":23.316667},{"id":3161998,"name":"lolekandjovu","country":"zr","lat":-3.1333333,"lon":22.7666667},{"id":370498,"name":"owende-ontole","country":"cd","lat":-2.733333,"lon":22.65},{"id":3162445,"name":"lufwa kongolo","country":"zr","lat":-3.15,"lon":22.75},{"id":372043,"name":"soko","country":"cd","lat":-3.366667,"lon":23.316667},{"id":364805,"name":"lukavukavu","country":"cd","lat":-2.916667,"lon":23.333333},{"id":3149922,"name":"asomelo","country":"zr","lat":-3.4166667,"lon":23.4666667},{"id":3154206,"name":"djombe","country":"zr","lat":-3.4166667,"lon":22.5},{"id":365851,"name":"mamba-ewanga","country":"cd","lat":-2.566667,"lon":23.216667},{"id":3155784,"name":"imamba","country":"zr","lat":-2.5666667,"lon":23.2166667},{"id":370364,"name":"ompula","country":"cd","lat":-2.783333,"lon":22.55},{"id":3162085,"name":"longombi","country":"zr","lat":-3.4166667,"lon":22.9},{"id":364261,"name":"lolekandjovu","country":"cd","lat":-3.133333,"lon":22.766667},{"id":3170136,"name":"teke","country":"zr","lat":-3.35,"lon":23.3833333},{"id":363575,"name":"kuto-owanga","country":"cd","lat":-2.6,"lon":23.2},{"id":3168204,"name":"oswe","country":"zr","lat":-3.0833333,"lon":22.8833333},{"id":354297,"name":"boi lukenie","country":"cd","lat":-3.366667,"lon":22.516667},{"id":3156912,"name":"kalalulu","country":"zr","lat":-2.8,"lon":23.0833333},{"id":3165316,"name":"mpama","country":"zr","lat":-2.8166667,"lon":23.0666667},{"id":370341,"name":"omeduye","country":"cd","lat":-2.9,"lon":23.283333},{"id":3171476,"name":"wimbo","country":"zr","lat":-3.2,"lon":22.9666667},{"id":357033,"name":"epombo lapa","country":"cd","lat":-3.45,"lon":22.65}]});