callback({"markets":[{"id":2042924,"name":"repparfjorddal","country":"no","lat":70.416667,"lon":24.55},{"id":2035387,"name":"bevkopp","country":"no","lat":70.2,"lon":24.916667},{"id":2039317,"name":"indre sandvik","country":"no","lat":70.316667,"lon":25.166667},{"id":2046832,"name":"ytre garadak","country":"no","lat":70.25,"lon":25.033333},{"id":2044207,"name":"skoganvarre","country":"no","lat":69.833333,"lon":25.1},{"id":2040453,"name":"lakselv","country":"no","lat":70.05,"lon":24.933333},{"id":2046822,"name":"ytre billefjord","country":"no","lat":70.366667,"lon":25.05},{"id":2036578,"name":"eldskog","country":"no","lat":70.05,"lon":25.0},{"id":2042263,"name":"olderfjord","country":"no","lat":70.466667,"lon":25.1},{"id":2040026,"name":"kolvik","country":"no","lat":70.2875,"lon":25.109167},{"id":2039716,"name":"kistrand","country":"no","lat":70.45,"lon":25.25},{"id":2038697,"name":"hestnes","country":"no","lat":70.316667,"lon":25.45},{"id":2037110,"name":"flata","country":"no","lat":70.016667,"lon":24.95},{"id":2035938,"name":"brennelv","country":"no","lat":70.05,"lon":25.05},{"id":2039282,"name":"indre billefjord","country":"no","lat":70.316667,"lon":25.066667},{"id":2042582,"name":"ovrejord","country":"no","lat":70.466667,"lon":25.066667},{"id":2039253,"name":"iggaldas","country":"no","lat":70.233333,"lon":24.933333}]});