callback({"markets":[{"id":1842863,"name":"bayanjargalan","country":"mn","lat":47.1833333,"lon":108.25},{"id":1846382,"name":"ogoomor","country":"mn","lat":46.9833333,"lon":107.9833333},{"id":1846000,"name":"modongiin jisa","country":"mn","lat":46.9666667,"lon":108.2833333},{"id":1847775,"name":"tumur usatunoy panchzha","country":"mn","lat":47.25,"lon":108.3333333},{"id":1846254,"name":"nilga somon","country":"mn","lat":46.9666667,"lon":108.3},{"id":1845955,"name":"manita","country":"mn","lat":47.25,"lon":107.5333333},{"id":1846243,"name":"naydan chzhisa","country":"mn","lat":46.8333333,"lon":107.5166667},{"id":1844746,"name":"hashaatayn ortoo","country":"mn","lat":47.1,"lon":107.9833333},{"id":1844417,"name":"ergineg-hiyd","country":"mn","lat":46.9666667,"lon":108.0833333},{"id":1844299,"name":"eligen jisa","country":"mn","lat":46.8333333,"lon":107.8666667},{"id":1846376,"name":"ogomoriyn-hudag","country":"mn","lat":46.8333333,"lon":107.7833333},{"id":1848204,"name":"yanchin hiid","country":"mn","lat":47.2166667,"lon":108.0833333},{"id":1847757,"name":"tulagain chzhisa","country":"mn","lat":46.5,"lon":107.8666667},{"id":1842293,"name":"aguytuin chzhisa","country":"mn","lat":47.05,"lon":107.65},{"id":1844416,"name":"ergineg hiid","country":"mn","lat":47.0,"lon":108.0833333}]});