callback({"markets":[{"id":363455,"name":"kulonda","country":"cd","lat":-7.066667,"lon":17.366667},{"id":361211,"name":"kiala","country":"cd","lat":-6.633333,"lon":16.766667},{"id":110317,"name":"cambamba","country":"ao","lat":-6.569125,"lon":16.528731},{"id":3159080,"name":"kibanzu","country":"zr","lat":-6.7,"lon":16.9333333},{"id":361636,"name":"kikobo","country":"cd","lat":-6.8,"lon":17.383333},{"id":116500,"name":"kassori","country":"ao","lat":-6.596338,"lon":16.551342},{"id":3169975,"name":"swa-yenga","country":"zr","lat":-7.05,"lon":16.9666667},{"id":3165109,"name":"monganda","country":"zr","lat":-6.5166667,"lon":16.8666667},{"id":123232,"name":"quissangue","country":"ao","lat":-6.654987,"lon":16.672916},{"id":352886,"name":"bangala","country":"cd","lat":-6.816667,"lon":16.85},{"id":361960,"name":"kimbala-twana","country":"cd","lat":-6.583333,"lon":17.1},{"id":369264,"name":"namakete","country":"cd","lat":-6.666667,"lon":17.4},{"id":3172540,"name":"zengamatari","country":"zr","lat":-7.3666667,"lon":17.4},{"id":368359,"name":"munikongo","country":"cd","lat":-6.583333,"lon":17.333333},{"id":370148,"name":"nzesa","country":"cd","lat":-6.95,"lon":17.416667},{"id":361394,"name":"kibinga","country":"cd","lat":-6.616667,"lon":17.433333},{"id":3156427,"name":"kabuiku","country":"zr","lat":-6.8333333,"lon":17.4166667},{"id":3172292,"name":"yenga-lusundji","country":"zr","lat":-7.05,"lon":17.3166667},{"id":369506,"name":"nganga-sengo","country":"cd","lat":-6.916667,"lon":17.466667},{"id":3160847,"name":"kizanga","country":"zr","lat":-6.6,"lon":17.4833333},{"id":3163896,"name":"masapo","country":"zr","lat":-6.9333333,"lon":17.3333333},{"id":111047,"name":"cangula","country":"ao","lat":-6.516667,"lon":16.683333},{"id":3153866,"name":"dambu-mulombo","country":"zr","lat":-6.6333333,"lon":16.8666667},{"id":3159893,"name":"kimwela","country":"zr","lat":-6.6166667,"lon":17.0},{"id":3160459,"name":"kisenda","country":"zr","lat":-6.9333333,"lon":17.2833333},{"id":366448,"name":"mayombo","country":"cd","lat":-7.2,"lon":17.25},{"id":362156,"name":"kimwela","country":"cd","lat":-6.616667,"lon":17.0},{"id":3165755,"name":"mukumbi","country":"zr","lat":-6.6166667,"lon":17.2666667},{"id":109167,"name":"cachimbo","country":"ao","lat":-7.0,"lon":16.583333},{"id":3167885,"name":"nzesa","country":"zr","lat":-6.95,"lon":17.4166667},{"id":359819,"name":"kanapumba","country":"cd","lat":-6.75,"lon":17.483333},{"id":3166719,"name":"mwana-uta-mungongo","country":"zr","lat":-6.85,"lon":17.1833333},{"id":117682,"name":"macolo","country":"ao","lat":-7.088603,"lon":16.737478},{"id":368948,"name":"mwana-mudila","country":"cd","lat":-6.566667,"lon":17.033333},{"id":121648,"name":"quicatchine","country":"ao","lat":-7.447209,"lon":17.016788},{"id":361953,"name":"kimbala","country":"cd","lat":-6.55,"lon":16.833333},{"id":3159722,"name":"kimbegete","country":"zr","lat":-7.1333333,"lon":17.3666667},{"id":374555,"name":"yenga-lusundji","country":"cd","lat":-7.05,"lon":17.316667},{"id":3163383,"name":"makua","country":"zr","lat":-7.0,"lon":17.3166667},{"id":356559,"name":"dondji","country":"cd","lat":-7.45,"lon":17.233333},{"id":3165426,"name":"muana-uta-bangi","country":"zr","lat":-7.1833333,"lon":16.95},{"id":3156314,"name":"kabianga","country":"zr","lat":-6.75,"lon":16.9833333},{"id":3166520,"name":"mutwanzamba","country":"zr","lat":-6.9666667,"lon":17.2},{"id":3165998,"name":"mulundu","country":"zr","lat":-6.8833333,"lon":16.9166667},{"id":119528,"name":"muna maiala","country":"ao","lat":-7.45,"lon":17.15},{"id":359007,"name":"kakabantu","country":"cd","lat":-6.566667,"lon":17.4},{"id":370141,"name":"nzenga","country":"cd","lat":-6.583333,"lon":17.283333},{"id":3159408,"name":"kikongo-kalala","country":"zr","lat":-6.7833333,"lon":16.8166667},{"id":358557,"name":"kabeya-fundu","country":"cd","lat":-6.666667,"lon":16.9},{"id":372203,"name":"swa-kabeya","country":"cd","lat":-6.683333,"lon":16.833333},{"id":3159934,"name":"kindimi","country":"zr","lat":-6.7833333,"lon":17.1},{"id":3159313,"name":"kihombo","country":"zr","lat":-6.5166667,"lon":17.0666667},{"id":3156158,"name":"kabaka","country":"zr","lat":-6.7833333,"lon":17.2},{"id":372232,"name":"swa-tenda","country":"cd","lat":-7.15,"lon":17.116667},{"id":3163657,"name":"mandamba","country":"zr","lat":-6.9166667,"lon":17.4333333},{"id":365626,"name":"makonga","country":"cd","lat":-6.816667,"lon":17.316667},{"id":363116,"name":"kizengamu","country":"cd","lat":-7.316667,"lon":17.116667},{"id":368980,"name":"mwana-uta-bangi","country":"cd","lat":-7.183333,"lon":16.95},{"id":358577,"name":"kabianga","country":"cd","lat":-6.75,"lon":16.983333},{"id":117737,"name":"mafuane","country":"ao","lat":-6.9,"lon":16.633333},{"id":3169952,"name":"swa-mutete","country":"zr","lat":-6.5166667,"lon":16.7666667},{"id":355249,"name":"botomuna","country":"cd","lat":-6.566667,"lon":16.866667},{"id":361671,"name":"kikongo-kalala","country":"cd","lat":-6.783333,"lon":16.816667},{"id":361718,"name":"kikundula","country":"cd","lat":-6.683333,"lon":17.45},{"id":362722,"name":"kisenda","country":"cd","lat":-6.933333,"lon":17.283333},{"id":362877,"name":"kitangu","country":"cd","lat":-6.983333,"lon":16.916667},{"id":368360,"name":"muni-mayala","country":"cd","lat":-7.033333,"lon":17.4},{"id":3159998,"name":"kingete","country":"zr","lat":-6.5,"lon":16.9666667},{"id":121732,"name":"quicua","country":"ao","lat":-6.996194,"lon":16.617007},{"id":3169951,"name":"swa-mutanda","country":"zr","lat":-7.2833333,"lon":17.05},{"id":360783,"name":"katsanga","country":"cd","lat":-6.85,"lon":17.25},{"id":367372,"name":"monganda","country":"cd","lat":-6.516667,"lon":16.866667},{"id":3158740,"name":"kazanga","country":"zr","lat":-6.9666667,"lon":17.3833333},{"id":3160639,"name":"kitenda","country":"zr","lat":-6.8833333,"lon":17.35},{"id":118958,"name":"muanda","country":"ao","lat":-6.8,"lon":16.633333},{"id":373550,"name":"vufu","country":"cd","lat":-7.116667,"lon":17.266667},{"id":122513,"name":"quimuangue","country":"ao","lat":-7.463908,"lon":17.00793},{"id":3166673,"name":"mwana-ipala","country":"zr","lat":-6.7166667,"lon":16.8166667},{"id":3156294,"name":"kabeya-fundu","country":"zr","lat":-6.6666667,"lon":16.9},{"id":368783,"name":"mutwanzamba","country":"cd","lat":-6.966667,"lon":17.2},{"id":3154297,"name":"dondji","country":"zr","lat":-7.45,"lon":17.2333333},{"id":368018,"name":"mukumbi","country":"cd","lat":-6.616667,"lon":17.266667},{"id":120775,"name":"nzambango","country":"ao","lat":-7.493324,"lon":17.031361},{"id":114241,"name":"cugo cavale","country":"ao","lat":-7.266667,"lon":16.666667},{"id":361003,"name":"kazanga","country":"cd","lat":-6.966667,"lon":17.383333},{"id":107919,"name":"alto zaza","country":"ao","lat":-6.616667,"lon":16.933333},{"id":3168688,"name":"puna","country":"zr","lat":-6.8666667,"lon":17.1666667},{"id":3171360,"name":"wamba-luadi","country":"zr","lat":-6.5,"lon":17.3333333},{"id":118209,"name":"maua","country":"ao","lat":-7.415258,"lon":17.088308},{"id":3167046,"name":"napulumba","country":"zr","lat":-7.3333333,"lon":17.3333333},{"id":3158748,"name":"kazemba","country":"zr","lat":-6.8333333,"lon":17.4666667},{"id":3169935,"name":"swa-dungu","country":"zr","lat":-7.0833333,"lon":16.95},{"id":361306,"name":"kibaki","country":"cd","lat":-6.783333,"lon":17.466667},{"id":3160853,"name":"kizengamu","country":"zr","lat":-7.3166667,"lon":17.1166667},{"id":3160614,"name":"kitangu","country":"zr","lat":-6.9833333,"lon":16.9166667},{"id":362902,"name":"kitenda","country":"cd","lat":-6.883333,"lon":17.35},{"id":372625,"name":"tseke-katu","country":"cd","lat":-6.766667,"lon":16.983333},{"id":362180,"name":"kindamba","country":"cd","lat":-6.85,"lon":16.866667},{"id":361576,"name":"kihombo","country":"cd","lat":-6.516667,"lon":17.066667},{"id":3158948,"name":"kiala","country":"zr","lat":-6.6333333,"lon":16.7666667},{"id":3167001,"name":"namakete","country":"zr","lat":-6.6666667,"lon":17.4},{"id":365978,"name":"mangambo","country":"cd","lat":-6.583333,"lon":17.033333},{"id":355621,"name":"bulu mukanda","country":"cd","lat":-6.6,"lon":17.283333},{"id":3168393,"name":"pelende","country":"zr","lat":-6.5,"lon":17.25},{"id":3169970,"name":"swa tende","country":"zr","lat":-7.15,"lon":17.1166667},{"id":352490,"name":"bagata","country":"cd","lat":-6.55,"lon":17.3},{"id":3152987,"name":"botomuna","country":"zr","lat":-6.5666667,"lon":16.8666667},{"id":358796,"name":"kadiela","country":"cd","lat":-7.383333,"lon":17.15},{"id":362197,"name":"kindimi","country":"cd","lat":-6.783333,"lon":17.1},{"id":358421,"name":"kabaka","country":"cd","lat":-6.783333,"lon":17.2},{"id":361358,"name":"kibenga","country":"cd","lat":-7.15,"lon":17.433333},{"id":111628,"name":"caruma","country":"ao","lat":-7.483333,"lon":17.0},{"id":370173,"name":"nzungu","country":"cd","lat":-6.533333,"lon":17.366667},{"id":3167243,"name":"nganga-sengo","country":"zr","lat":-6.9166667,"lon":17.4666667},{"id":3167910,"name":"nzungu","country":"zr","lat":-6.5333333,"lon":17.3666667},{"id":3159455,"name":"kikundula","country":"zr","lat":-6.6833333,"lon":17.45},{"id":362242,"name":"kingandu","country":"cd","lat":-6.833333,"lon":17.183333},{"id":362312,"name":"kingulu","country":"cd","lat":-6.683333,"lon":17.283333},{"id":3160054,"name":"kingunda","country":"zr","lat":-6.5666667,"lon":16.9666667},{"id":365920,"name":"mandamba","country":"cd","lat":-6.916667,"lon":17.433333},{"id":3159131,"name":"kibinga","country":"zr","lat":-6.6166667,"lon":17.4333333},{"id":123086,"name":"quipumbo","country":"ao","lat":-7.166667,"lon":16.633333},{"id":3163363,"name":"makonga","country":"zr","lat":-6.8166667,"lon":17.3166667},{"id":3168392,"name":"pelende","country":"zr","lat":-6.5333333,"lon":17.25},{"id":369309,"name":"napulumba","country":"cd","lat":-7.333333,"lon":17.333333},{"id":115362,"name":"fronteira","country":"ao","lat":-6.633333,"lon":16.533333},{"id":3169940,"name":"swa-kabeya","country":"zr","lat":-6.6833333,"lon":16.8333333},{"id":359194,"name":"kalambangete","country":"cd","lat":-6.5,"lon":16.983333},{"id":3166097,"name":"muni-mayala","country":"zr","lat":-7.0333333,"lon":17.4},{"id":373623,"name":"wamba-luadi","country":"cd","lat":-6.5,"lon":17.333333},{"id":3164866,"name":"mokenene","country":"zr","lat":-6.7666667,"lon":17.0},{"id":366159,"name":"masapo","country":"cd","lat":-6.933333,"lon":17.333333},{"id":3168574,"name":"pogoso","country":"zr","lat":-6.7666667,"lon":17.2},{"id":108933,"name":"cabaca","country":"ao","lat":-6.627547,"lon":16.531616},{"id":372214,"name":"swa-mutanda","country":"cd","lat":-7.283333,"lon":17.05},{"id":356128,"name":"dambu-mulombo","country":"cd","lat":-6.633333,"lon":16.866667},{"id":3159697,"name":"kimbala-twana","country":"zr","lat":-6.5833333,"lon":17.1},{"id":368261,"name":"mulundu","country":"cd","lat":-6.883333,"lon":16.916667},{"id":3171287,"name":"vufu","country":"zr","lat":-7.1166667,"lon":17.2666667},{"id":3170362,"name":"tseke-katu","country":"zr","lat":-6.7666667,"lon":16.9833333},{"id":3159917,"name":"kindamba","country":"zr","lat":-6.85,"lon":16.8666667},{"id":370951,"name":"puna","country":"cd","lat":-6.866667,"lon":17.166667},{"id":368982,"name":"mwana-uta-mungongo","country":"cd","lat":-6.85,"lon":17.183333},{"id":374696,"name":"yuku","country":"cd","lat":-6.55,"lon":16.95},{"id":117588,"name":"mabaca","country":"ao","lat":-7.420718,"lon":17.020972},{"id":369065,"name":"mwela","country":"cd","lat":-6.866667,"lon":17.05},{"id":354921,"name":"bongolo","country":"cd","lat":-6.6,"lon":16.766667},{"id":355519,"name":"buka-kalow","country":"cd","lat":-6.55,"lon":17.483333},{"id":122388,"name":"quimbulo","country":"ao","lat":-7.384273,"lon":17.05653},{"id":3167441,"name":"ngungu","country":"zr","lat":-6.7166667,"lon":17.3833333},{"id":369704,"name":"ngungu","country":"cd","lat":-6.716667,"lon":17.383333},{"id":108005,"name":"angando","country":"ao","lat":-6.533333,"lon":16.533333},{"id":3156931,"name":"kalambangete","country":"zr","lat":-6.5,"lon":16.9833333},{"id":373933,"name":"yalamu","country":"cd","lat":-6.616667,"lon":16.95},{"id":3166685,"name":"mwana-mudila","country":"zr","lat":-6.5666667,"lon":17.0333333},{"id":372206,"name":"swa-kalemba","country":"cd","lat":-6.966667,"lon":17.016667},{"id":371517,"name":"sefu","country":"cd","lat":-7.3,"lon":17.2},{"id":362261,"name":"kingete","country":"cd","lat":-6.5,"lon":16.966667},{"id":360236,"name":"kapuwa","country":"cd","lat":-6.666667,"lon":17.333333},{"id":3171670,"name":"yalamu","country":"zr","lat":-6.6166667,"lon":16.95},{"id":3169947,"name":"swa-kibula","country":"zr","lat":-7.2,"lon":16.9666667},{"id":361011,"name":"kazemba","country":"cd","lat":-6.833333,"lon":17.466667},{"id":116464,"name":"kapocolo","country":"ao","lat":-6.9,"lon":16.866667},{"id":115800,"name":"gungo","country":"ao","lat":-7.466667,"lon":16.716667},{"id":3150624,"name":"bangala","country":"zr","lat":-6.8166667,"lon":16.85},{"id":3167878,"name":"nzenga","country":"zr","lat":-6.5833333,"lon":17.2833333},{"id":3157854,"name":"kapanga","country":"zr","lat":-6.6166667,"lon":17.3333333},{"id":372215,"name":"swa-mutete","country":"cd","lat":-6.516667,"lon":16.766667},{"id":3159095,"name":"kibenga","country":"zr","lat":-7.15,"lon":17.4333333},{"id":372237,"name":"swa-yamfu","country":"cd","lat":-6.883333,"lon":17.333333},{"id":372210,"name":"swa-kibula","country":"cd","lat":-7.2,"lon":16.966667},{"id":370655,"name":"pelende","country":"cd","lat":-6.533333,"lon":17.25},{"id":3163715,"name":"mangambo","country":"zr","lat":-6.5833333,"lon":17.0333333},{"id":363110,"name":"kizanga","country":"cd","lat":-6.6,"lon":17.483333},{"id":3156744,"name":"kakabantu","country":"zr","lat":-6.5666667,"lon":17.4},{"id":3152659,"name":"bongolo","country":"zr","lat":-6.6,"lon":16.7666667},{"id":3154987,"name":"fwangongo","country":"zr","lat":-6.9833333,"lon":17.1},{"id":374803,"name":"zengamatari","country":"cd","lat":-7.366667,"lon":17.4},{"id":362317,"name":"kingunda","country":"cd","lat":-6.566667,"lon":16.966667},{"id":372198,"name":"swa-dungu","country":"cd","lat":-7.083333,"lon":16.95},{"id":118124,"name":"massau","country":"ao","lat":-7.230557,"lon":16.920768},{"id":115562,"name":"gimbango","country":"ao","lat":-6.936934,"lon":16.502753},{"id":358690,"name":"kabuiku","country":"cd","lat":-6.833333,"lon":17.416667},{"id":361947,"name":"kimbaka","country":"cd","lat":-6.633333,"lon":17.0},{"id":3168990,"name":"samasangu","country":"zr","lat":-7.4,"lon":17.2},{"id":361343,"name":"kibanzu","country":"cd","lat":-6.7,"lon":16.933333},{"id":109270,"name":"cacongo","country":"ao","lat":-7.365858,"lon":17.049753},{"id":3156533,"name":"kadiela","country":"zr","lat":-7.3833333,"lon":17.15},{"id":3159690,"name":"kimbala","country":"zr","lat":-6.55,"lon":16.8333333},{"id":3157973,"name":"kapuwa","country":"zr","lat":-6.6666667,"lon":17.3333333},{"id":122035,"name":"quilonda","country":"ao","lat":-7.383329,"lon":17.065386},{"id":372238,"name":"swa-yenga","country":"cd","lat":-7.05,"lon":16.966667},{"id":3166802,"name":"mwela","country":"zr","lat":-6.8666667,"lon":17.05},{"id":357250,"name":"fwangongo","country":"cd","lat":-6.983333,"lon":17.1},{"id":3153431,"name":"bungila","country":"zr","lat":-6.55,"lon":17.4833333},{"id":3157556,"name":"kanapumba","country":"zr","lat":-6.75,"lon":17.4833333},{"id":368514,"name":"musengo-konzo","country":"cd","lat":-6.6,"lon":16.9},{"id":365635,"name":"makongo-pindi","country":"cd","lat":-6.65,"lon":17.45},{"id":3153359,"name":"bulu mukanda","country":"zr","lat":-6.6,"lon":17.2833333},{"id":3159684,"name":"kimbaka","country":"zr","lat":-6.6333333,"lon":17.0},{"id":3159043,"name":"kibaki","country":"zr","lat":-6.7833333,"lon":17.4666667},{"id":365646,"name":"makua","country":"cd","lat":-7.0,"lon":17.316667},{"id":3169943,"name":"swa-kalemba","country":"zr","lat":-6.9666667,"lon":17.0166667},{"id":3160046,"name":"kingulo","country":"zr","lat":-6.6833333,"lon":17.2833333},{"id":3159373,"name":"kikobo","country":"zr","lat":-6.8,"lon":17.3833333},{"id":361985,"name":"kimbegete","country":"cd","lat":-7.133333,"lon":17.366667},{"id":367129,"name":"mokenene","country":"cd","lat":-6.766667,"lon":17.0},{"id":3166096,"name":"munikongo","country":"zr","lat":-6.5833333,"lon":17.3333333},{"id":3169974,"name":"swa-yamfu","country":"zr","lat":-6.8833333,"lon":17.3333333},{"id":360117,"name":"kapanga","country":"cd","lat":-6.616667,"lon":17.333333},{"id":370847,"name":"pokoso","country":"cd","lat":-6.766667,"lon":17.2},{"id":368936,"name":"mwana-ipala","country":"cd","lat":-6.716667,"lon":16.816667},{"id":3159979,"name":"kingandu","country":"zr","lat":-6.8333333,"lon":17.1833333},{"id":3161192,"name":"kulonda","country":"zr","lat":-7.0666667,"lon":17.3666667}]});