callback({"markets":[{"id":3157902,"name":"kapia","country":"zr","lat":-4.2833333,"lon":19.7666667},{"id":3154046,"name":"dilumbu","country":"zr","lat":-4.4666667,"lon":20.45},{"id":369890,"name":"nkoto","country":"cd","lat":-4.3,"lon":19.616667},{"id":352982,"name":"bantshione","country":"cd","lat":-4.316667,"lon":19.666667},{"id":373284,"name":"tumbalungu","country":"cd","lat":-4.066667,"lon":19.766667},{"id":372672,"name":"tshampare","country":"cd","lat":-4.4,"lon":19.633333},{"id":3154870,"name":"eyene","country":"zr","lat":-4.05,"lon":19.5166667},{"id":366949,"name":"miti-miti","country":"cd","lat":-4.2,"lon":19.933333},{"id":358098,"name":"indolo","country":"cd","lat":-4.1,"lon":19.916667},{"id":3155149,"name":"gelenkolo","country":"zr","lat":-4.0833333,"lon":19.8833333},{"id":370864,"name":"pombi ii","country":"cd","lat":-4.25,"lon":20.016667},{"id":374695,"name":"yuki","country":"cd","lat":-3.95,"lon":19.566667},{"id":3163489,"name":"malembe ii","country":"zr","lat":-4.3666667,"lon":20.2833333},{"id":356572,"name":"dongimana","country":"cd","lat":-3.733333,"lon":20.383333},{"id":3163757,"name":"mangulu i","country":"zr","lat":-4.3333333,"lon":20.1666667},{"id":3155370,"name":"gulungu","country":"zr","lat":-4.1333333,"lon":19.5666667},{"id":352779,"name":"bambudi","country":"cd","lat":-4.3,"lon":19.933333},{"id":369695,"name":"ngulungu","country":"cd","lat":-4.233333,"lon":19.683333},{"id":3150650,"name":"bangende","country":"zr","lat":-4.2333333,"lon":19.8166667},{"id":3150517,"name":"bambudi","country":"zr","lat":-4.3,"lon":19.9333333},{"id":353478,"name":"bena-bendi","country":"cd","lat":-4.283333,"lon":20.35},{"id":3172430,"name":"yuki kengundu","country":"zr","lat":-3.95,"lon":19.5666667},{"id":3155144,"name":"gelelongo","country":"zr","lat":-4.3,"lon":20.0666667},{"id":365907,"name":"mampuya","country":"cd","lat":-4.266667,"lon":20.383333},{"id":369922,"name":"nongempila","country":"cd","lat":-3.516667,"lon":19.733333},{"id":3164170,"name":"mayili","country":"zr","lat":-4.4,"lon":19.5833333},{"id":3168321,"name":"pangu","country":"zr","lat":-4.2166667,"lon":19.9833333},{"id":358180,"name":"ipamu","country":"cd","lat":-4.15,"lon":19.633333},{"id":3151646,"name":"binko-musese","country":"zr","lat":-4.2833333,"lon":19.8833333},{"id":3150532,"name":"bampumbu-mtinda","country":"zr","lat":-4.35,"lon":19.65},{"id":3155835,"name":"indolo","country":"zr","lat":-4.1,"lon":19.9166667},{"id":359246,"name":"kalembe-mpata","country":"cd","lat":-4.416667,"lon":20.416667},{"id":367117,"name":"mo-kantsulu","country":"cd","lat":-4.483333,"lon":19.716667},{"id":3172599,"name":"zulubanga","country":"zr","lat":-4.4333333,"lon":19.5333333},{"id":373165,"name":"tshongetsha","country":"cd","lat":-4.25,"lon":19.633333},{"id":356222,"name":"dibaya","country":"cd","lat":-4.15,"lon":19.866667},{"id":3150720,"name":"bantshione","country":"zr","lat":-4.3166667,"lon":19.6666667},{"id":367250,"name":"mombi","country":"cd","lat":-4.266667,"lon":20.166667},{"id":3151052,"name":"bayenga","country":"zr","lat":-3.9166667,"lon":20.3166667},{"id":369564,"name":"ngenkong","country":"cd","lat":-4.333333,"lon":19.716667},{"id":3167343,"name":"ngoie","country":"zr","lat":-4.4,"lon":20.2},{"id":3161978,"name":"lokori i","country":"zr","lat":-3.6833333,"lon":20.45},{"id":370866,"name":"pombi","country":"cd","lat":-4.183333,"lon":20.066667},{"id":357866,"name":"ikala","country":"cd","lat":-3.516667,"lon":19.833333},{"id":353908,"name":"binko-musese","country":"cd","lat":-4.283333,"lon":19.883333},{"id":3156980,"name":"kalembe-ditu","country":"zr","lat":-4.4333333,"lon":20.4333333},{"id":360922,"name":"kayamba","country":"cd","lat":-4.35,"lon":20.1},{"id":3168603,"name":"pombi","country":"zr","lat":-4.1833333,"lon":20.0666667},{"id":365752,"name":"malembe ii","country":"cd","lat":-4.366667,"lon":20.283333},{"id":355709,"name":"bunianga ii","country":"cd","lat":-3.55,"lon":20.1},{"id":3163545,"name":"malonga-bwanga","country":"zr","lat":-4.4166667,"lon":20.2333333},{"id":360165,"name":"kapia","country":"cd","lat":-4.283333,"lon":19.766667},{"id":352912,"name":"bangende","country":"cd","lat":-4.233333,"lon":19.816667},{"id":3157308,"name":"kambangi","country":"zr","lat":-4.2333333,"lon":19.9833333},{"id":3172273,"name":"yelu i","country":"zr","lat":-3.7166667,"lon":20.3},{"id":353813,"name":"bihumbu","country":"cd","lat":-4.466667,"lon":20.45},{"id":366821,"name":"mikwem","country":"cd","lat":-4.416667,"lon":19.783333},{"id":3161977,"name":"lokori ii","country":"zr","lat":-3.6333333,"lon":20.4833333},{"id":365808,"name":"malonga-bwanga","country":"cd","lat":-4.416667,"lon":20.233333},{"id":3157637,"name":"kangara","country":"zr","lat":-3.6833333,"lon":20.2666667},{"id":3164686,"name":"miti-miti","country":"zr","lat":-4.2,"lon":19.9333333},{"id":369858,"name":"nkolenkema","country":"cd","lat":-4.1,"lon":20.283333},{"id":3156983,"name":"kalembe-mpata","country":"zr","lat":-4.4166667,"lon":20.4166667},{"id":357412,"name":"gelenkolo","country":"cd","lat":-4.083333,"lon":19.883333},{"id":3151216,"name":"bena-bendi","country":"zr","lat":-4.2833333,"lon":20.35},{"id":362995,"name":"kitshua-nseke","country":"cd","lat":-4.433333,"lon":19.6},{"id":365758,"name":"malembe","country":"cd","lat":-4.283333,"lon":20.25},{"id":3160732,"name":"kitshua-nseke","country":"zr","lat":-4.4333333,"lon":19.6},{"id":364241,"name":"lokori i","country":"cd","lat":-3.683333,"lon":20.45},{"id":3163834,"name":"mapangu","country":"zr","lat":-4.4166667,"lon":20.3333333},{"id":370407,"name":"onko ii","country":"cd","lat":-4.166667,"lon":19.933333},{"id":3164558,"name":"mikwem","country":"zr","lat":-4.4166667,"lon":19.7833333},{"id":3154482,"name":"ebiale-fioti","country":"zr","lat":-4.3166667,"lon":19.5666667},{"id":3154320,"name":"dongolokwa","country":"zr","lat":-4.1166667,"lon":20.35},{"id":365963,"name":"mangai","country":"cd","lat":-4.05,"lon":19.533333},{"id":366424,"name":"mayaya-moke","country":"cd","lat":-4.2,"lon":20.016667},{"id":3170904,"name":"tshongopiopio","country":"zr","lat":-4.3833333,"lon":19.6},{"id":360323,"name":"kasanga","country":"cd","lat":-4.233333,"lon":20.416667},{"id":3150702,"name":"bankumuna","country":"zr","lat":-4.4666667,"lon":19.95},{"id":3164854,"name":"mo-kantsulu","country":"zr","lat":-4.4833333,"lon":19.7166667},{"id":359900,"name":"kangara","country":"cd","lat":-3.683333,"lon":20.266667},{"id":3163495,"name":"malembe","country":"zr","lat":-4.2833333,"lon":20.25},{"id":3164598,"name":"mimengo","country":"zr","lat":-4.45,"lon":20.2833333},{"id":3168601,"name":"pombi ii","country":"zr","lat":-4.25,"lon":20.0166667},{"id":357408,"name":"gelelungu","country":"cd","lat":-4.3,"lon":20.066667},{"id":366425,"name":"mayaya-monene","country":"cd","lat":-4.216667,"lon":20.416667},{"id":3164987,"name":"mombi","country":"zr","lat":-4.2666667,"lon":20.1666667},{"id":3169739,"name":"singula","country":"zr","lat":-4.35,"lon":20.4666667},{"id":366861,"name":"mimengo","country":"cd","lat":-4.45,"lon":20.283333},{"id":372002,"name":"singula","country":"cd","lat":-4.35,"lon":20.466667},{"id":366602,"name":"mbiyo","country":"cd","lat":-4.216667,"lon":19.633333},{"id":356810,"name":"egundela","country":"cd","lat":-3.833333,"lon":20.4},{"id":3150701,"name":"bankoko ii","country":"zr","lat":-4.1333333,"lon":19.7833333},{"id":3167662,"name":"nongendjale","country":"zr","lat":-3.5166667,"lon":19.7},{"id":3154548,"name":"egundela","country":"zr","lat":-3.8333333,"lon":20.4},{"id":3164339,"name":"mbiyo","country":"zr","lat":-4.2166667,"lon":19.6333333},{"id":369925,"name":"nongendjale","country":"cd","lat":-3.516667,"lon":19.7},{"id":3167667,"name":"nongimfuru","country":"zr","lat":-3.7333333,"lon":20.4333333},{"id":3170409,"name":"tshampare","country":"zr","lat":-4.4,"lon":19.6333333},{"id":363183,"name":"kole-kole","country":"cd","lat":-4.25,"lon":19.916667},{"id":3153964,"name":"dibaya lubue","country":"zr","lat":-4.15,"lon":19.8666667},{"id":3153786,"name":"bweto","country":"zr","lat":-4.3166667,"lon":20.0166667},{"id":3167592,"name":"nkolebeloi","country":"zr","lat":-4.15,"lon":20.1666667},{"id":3160920,"name":"kole-kole","country":"zr","lat":-4.25,"lon":19.9166667},{"id":366019,"name":"mangulu ii","country":"cd","lat":-4.266667,"lon":20.216667},{"id":370584,"name":"pangu","country":"cd","lat":-4.216667,"lon":19.983333},{"id":369923,"name":"nongempulu","country":"cd","lat":-3.733333,"lon":20.433333},{"id":3156373,"name":"kabombo","country":"zr","lat":-4.3333333,"lon":20.0666667},{"id":355708,"name":"bunianga i","country":"cd","lat":-3.566667,"lon":20.15},{"id":3168144,"name":"onko ii","country":"zr","lat":-4.1666667,"lon":19.9333333},{"id":3150531,"name":"bampumbu","country":"zr","lat":-4.35,"lon":19.7333333},{"id":363676,"name":"lako fioto","country":"cd","lat":-4.416667,"lon":19.65},{"id":355221,"name":"boteke-moke","country":"cd","lat":-4.2,"lon":20.283333},{"id":370408,"name":"onko","country":"cd","lat":-4.116667,"lon":19.983333},{"id":358636,"name":"kabombo","country":"cd","lat":-4.333333,"lon":20.066667},{"id":3167659,"name":"nongempila","country":"zr","lat":-3.5166667,"lon":19.7333333},{"id":3171021,"name":"tumbalungu","country":"zr","lat":-4.0666667,"lon":19.7666667},{"id":3167301,"name":"ngenkong","country":"zr","lat":-4.3333333,"lon":19.7166667},{"id":3163756,"name":"mangulu ii","country":"zr","lat":-4.2666667,"lon":20.2166667},{"id":3167627,"name":"nkoto","country":"zr","lat":-4.3,"lon":19.6166667},{"id":366097,"name":"mapangu","country":"cd","lat":-4.416667,"lon":20.333333},{"id":3153446,"name":"bunianga i","country":"zr","lat":-3.5666667,"lon":20.15},{"id":3164162,"name":"mayaya-monene","country":"zr","lat":-4.2166667,"lon":20.4166667},{"id":360412,"name":"kasesanga","country":"cd","lat":-4.45,"lon":20.016667},{"id":359243,"name":"kalembe-ditu","country":"cd","lat":-4.433333,"lon":20.433333},{"id":363757,"name":"lele","country":"cd","lat":-4.333333,"lon":20.166667},{"id":3167432,"name":"ngulungu","country":"zr","lat":-4.2333333,"lon":19.6833333},{"id":359571,"name":"kambangi","country":"cd","lat":-4.233333,"lon":19.983333},{"id":373167,"name":"tshongopiopio","country":"cd","lat":-4.383333,"lon":19.6},{"id":352793,"name":"bampumbu","country":"cd","lat":-4.35,"lon":19.733333},{"id":3161413,"name":"lako fioto","country":"zr","lat":-4.4166667,"lon":19.65},{"id":3154310,"name":"dongimana","country":"zr","lat":-3.7333333,"lon":20.3833333},{"id":374861,"name":"zuluanga","country":"cd","lat":-4.433333,"lon":19.533333},{"id":3163700,"name":"mangai","country":"zr","lat":-4.05,"lon":19.5333333},{"id":3172271,"name":"yelo","country":"zr","lat":-3.6333333,"lon":20.25},{"id":360445,"name":"kashimba","country":"cd","lat":-4.4,"lon":20.15},{"id":352964,"name":"bankumuna","country":"cd","lat":-4.466667,"lon":19.95},{"id":3163644,"name":"mampuya","country":"zr","lat":-4.2666667,"lon":20.3833333},{"id":3152959,"name":"boteke-moke","country":"zr","lat":-4.2,"lon":20.2833333},{"id":3158060,"name":"kasanga","country":"zr","lat":-4.2333333,"lon":20.4166667},{"id":3155917,"name":"ipamu","country":"zr","lat":-4.15,"lon":19.6333333},{"id":3158149,"name":"kasesanga","country":"zr","lat":-4.45,"lon":20.0166667},{"id":357132,"name":"eyene","country":"cd","lat":-4.05,"lon":19.516667},{"id":356744,"name":"ebiale-fioti","country":"cd","lat":-4.316667,"lon":19.566667},{"id":3170902,"name":"tshongetsha","country":"zr","lat":-4.25,"lon":19.6333333},{"id":356582,"name":"dongolokwa","country":"cd","lat":-4.116667,"lon":20.35},{"id":3164161,"name":"mayaya-moke","country":"zr","lat":-4.2,"lon":20.0166667},{"id":369855,"name":"nkolebeloi","country":"cd","lat":-4.15,"lon":20.166667},{"id":374535,"name":"yelu ii","country":"cd","lat":-3.633333,"lon":20.25},{"id":357633,"name":"gulungu","country":"cd","lat":-4.133333,"lon":19.566667},{"id":364240,"name":"lokori ii","country":"cd","lat":-3.633333,"lon":20.483333},{"id":353314,"name":"bayenga","country":"cd","lat":-3.916667,"lon":20.316667},{"id":356048,"name":"bweto","country":"cd","lat":-4.316667,"lon":20.016667},{"id":3160944,"name":"kolonkema","country":"zr","lat":-4.1,"lon":20.2833333},{"id":3168145,"name":"onko","country":"zr","lat":-4.1166667,"lon":19.9833333},{"id":366433,"name":"mayili","country":"cd","lat":-4.4,"lon":19.583333},{"id":374536,"name":"yelu i","country":"cd","lat":-3.716667,"lon":20.3},{"id":352963,"name":"bankoko ii","country":"cd","lat":-4.133333,"lon":19.783333},{"id":3155603,"name":"ikala","country":"zr","lat":-3.5166667,"lon":19.8333333}]});