callback({"markets":[{"id":286231,"name":"agua amarela","country":"br","lat":-5.766667,"lon":-48.05},{"id":294071,"name":"carrasco","country":"br","lat":-6.383333,"lon":-47.75},{"id":289898,"name":"barreiro","country":"br","lat":-5.7,"lon":-48.116667},{"id":296188,"name":"croata","country":"br","lat":-5.7,"lon":-48.033333},{"id":315412,"name":"santa terezinha","country":"br","lat":-5.666667,"lon":-48.1},{"id":297453,"name":"espinhal","country":"br","lat":-5.583333,"lon":-48.183333},{"id":316804,"name":"sao paulo","country":"br","lat":-5.716667,"lon":-48.166667},{"id":288168,"name":"assaizal","country":"br","lat":-6.433333,"lon":-48.383333},{"id":315939,"name":"sao domingos","country":"br","lat":-5.733333,"lon":-47.5},{"id":316713,"name":"sao mateus","country":"br","lat":-5.65,"lon":-48.166667},{"id":294681,"name":"chambivas","country":"br","lat":-6.4325,"lon":-48.381944},{"id":288388,"name":"bacuri","country":"br","lat":-5.766667,"lon":-47.8},{"id":312982,"name":"rebojo","country":"br","lat":-6.166667,"lon":-48.333333},{"id":314152,"name":"ronca","country":"br","lat":-5.983333,"lon":-48.116667},{"id":315765,"name":"sao bento do tocantins","country":"br","lat":-5.872222,"lon":-47.831389},{"id":313355,"name":"riachinho","country":"br","lat":-6.433333,"lon":-48.133333},{"id":308637,"name":"padre","country":"br","lat":-6.316667,"lon":-48.433333},{"id":292120,"name":"cachoeirinha","country":"br","lat":-6.0525,"lon":-47.749444},{"id":314935,"name":"santa isabel do araguaia","country":"br","lat":-6.116667,"lon":-48.316667},{"id":307062,"name":"morada nova","country":"br","lat":-6.466667,"lon":-48.283333},{"id":286623,"name":"aldeia velha","country":"br","lat":-6.033333,"lon":-48.3},{"id":328923,"name":"vitoria","country":"br","lat":-5.966667,"lon":-48.033333},{"id":293663,"name":"capoeira","country":"br","lat":-5.95,"lon":-48.216667},{"id":302358,"name":"jacarezinho","country":"br","lat":-5.983333,"lon":-48.333333},{"id":317131,"name":"sao vicente","country":"br","lat":-5.600278,"lon":-47.933056},{"id":287455,"name":"antonio borges","country":"br","lat":-6.2,"lon":-48.416667},{"id":295447,"name":"compina","country":"br","lat":-5.8,"lon":-48.333333},{"id":307589,"name":"natal","country":"br","lat":-5.832778,"lon":-48.001944},{"id":311308,"name":"pontal","country":"br","lat":-5.933333,"lon":-47.683333},{"id":317196,"name":"sapucaia","country":"br","lat":-5.55,"lon":-47.583333},{"id":316893,"name":"sao raimundo","country":"br","lat":-6.416667,"lon":-48.116667},{"id":287216,"name":"ananas","country":"br","lat":-6.360278,"lon":-47.91},{"id":287442,"name":"antonina","country":"br","lat":-6.1,"lon":-48.333333},{"id":287324,"name":"angico","country":"br","lat":-6.401389,"lon":-47.693611},{"id":316509,"name":"sao jose dos martirios","country":"br","lat":-6.333333,"lon":-48.366667},{"id":288316,"name":"axixa do tocantins","country":"br","lat":-5.551111,"lon":-47.595556},{"id":299442,"name":"fortaleza","country":"br","lat":-5.983333,"lon":-48.133333},{"id":308309,"name":"olho d\u0027agua","country":"br","lat":-6.466667,"lon":-48.35},{"id":301226,"name":"ilha sao vicente","country":"br","lat":-5.616667,"lon":-48.133333},{"id":297804,"name":"falcao","country":"br","lat":-5.933333,"lon":-48.216667},{"id":315814,"name":"sao bonto","country":"br","lat":-5.5,"lon":-48.35},{"id":295773,"name":"corda","country":"br","lat":-6.466667,"lon":-48.216667}]});