callback({"markets":[{"id":728459,"name":"blumenau","country":"de","lat":49.556667,"lon":8.468333},{"id":761597,"name":"medenbach","country":"de","lat":50.1,"lon":8.333333},{"id":729234,"name":"borrstadt","country":"de","lat":49.583333,"lon":7.95},{"id":757301,"name":"lampertheim","country":"de","lat":49.601944,"lon":8.471944},{"id":790677,"name":"wingsbach","country":"de","lat":50.166667,"lon":8.15},{"id":726812,"name":"bennhausen","country":"de","lat":49.616667,"lon":7.983333},{"id":788845,"name":"weisenau","country":"de","lat":49.978056,"lon":8.297778},{"id":779134,"name":"schweinschied","country":"de","lat":49.7,"lon":7.566667},{"id":769768,"name":"oranienstein","country":"de","lat":50.383333,"lon":8.016667},{"id":759346,"name":"lipporn","country":"de","lat":50.133333,"lon":7.866667},{"id":759670,"name":"lohnsfeld","country":"de","lat":49.55,"lon":7.85},{"id":788772,"name":"weinahr","country":"de","lat":50.316667,"lon":7.85},{"id":727668,"name":"biebrich","country":"de","lat":50.05,"lon":8.25},{"id":766648,"name":"niederwallmenach","country":"de","lat":50.166667,"lon":7.816667},{"id":768055,"name":"oberkestert","country":"de","lat":50.183333,"lon":7.65},{"id":735742,"name":"eisenberg","country":"de","lat":49.565833,"lon":8.07},{"id":739904,"name":"gau-bischofsheim","country":"de","lat":49.915833,"lon":8.272778},{"id":727212,"name":"bermersheim","country":"de","lat":49.681944,"lon":8.223611},{"id":736674,"name":"erbach","country":"de","lat":50.033333,"lon":7.683333},{"id":760754,"name":"mallendar","country":"de","lat":50.4,"lon":7.616667},{"id":752088,"name":"kapellen stolzenfels","country":"de","lat":50.3,"lon":7.6},{"id":736975,"name":"erzenhausen","country":"de","lat":49.5,"lon":7.616667},{"id":759250,"name":"lingerhahn","country":"de","lat":50.1,"lon":7.566667},{"id":724547,"name":"arenberg-immendorf","country":"de","lat":50.366667,"lon":7.65},{"id":773322,"name":"reckweilerhof","country":"de","lat":49.616667,"lon":7.616667},{"id":748296,"name":"hochstein","country":"de","lat":49.583333,"lon":7.85},{"id":771095,"name":"pfalzfeld","country":"de","lat":50.116667,"lon":7.583333},{"id":736443,"name":"engenhahn","country":"de","lat":50.166667,"lon":8.25},{"id":737848,"name":"felsbergerhof","country":"de","lat":49.6,"lon":7.75},{"id":735051,"name":"edigheim","country":"de","lat":49.531667,"lon":8.384167},{"id":780364,"name":"singhofen","country":"de","lat":50.283333,"lon":7.833333},{"id":751412,"name":"jmetshausen","country":"de","lat":49.583333,"lon":7.616667},{"id":756068,"name":"kratzenburg","country":"de","lat":50.183333,"lon":7.55},{"id":787932,"name":"walluf","country":"de","lat":50.05,"lon":8.15},{"id":760697,"name":"maisborn","country":"de","lat":50.083333,"lon":7.583333},{"id":747786,"name":"himmighofen","country":"de","lat":50.216667,"lon":7.766667},{"id":727321,"name":"berod","country":"de","lat":50.483333,"lon":7.933333},{"id":724858,"name":"assmannshausen","country":"de","lat":50.0,"lon":7.866667},{"id":788984,"name":"weitersweiler","country":"de","lat":49.616667,"lon":8.0},{"id":764226,"name":"naunstadt","country":"de","lat":50.383333,"lon":8.45},{"id":787493,"name":"wahlheim","country":"de","lat":49.717778,"lon":8.106111},{"id":785898,"name":"untershausen","country":"de","lat":50.4,"lon":7.85},{"id":724699,"name":"arzbach","country":"de","lat":50.366667,"lon":7.75},{"id":773817,"name":"reiterhof","country":"de","lat":49.6,"lon":7.85},{"id":774062,"name":"rettert","country":"de","lat":50.233333,"lon":7.933333},{"id":735280,"name":"ehrenbach","country":"de","lat":50.2,"lon":8.216667},{"id":746508,"name":"heinzenthal","country":"de","lat":49.533333,"lon":7.9},{"id":746875,"name":"hennethal","country":"de","lat":50.233333,"lon":8.116667},{"id":723331,"name":"alsheim","country":"de","lat":49.768056,"lon":8.340278},{"id":776969,"name":"schafhausen","country":"de","lat":49.759722,"lon":8.15},{"id":790197,"name":"wiesweiler","country":"de","lat":49.633333,"lon":7.566667},{"id":775286,"name":"rosengarten","country":"de","lat":49.635278,"lon":8.398889},{"id":738307,"name":"florsheim","country":"de","lat":50.016667,"lon":8.433333},{"id":746130,"name":"hefersweiler","country":"de","lat":49.6,"lon":7.683333},{"id":728583,"name":"bockenheim","country":"de","lat":49.606389,"lon":8.181944},{"id":791897,"name":"wustems","country":"de","lat":50.25,"lon":8.383333},{"id":739926,"name":"gau-kongernheim","country":"de","lat":49.773333,"lon":8.187778},{"id":766175,"name":"niederhadamar","country":"de","lat":50.433333,"lon":8.033333},{"id":774191,"name":"rheinbollen","country":"de","lat":50.016667,"lon":7.666667},{"id":762041,"name":"mermicherhof","country":"de","lat":50.183333,"lon":7.583333},{"id":765984,"name":"niederbachheim","country":"de","lat":50.25,"lon":7.766667},{"id":759835,"name":"lorzweiler","country":"de","lat":49.898333,"lon":8.294722},{"id":750211,"name":"hunoldstal","country":"de","lat":50.3,"lon":8.466667},{"id":757865,"name":"laubach","country":"de","lat":50.05,"lon":7.5},{"id":778159,"name":"schneidhain","country":"de","lat":50.166667,"lon":8.45},{"id":727664,"name":"biebesheim","country":"de","lat":49.783611,"lon":8.474444},{"id":781563,"name":"steinbach am donnersberg","country":"de","lat":49.6,"lon":7.95},{"id":755562,"name":"konigstein","country":"de","lat":50.183333,"lon":8.466667},{"id":728517,"name":"bobenheim","country":"de","lat":49.5875,"lon":8.357778},{"id":742469,"name":"grolsheim","country":"de","lat":49.9,"lon":7.916667},{"id":747660,"name":"hilgenroth","country":"de","lat":50.133333,"lon":7.933333},{"id":729912,"name":"breitscheid","country":"de","lat":50.05,"lon":7.7},{"id":772971,"name":"ransbach","country":"de","lat":50.466667,"lon":7.733333},{"id":763114,"name":"monsheim","country":"de","lat":49.637222,"lon":8.211944},{"id":758080,"name":"lay","country":"de","lat":50.316667,"lon":7.55},{"id":750227,"name":"hunzel","country":"de","lat":50.25,"lon":7.833333},{"id":738741,"name":"freienfels","country":"de","lat":50.45,"lon":8.3},{"id":763031,"name":"mommenheim","country":"de","lat":49.880278,"lon":8.265},{"id":731687,"name":"christianshutte","country":"de","lat":50.45,"lon":8.2},{"id":763396,"name":"mottau","country":"de","lat":50.45,"lon":8.4},{"id":769025,"name":"oberweyer","country":"de","lat":50.45,"lon":8.1},{"id":767993,"name":"oberhub","country":"de","lat":49.916667,"lon":7.716667},{"id":779009,"name":"schwarzerden","country":"de","lat":49.85,"lon":7.516667},{"id":763288,"name":"morsbacherhof","country":"de","lat":49.7,"lon":7.816667},{"id":778872,"name":"schwallschied","country":"de","lat":50.183333,"lon":7.916667},{"id":749317,"name":"holzhausen","country":"de","lat":50.216667,"lon":7.916667},{"id":749103,"name":"holler","country":"de","lat":50.416667,"lon":7.833333},{"id":788138,"name":"warmsroth","country":"de","lat":49.95,"lon":7.783333},{"id":768786,"name":"oberstaufenbach","country":"de","lat":49.516667,"lon":7.516667},{"id":748242,"name":"hochheim","country":"de","lat":49.649444,"lon":8.331111},{"id":745624,"name":"hasselbach","country":"de","lat":50.333333,"lon":8.35},{"id":748195,"name":"hochborn","country":"de","lat":49.723889,"lon":8.200833},{"id":746152,"name":"hegewiese","country":"de","lat":50.25,"lon":8.466667},{"id":727887,"name":"bingert","country":"de","lat":49.783333,"lon":7.8},{"id":788975,"name":"weitersburg","country":"de","lat":50.416667,"lon":7.6},{"id":737684,"name":"faulbach","country":"de","lat":50.45,"lon":8.066667},{"id":781060,"name":"sprendlingen","country":"de","lat":49.866667,"lon":7.983333},{"id":738553,"name":"frankenthal","country":"de","lat":49.537222,"lon":8.355},{"id":748064,"name":"hirschberg","country":"de","lat":50.383333,"lon":7.933333},{"id":735119,"name":"egenroth","country":"de","lat":50.183333,"lon":7.95},{"id":782617,"name":"struthof","country":"de","lat":49.9,"lon":7.666667},{"id":776015,"name":"ruppertshofen","country":"de","lat":50.2,"lon":7.8},{"id":740538,"name":"gerolsheim","country":"de","lat":49.547778,"lon":8.263889},{"id":747267,"name":"herschwiesen","country":"de","lat":50.2,"lon":7.5},{"id":783569,"name":"thalheim","country":"de","lat":50.483333,"lon":8.016667},{"id":735304,"name":"ehrenthal","country":"de","lat":50.166667,"lon":7.666667},{"id":732095,"name":"dahlheim","country":"de","lat":50.2,"lon":7.7},{"id":727435,"name":"bettendorf","country":"de","lat":50.233333,"lon":7.866667},{"id":730622,"name":"buchenau","country":"de","lat":50.2,"lon":7.6},{"id":740120,"name":"geinsheim","country":"de","lat":49.879722,"lon":8.394444},{"id":773300,"name":"reckenthal","country":"de","lat":50.416667,"lon":7.866667},{"id":759089,"name":"limburg an der lahn","country":"de","lat":50.383333,"lon":8.05},{"id":725896,"name":"bannberscheid","country":"de","lat":50.466667,"lon":7.833333},{"id":762357,"name":"miehlen","country":"de","lat":50.216667,"lon":7.833333},{"id":763968,"name":"mutterschied","country":"de","lat":49.983333,"lon":7.566667},{"id":776924,"name":"schadeck","country":"de","lat":50.4,"lon":8.166667},{"id":787832,"name":"wallau","country":"de","lat":50.066667,"lon":8.366667},{"id":757754,"name":"langweiler","country":"de","lat":49.666667,"lon":7.516667},{"id":743886,"name":"gumbsheim","country":"de","lat":49.816667,"lon":7.983333},{"id":758389,"name":"leiselheim","country":"de","lat":49.633333,"lon":8.3},{"id":757986,"name":"laurenziberg","country":"de","lat":49.933333,"lon":8.0},{"id":771202,"name":"pfrimmerhof","country":"de","lat":49.55,"lon":7.966667},{"id":773630,"name":"reifenthal","country":"de","lat":50.133333,"lon":7.55},{"id":780668,"name":"sonnenberg","country":"de","lat":50.1,"lon":8.266667},{"id":787957,"name":"walsdorf","country":"de","lat":50.266667,"lon":8.283333},{"id":773298,"name":"reckenroth","country":"de","lat":50.216667,"lon":8.016667},{"id":740822,"name":"gimbsheim","country":"de","lat":49.777778,"lon":8.375},{"id":735564,"name":"eigenheim","country":"de","lat":50.1,"lon":8.25},{"id":727884,"name":"bingen","country":"de","lat":49.966667,"lon":7.9},{"id":723042,"name":"albisheim","country":"de","lat":49.649444,"lon":8.096667},{"id":735785,"name":"eisighofen","country":"de","lat":50.233333,"lon":8.016667},{"id":724576,"name":"argenthal","country":"de","lat":49.966667,"lon":7.6},{"id":769511,"name":"ohlweiler","country":"de","lat":49.966667,"lon":7.5},{"id":763347,"name":"moschheim","country":"de","lat":50.483333,"lon":7.833333},{"id":739393,"name":"furfeld","country":"de","lat":49.783333,"lon":7.9},{"id":766044,"name":"niederburg","country":"de","lat":50.116667,"lon":7.7},{"id":788844,"name":"weisel","country":"de","lat":50.116667,"lon":7.8},{"id":737140,"name":"espenscheid","country":"de","lat":50.116667,"lon":7.9},{"id":769127,"name":"obrigheim","country":"de","lat":49.592222,"lon":8.204444},{"id":729871,"name":"breitenheim","country":"de","lat":49.7,"lon":7.633333},{"id":734980,"name":"eckweiler","country":"de","lat":49.85,"lon":7.616667},{"id":784332,"name":"treisberg","country":"de","lat":50.3,"lon":8.433333},{"id":733087,"name":"dienheim","country":"de","lat":49.837222,"lon":8.349722},{"id":761478,"name":"mauloff","country":"de","lat":50.283333,"lon":8.4},{"id":727243,"name":"berndroth","country":"de","lat":50.233333,"lon":7.966667},{"id":740310,"name":"genheim","country":"de","lat":49.933333,"lon":7.816667},{"id":775309,"name":"rosenthalerhof","country":"de","lat":49.5625,"lon":8.013611},{"id":784082,"name":"tongeshof","country":"de","lat":49.916667,"lon":8.25},{"id":729704,"name":"breckenheim","country":"de","lat":50.083333,"lon":8.366667},{"id":770918,"name":"petersau","country":"de","lat":49.571944,"lon":8.415},{"id":736210,"name":"elzweiler","country":"de","lat":49.583333,"lon":7.516667},{"id":738854,"name":"frettenheim","country":"de","lat":49.759722,"lon":8.244722},{"id":775997,"name":"ruppach","country":"de","lat":50.45,"lon":7.883333},{"id":751256,"name":"jeckenbach","country":"de","lat":49.716667,"lon":7.6},{"id":767393,"name":"oberbachheim","country":"de","lat":50.25,"lon":7.75},{"id":781613,"name":"stein-bockenheim","country":"de","lat":49.766667,"lon":7.966667},{"id":745135,"name":"hangen wahlheim","country":"de","lat":49.783333,"lon":8.333333},{"id":737611,"name":"falkenstein","country":"de","lat":50.2,"lon":8.483333},{"id":763792,"name":"munchweiler an der alsenz","country":"de","lat":49.55,"lon":7.883333},{"id":769438,"name":"offenheim","country":"de","lat":49.725556,"lon":8.030278},{"id":750767,"name":"ingelheim-sud","country":"de","lat":49.966667,"lon":8.05},{"id":727886,"name":"bingerbruck","country":"de","lat":49.966667,"lon":7.883333},{"id":726414,"name":"becherbach","country":"de","lat":49.65,"lon":7.683333},{"id":749740,"name":"horschbach","country":"de","lat":49.583333,"lon":7.533333},{"id":757589,"name":"langenlonsheim","country":"de","lat":49.9,"lon":7.9},{"id":770140,"name":"osthofen","country":"de","lat":49.707778,"lon":8.328889},{"id":792660,"name":"zorn","country":"de","lat":50.166667,"lon":7.916667},{"id":772557,"name":"quirnheim","country":"de","lat":49.584444,"lon":8.126389},{"id":750707,"name":"imsbach","country":"de","lat":49.583333,"lon":7.883333},{"id":780842,"name":"spay","country":"de","lat":50.25,"lon":7.65},{"id":732041,"name":"dachsenhausen","country":"de","lat":50.25,"lon":7.733333},{"id":755674,"name":"kordorf","country":"de","lat":50.283333,"lon":7.916667},{"id":744114,"name":"gutenacker","country":"de","lat":50.316667,"lon":7.916667},{"id":787881,"name":"wallerstadten","country":"de","lat":49.903611,"lon":8.450833},{"id":763685,"name":"mulheim-karlich","country":"de","lat":50.383333,"lon":7.5},{"id":766908,"name":"nochern","country":"de","lat":50.166667,"lon":7.716667},{"id":761318,"name":"marxheim","country":"de","lat":50.066667,"lon":8.433333},{"id":756648,"name":"kubach","country":"de","lat":50.466667,"lon":8.3},{"id":739909,"name":"gaudernbach","country":"de","lat":50.466667,"lon":8.2},{"id":763303,"name":"morsch","country":"de","lat":49.549444,"lon":8.376944},{"id":757972,"name":"laukenmuhle","country":"de","lat":50.1,"lon":7.9},{"id":743951,"name":"gundersweiler","country":"de","lat":49.6,"lon":7.783333},{"id":738495,"name":"frankelbach","country":"de","lat":49.533333,"lon":7.633333},{"id":743255,"name":"gross-rohrheim","country":"de","lat":49.721111,"lon":8.482778},{"id":729197,"name":"bornich","country":"de","lat":50.133333,"lon":7.766667},{"id":764450,"name":"nenzhauserhof","country":"de","lat":50.1,"lon":7.6},{"id":726413,"name":"bechenheim","country":"de","lat":49.728611,"lon":8.003333},{"id":790867,"name":"wirbelau","country":"de","lat":50.45,"lon":8.233333},{"id":744378,"name":"hadamar","country":"de","lat":50.45,"lon":8.05},{"id":738297,"name":"flomborn","country":"de","lat":49.690556,"lon":8.149167},{"id":726977,"name":"bergenhausen","country":"de","lat":50.016667,"lon":7.566667},{"id":767926,"name":"ober-hilbersheim","country":"de","lat":49.9,"lon":8.028889},{"id":742126,"name":"grebenroth","country":"de","lat":50.2,"lon":7.933333},{"id":751383,"name":"jettenbach","country":"de","lat":49.533333,"lon":7.55},{"id":726256,"name":"battenberg","country":"de","lat":49.531667,"lon":8.138889},{"id":770355,"name":"otzweiler","country":"de","lat":49.716667,"lon":7.516667},{"id":727737,"name":"bierstadt","country":"de","lat":50.083688,"lon":8.286298},{"id":729620,"name":"braubach","country":"de","lat":50.283333,"lon":7.666667},{"id":761589,"name":"meddersheim","country":"de","lat":49.783333,"lon":7.616667},{"id":723169,"name":"allendorf","country":"de","lat":50.266667,"lon":8.0},{"id":790320,"name":"wildsachsen","country":"de","lat":50.116667,"lon":8.366667},{"id":760103,"name":"ludwigshafen am rhein-oppau","country":"de","lat":49.518611,"lon":8.398611},{"id":731150,"name":"burgsponheim","country":"de","lat":49.833333,"lon":7.716667},{"id":736278,"name":"emmershausen","country":"de","lat":50.366667,"lon":8.383333},{"id":769673,"name":"olsbrucken","country":"de","lat":49.533333,"lon":7.65},{"id":723314,"name":"alsbach","country":"de","lat":50.466667,"lon":7.666667},{"id":744596,"name":"hahnheim","country":"de","lat":49.860833,"lon":8.236944},{"id":787710,"name":"waldhilbersheim","country":"de","lat":49.9,"lon":7.833333},{"id":750172,"name":"hundstadt","country":"de","lat":50.366667,"lon":8.466667},{"id":776623,"name":"sankt julian-obereisenbach","country":"de","lat":49.616667,"lon":7.516667},{"id":766831,"name":"nievern","country":"de","lat":50.333333,"lon":7.683333},{"id":764227,"name":"nauort","country":"de","lat":50.466667,"lon":7.633333},{"id":788210,"name":"waschbacherhof","country":"de","lat":49.566667,"lon":7.883333},{"id":752803,"name":"kesselbach","country":"de","lat":50.216667,"lon":8.2},{"id":761534,"name":"mayence","country":"de","lat":50.0,"lon":8.271111},{"id":766262,"name":"niederjosbach","country":"de","lat":50.15,"lon":8.35},{"id":757955,"name":"laufenselden","country":"de","lat":50.216667,"lon":8.0},{"id":789961,"name":"wiebelsheim","country":"de","lat":50.083333,"lon":7.633333},{"id":740952,"name":"glashutten","country":"de","lat":50.216667,"lon":8.4},{"id":769037,"name":"oberwies","country":"de","lat":50.283333,"lon":7.783333},{"id":739284,"name":"frucht","country":"de","lat":50.316667,"lon":7.683333},{"id":771231,"name":"philippstein","country":"de","lat":50.483333,"lon":8.383333},{"id":766128,"name":"nieder-florsheim","country":"de","lat":49.650556,"lon":8.208611},{"id":778130,"name":"schneckenhausen","country":"de","lat":49.533333,"lon":7.75},{"id":733268,"name":"diez an der lahn","country":"de","lat":50.366667,"lon":8.016667},{"id":735624,"name":"eimsheim","country":"de","lat":49.795833,"lon":8.289444},{"id":765321,"name":"neuleiningen","country":"de","lat":49.541667,"lon":8.138889},{"id":763857,"name":"munster-sarmsheim","country":"de","lat":49.95,"lon":7.9},{"id":767240,"name":"nussbaum","country":"de","lat":49.8,"lon":7.616667},{"id":790566,"name":"wimmersbacherhof","country":"de","lat":49.95,"lon":7.5},{"id":743947,"name":"gundersheim","country":"de","lat":49.696111,"lon":8.2025},{"id":766221,"name":"niederhofheim","country":"de","lat":50.133333,"lon":8.483333},{"id":787621,"name":"waldbockelheim","country":"de","lat":49.816667,"lon":7.716667},{"id":767722,"name":"ober-florsheim","country":"de","lat":49.683056,"lon":8.155278},{"id":775841,"name":"rudolphskirchen","country":"de","lat":49.633333,"lon":7.716667},{"id":728677,"name":"bodenheim","country":"de","lat":49.935278,"lon":8.32},{"id":739924,"name":"gau-heppenheim","country":"de","lat":49.742222,"lon":8.173333},{"id":791336,"name":"wolfsheim","country":"de","lat":49.872222,"lon":8.039444},{"id":767229,"name":"nurnberger hof","country":"de","lat":50.066667,"lon":8.166667},{"id":749668,"name":"hornau","country":"de","lat":50.15,"lon":8.45},{"id":734174,"name":"dreisen","country":"de","lat":49.603333,"lon":8.010556},{"id":762515,"name":"misselberg","country":"de","lat":50.316667,"lon":7.766667},{"id":732817,"name":"desloch","country":"de","lat":49.716667,"lon":7.633333},{"id":739865,"name":"gass","country":"de","lat":50.0,"lon":7.5},{"id":732967,"name":"dichtelbach","country":"de","lat":50.0,"lon":7.7},{"id":782182,"name":"stockstadt am rhein","country":"de","lat":49.809444,"lon":8.472778},{"id":787472,"name":"wahlbach","country":"de","lat":50.0,"lon":7.6},{"id":788175,"name":"wartenberg-rohrbach","country":"de","lat":49.533333,"lon":7.85},{"id":725172,"name":"aulhausen","country":"de","lat":50.0,"lon":7.9},{"id":740858,"name":"ginsheim-gustavsburg","country":"de","lat":49.985833,"lon":8.3425},{"id":737750,"name":"feilbingert","country":"de","lat":49.766667,"lon":7.8},{"id":773758,"name":"reipoltskirchen","country":"de","lat":49.633333,"lon":7.666667},{"id":792676,"name":"zotzenheim","country":"de","lat":49.866667,"lon":7.966667},{"id":769228,"name":"odernheim","country":"de","lat":49.766667,"lon":7.7},{"id":753336,"name":"kisselbach","country":"de","lat":50.05,"lon":7.616667},{"id":757622,"name":"langenscheid","country":"de","lat":50.35,"lon":7.95},{"id":778216,"name":"schnorbach","country":"de","lat":49.983333,"lon":7.616667},{"id":771162,"name":"pfiffligheim","country":"de","lat":49.633333,"lon":8.316667},{"id":778141,"name":"schneebergerhof","country":"de","lat":49.683333,"lon":7.883333},{"id":744606,"name":"hahnweilerhof","country":"de","lat":49.6,"lon":7.916667},{"id":740857,"name":"ginsheim","country":"de","lat":49.974167,"lon":8.356667},{"id":749697,"name":"horn","country":"de","lat":50.05,"lon":7.533333},{"id":768843,"name":"obersulzen","country":"de","lat":49.568333,"lon":8.211389},{"id":773525,"name":"reichenbach","country":"de","lat":49.5,"lon":7.533333},{"id":767716,"name":"oberfischbach","country":"de","lat":50.25,"lon":7.95},{"id":724222,"name":"am roten berg","country":"de","lat":50.116667,"lon":8.333333},{"id":773091,"name":"rathskirchen","country":"de","lat":49.616667,"lon":7.716667},{"id":766619,"name":"niedertiefenbach","country":"de","lat":50.433333,"lon":8.133333},{"id":739899,"name":"gau-algesheim","country":"de","lat":49.965556,"lon":8.029444},{"id":724994,"name":"auen","country":"de","lat":49.833333,"lon":7.6},{"id":730052,"name":"breunigweiler","country":"de","lat":49.566667,"lon":7.966667},{"id":733957,"name":"dorsdorf","country":"de","lat":50.25,"lon":8.0},{"id":732131,"name":"daisbach","country":"de","lat":50.25,"lon":8.1},{"id":774397,"name":"riedrode","country":"de","lat":49.650556,"lon":8.496667},{"id":775171,"name":"rommersheim","country":"de","lat":49.823056,"lon":8.089444},{"id":741241,"name":"goellheim","country":"de","lat":49.595,"lon":8.050833},{"id":755941,"name":"kraftsolms","country":"de","lat":50.45,"lon":8.45},{"id":769232,"name":"odersbach","country":"de","lat":50.466667,"lon":8.25},{"id":790822,"name":"winzberg","country":"de","lat":50.033333,"lon":7.766667},{"id":789922,"name":"wicker","country":"de","lat":50.033333,"lon":8.4},{"id":735953,"name":"elkerhausen","country":"de","lat":50.416667,"lon":8.283333},{"id":752131,"name":"karbach","country":"de","lat":50.15,"lon":7.616667},{"id":730061,"name":"brey","country":"de","lat":50.266667,"lon":7.633333},{"id":776067,"name":"russelsheim","country":"de","lat":49.9925,"lon":8.435},{"id":764474,"name":"nerzweiler","country":"de","lat":49.6,"lon":7.55},{"id":736915,"name":"ernsthausen","country":"de","lat":50.45,"lon":8.35},{"id":735812,"name":"eitelborn","country":"de","lat":50.366667,"lon":7.716667},{"id":742109,"name":"graveneck","country":"de","lat":50.45,"lon":8.266667},{"id":761651,"name":"mehlbach","country":"de","lat":49.516667,"lon":7.716667},{"id":728515,"name":"bobenheim am berg","country":"de","lat":49.524167,"lon":8.151111},{"id":747692,"name":"hillesheim","country":"de","lat":49.776389,"lon":8.256111},{"id":747438,"name":"hettenleidelheim","country":"de","lat":49.535556,"lon":8.073611},{"id":737172,"name":"essenheim","country":"de","lat":49.930556,"lon":8.155556},{"id":741888,"name":"grafenbacherhutte","country":"de","lat":49.916667,"lon":7.666667},{"id":764738,"name":"neudorf","country":"de","lat":50.366667,"lon":7.633333},{"id":754504,"name":"klein-winternheim","country":"de","lat":49.938333,"lon":8.211944},{"id":789345,"name":"werlau","country":"de","lat":50.15,"lon":7.683333},{"id":736374,"name":"engeholl","country":"de","lat":50.1,"lon":7.716667},{"id":752678,"name":"kemmenau","country":"de","lat":50.35,"lon":7.75},{"id":743597,"name":"grumbach","country":"de","lat":49.65,"lon":7.566667},{"id":780167,"name":"siershahn","country":"de","lat":50.483333,"lon":7.8},{"id":741520,"name":"gorgeshausen","country":"de","lat":50.416667,"lon":7.95},{"id":750958,"name":"isenburg","country":"de","lat":50.483333,"lon":7.6},{"id":767447,"name":"oberbieber","country":"de","lat":50.483333,"lon":7.5},{"id":733809,"name":"dorfweil","country":"de","lat":50.283333,"lon":8.45},{"id":784914,"name":"uisibada","country":"de","lat":50.083333,"lon":8.25},{"id":739512,"name":"gackenbach","country":"de","lat":50.366667,"lon":7.866667},{"id":776975,"name":"schafhof","country":"de","lat":50.0,"lon":7.883333},{"id":755471,"name":"kongernheim","country":"de","lat":49.845833,"lon":8.246667},{"id":792656,"name":"zornheim","country":"de","lat":49.89,"lon":8.224722},{"id":787918,"name":"wallrabenstein","country":"de","lat":50.266667,"lon":8.233333},{"id":726438,"name":"bechtheim","country":"de","lat":50.283333,"lon":8.183333},{"id":777814,"name":"schlossbockelheim","country":"de","lat":49.8,"lon":7.75},{"id":730809,"name":"bugenmuhlerhof","country":"de","lat":49.583333,"lon":7.7},{"id":761443,"name":"mauchenheim","country":"de","lat":49.718056,"lon":8.046111},{"id":781072,"name":"spriestersbacherhof","country":"de","lat":50.25,"lon":7.9},{"id":774201,"name":"rheindurkheim","country":"de","lat":49.699444,"lon":8.355556},{"id":743998,"name":"guntersblum","country":"de","lat":49.7975,"lon":8.345556},{"id":764209,"name":"naumburgerhof","country":"de","lat":49.65,"lon":7.65},{"id":735681,"name":"einrich","country":"de","lat":50.25,"lon":7.8},{"id":762093,"name":"merzweiler","country":"de","lat":49.666667,"lon":7.533333},{"id":735371,"name":"eich","country":"de","lat":49.75,"lon":8.398889},{"id":786774,"name":"vockenhausen","country":"de","lat":50.15,"lon":8.383333},{"id":781438,"name":"steckenroth","country":"de","lat":50.183333,"lon":8.116667},{"id":741474,"name":"gonsenheim","country":"de","lat":50.0,"lon":8.216667},{"id":756347,"name":"kriftel","country":"de","lat":50.083333,"lon":8.483333},{"id":755555,"name":"konigstadten","country":"de","lat":49.962778,"lon":8.449722},{"id":722723,"name":"aftholderbach","country":"de","lat":50.216667,"lon":7.85},{"id":780466,"name":"sobernheim","country":"de","lat":49.8,"lon":7.65},{"id":762310,"name":"michelsbacher hutte","country":"de","lat":50.233333,"lon":8.066667},{"id":726409,"name":"becheln","country":"de","lat":50.3,"lon":7.716667},{"id":748458,"name":"hof iben","country":"de","lat":49.766667,"lon":7.933333},{"id":737359,"name":"eulenbis","country":"de","lat":49.5,"lon":7.633333},{"id":738299,"name":"flonheim","country":"de","lat":49.785,"lon":8.04},{"id":761231,"name":"marnheim","country":"de","lat":49.632778,"lon":8.04},{"id":732649,"name":"delkenheim","country":"de","lat":50.05,"lon":8.366667},{"id":751966,"name":"kamberg","country":"de","lat":50.3,"lon":8.266667},{"id":746386,"name":"heimbach","country":"de","lat":50.15,"lon":8.05},{"id":757233,"name":"laimbach","country":"de","lat":50.466667,"lon":8.35},{"id":760925,"name":"manubach","country":"de","lat":50.033333,"lon":7.75},{"id":763117,"name":"monstadt","country":"de","lat":50.383333,"lon":8.433333},{"id":746341,"name":"heiligenmoschel","country":"de","lat":49.55,"lon":7.766667},{"id":766680,"name":"nieder-wiesen","country":"de","lat":49.733333,"lon":7.983333},{"id":752857,"name":"ketternschwalbach","country":"de","lat":50.266667,"lon":8.15},{"id":774636,"name":"rippert","country":"de","lat":49.55,"lon":7.983333},{"id":747286,"name":"hertlingshauserhof","country":"de","lat":49.583333,"lon":8.116667},{"id":780315,"name":"simmertal","country":"de","lat":49.816667,"lon":7.516667},{"id":775999,"name":"ruppenrod","country":"de","lat":50.383333,"lon":7.883333},{"id":767664,"name":"obererbach","country":"de","lat":50.45,"lon":7.966667},{"id":781238,"name":"stadt taunusstein","country":"de","lat":50.15,"lon":8.15},{"id":739903,"name":"gau-bischofsheim","country":"de","lat":49.993889,"lon":8.367222},{"id":734142,"name":"dreikirchen","country":"de","lat":50.433333,"lon":7.95},{"id":723066,"name":"albsheim an der eis","country":"de","lat":49.582222,"lon":8.1825},{"id":745862,"name":"hausen","country":"de","lat":50.083333,"lon":8.05},{"id":737029,"name":"eschenau","country":"de","lat":50.433333,"lon":8.166667},{"id":763848,"name":"munsterhof","country":"de","lat":49.6,"lon":8.0},{"id":723802,"name":"althutterhof","country":"de","lat":49.5,"lon":7.783333},{"id":766468,"name":"niederquembach","country":"de","lat":50.483333,"lon":8.45},{"id":779415,"name":"seelenberg","country":"de","lat":50.266667,"lon":8.416667},{"id":750863,"name":"ippesheim","country":"de","lat":49.883333,"lon":7.916667},{"id":739931,"name":"gaulsheim","country":"de","lat":49.966667,"lon":7.966667},{"id":725655,"name":"bad weilbach","country":"de","lat":50.033333,"lon":8.433333},{"id":768954,"name":"oberwallmenach","country":"de","lat":50.166667,"lon":7.833333},{"id":747488,"name":"heubergerhof","country":"de","lat":49.683333,"lon":8.033333},{"id":777170,"name":"schaumburg","country":"de","lat":50.333333,"lon":7.983333},{"id":737022,"name":"eschelbach","country":"de","lat":50.45,"lon":7.816667},{"id":790896,"name":"wirzenborn","country":"de","lat":50.433333,"lon":7.85},{"id":726194,"name":"barweiler","country":"de","lat":49.733333,"lon":7.6},{"id":725353,"name":"bacharach","country":"de","lat":50.066667,"lon":7.766667},{"id":775005,"name":"rohnstadt","country":"de","lat":50.4,"lon":8.366667},{"id":780592,"name":"sommerberg","country":"de","lat":50.066667,"lon":8.15},{"id":751176,"name":"jakobsweiler","country":"de","lat":49.616667,"lon":7.95},{"id":766378,"name":"niedermoschel","country":"de","lat":49.733333,"lon":7.8},{"id":766586,"name":"niederstaufenbach","country":"de","lat":49.533333,"lon":7.516667},{"id":738489,"name":"framersheim","country":"de","lat":49.758056,"lon":8.174167},{"id":745134,"name":"hangenmeilingen","country":"de","lat":50.483333,"lon":8.066667},{"id":732301,"name":"dannenfels","country":"de","lat":49.633333,"lon":7.95},{"id":750186,"name":"hungenroth","country":"de","lat":50.133333,"lon":7.6},{"id":751637,"name":"kadenbach","country":"de","lat":50.383333,"lon":7.733333},{"id":732450,"name":"dausenau","country":"de","lat":50.333333,"lon":7.766667},{"id":776617,"name":"sankt johann","country":"de","lat":49.8675,"lon":8.014444},{"id":728152,"name":"bisterschied","country":"de","lat":49.65,"lon":7.75},{"id":746020,"name":"hechtsheim","country":"de","lat":49.965556,"lon":8.273056},{"id":784191,"name":"traisen","country":"de","lat":49.816667,"lon":7.816667},{"id":730565,"name":"bubenheim","country":"de","lat":49.628056,"lon":8.117778},{"id":783461,"name":"teschenmoschel","country":"de","lat":49.633333,"lon":7.733333},{"id":723037,"name":"albig","country":"de","lat":49.773611,"lon":8.121389},{"id":774810,"name":"rod an der weil","country":"de","lat":50.35,"lon":8.383333},{"id":766102,"name":"niederems","country":"de","lat":50.25,"lon":8.366667},{"id":738062,"name":"finsternthal","country":"de","lat":50.3,"lon":8.416667},{"id":753422,"name":"klause","country":"de","lat":49.983333,"lon":7.983333},{"id":758252,"name":"lehnmuhle","country":"de","lat":49.933333,"lon":7.716667},{"id":751912,"name":"kaltenengers","country":"de","lat":50.416667,"lon":7.55},{"id":727509,"name":"beuerbach","country":"de","lat":50.283333,"lon":8.216667},{"id":788713,"name":"weilburg","country":"de","lat":50.483333,"lon":8.25},{"id":784313,"name":"trechtingshausen","country":"de","lat":50.016667,"lon":7.85},{"id":767651,"name":"oberems","country":"de","lat":50.233333,"lon":8.4},{"id":787734,"name":"waldlaubersheim","country":"de","lat":49.933333,"lon":7.833333},{"id":788849,"name":"weisenheim am sand","country":"de","lat":49.518056,"lon":8.247778},{"id":766200,"name":"niederheimbach","country":"de","lat":50.033333,"lon":7.816667},{"id":739948,"name":"gau-weinheim","country":"de","lat":49.846389,"lon":8.047778},{"id":788848,"name":"weisenheim am berg","country":"de","lat":49.513056,"lon":8.153889},{"id":768627,"name":"ober-saulheim","country":"de","lat":49.864167,"lon":8.141111},{"id":791464,"name":"wollstein","country":"de","lat":49.816667,"lon":7.966667},{"id":771539,"name":"pleitersheim","country":"de","lat":49.833333,"lon":7.95},{"id":761082,"name":"marienthal","country":"de","lat":49.633333,"lon":7.883333},{"id":772974,"name":"ransel","country":"de","lat":50.1,"lon":7.833333},{"id":739859,"name":"gassenbach","country":"de","lat":50.216667,"lon":8.266667},{"id":757876,"name":"laubenheim","country":"de","lat":49.916667,"lon":7.9},{"id":723541,"name":"altenhain","country":"de","lat":50.166667,"lon":8.466667},{"id":731120,"name":"burglayen","country":"de","lat":49.933333,"lon":7.866667},{"id":732170,"name":"dalsheim","country":"de","lat":49.6625,"lon":8.202778},{"id":746392,"name":"heimberg","country":"de","lat":49.75,"lon":7.5},{"id":761907,"name":"mengerschied","country":"de","lat":49.916667,"lon":7.5},{"id":750764,"name":"ingelheim","country":"de","lat":49.980556,"lon":8.073611},{"id":744115,"name":"gutenbacherhof","country":"de","lat":49.716667,"lon":7.883333},{"id":734190,"name":"dreiweiherhof","country":"de","lat":49.75,"lon":7.8},{"id":766188,"name":"niederhausen an der appel","country":"de","lat":49.75,"lon":7.9},{"id":779189,"name":"schweppenhausen","country":"de","lat":49.916667,"lon":7.8},{"id":776113,"name":"rutsweiler an der lauter","country":"de","lat":49.566667,"lon":7.616667},{"id":781360,"name":"starkmuhle","country":"de","lat":49.7,"lon":8.3},{"id":736606,"name":"enzheim","country":"de","lat":49.7,"lon":8.2},{"id":727678,"name":"biedesheim","country":"de","lat":49.605,"lon":8.107222},{"id":768879,"name":"obertiefenbach","country":"de","lat":50.466667,"lon":8.116667},{"id":724503,"name":"appenheim","country":"de","lat":49.93,"lon":8.033333},{"id":769771,"name":"orbis","country":"de","lat":49.7,"lon":8.0},{"id":763470,"name":"mudershausen","country":"de","lat":50.283333,"lon":8.033333},{"id":766802,"name":"nierstein","country":"de","lat":49.875278,"lon":8.346667},{"id":748449,"name":"hofheim in taunus","country":"de","lat":50.083333,"lon":8.45},{"id":780065,"name":"siefersheim","country":"de","lat":49.8,"lon":7.95},{"id":752719,"name":"kempten","country":"de","lat":49.966667,"lon":7.933333},{"id":766154,"name":"niedergladbach","country":"de","lat":50.1,"lon":7.983333},{"id":747397,"name":"hessheim","country":"de","lat":49.545833,"lon":8.307778},{"id":753592,"name":"kleinbockenheim","country":"de","lat":49.616667,"lon":8.183333},{"id":726320,"name":"baumbach","country":"de","lat":50.45,"lon":7.716667},{"id":788299,"name":"wattenheim","country":"de","lat":49.521667,"lon":8.061667},{"id":781016,"name":"sponsheim","country":"de","lat":49.916667,"lon":7.916667},{"id":744878,"name":"hallgarten","country":"de","lat":50.033333,"lon":8.033333},{"id":724744,"name":"aschbach","country":"de","lat":49.6,"lon":7.583333},{"id":746298,"name":"heilberscheid","country":"de","lat":50.416667,"lon":7.883333},{"id":724634,"name":"arnoldsheim","country":"de","lat":50.266667,"lon":8.45},{"id":739698,"name":"gangloff","country":"de","lat":49.666667,"lon":7.7},{"id":751834,"name":"kalkofen","country":"de","lat":49.733333,"lon":7.833333},{"id":774060,"name":"rettershain","country":"de","lat":50.15,"lon":7.833333},{"id":781442,"name":"steckweiler","country":"de","lat":49.666667,"lon":7.8},{"id":788974,"name":"weitersborn","country":"de","lat":49.85,"lon":7.533333},{"id":778984,"name":"schwarzengraben","country":"de","lat":49.666667,"lon":7.9},{"id":766934,"name":"nonnenaue","country":"de","lat":50.016667,"lon":8.116667},{"id":788223,"name":"wasenbach","country":"de","lat":50.316667,"lon":7.966667},{"id":777511,"name":"schimsheim","country":"de","lat":49.819722,"lon":8.059444},{"id":788298,"name":"wattenheim","country":"de","lat":49.685278,"lon":8.4075},{"id":782619,"name":"struth","country":"de","lat":50.133333,"lon":7.883333},{"id":737179,"name":"essershausen","country":"de","lat":50.45,"lon":8.333333},{"id":764027,"name":"nack","country":"de","lat":49.746389,"lon":8.002778},{"id":730573,"name":"buborn","country":"de","lat":49.633333,"lon":7.55},{"id":760935,"name":"mappershain","country":"de","lat":50.166667,"lon":8.0},{"id":740284,"name":"gemmerich","country":"de","lat":50.233333,"lon":7.75},{"id":765081,"name":"neuhammer","country":"de","lat":49.533333,"lon":8.033333},{"id":743995,"name":"guntersau","country":"de","lat":50.466667,"lon":8.266667},{"id":763005,"name":"molsberg","country":"de","lat":50.483333,"lon":7.983333},{"id":772082,"name":"presberg","country":"de","lat":50.05,"lon":7.883333},{"id":739260,"name":"froschauerhof","country":"de","lat":49.616667,"lon":8.033333},{"id":758640,"name":"lerchenberg","country":"de","lat":49.960278,"lon":8.191389},{"id":736640,"name":"eppenhain","country":"de","lat":50.166667,"lon":8.4},{"id":773670,"name":"reinborn","country":"de","lat":50.266667,"lon":8.35},{"id":762073,"name":"merxheim","country":"de","lat":49.783333,"lon":7.566667},{"id":781076,"name":"springen","country":"de","lat":50.15,"lon":7.983333},{"id":755529,"name":"konigshofen","country":"de","lat":50.166667,"lon":8.3},{"id":733148,"name":"dies","country":"de","lat":50.35,"lon":7.866667},{"id":782525,"name":"strinz-margaretha","country":"de","lat":50.2,"lon":8.133333},{"id":732579,"name":"dehrn","country":"de","lat":50.416667,"lon":8.116667},{"id":733852,"name":"dornberg","country":"de","lat":50.333333,"lon":7.883333},{"id":773529,"name":"reichenbach-steegen","country":"de","lat":49.5,"lon":7.55},{"id":739902,"name":"gau-bickelheim","country":"de","lat":49.835278,"lon":8.020556},{"id":732244,"name":"damscheid","country":"de","lat":50.1,"lon":7.683333},{"id":759077,"name":"limbach","country":"de","lat":49.733333,"lon":7.55},{"id":737079,"name":"eschhofen","country":"de","lat":50.383333,"lon":8.116667},{"id":734986,"name":"eddersheim","country":"de","lat":50.033333,"lon":8.466667},{"id":733018,"name":"diedenbergen","country":"de","lat":50.066667,"lon":8.416667},{"id":788813,"name":"weinsheim","country":"de","lat":49.605,"lon":8.320556},{"id":744334,"name":"hachenbach","country":"de","lat":49.616667,"lon":7.533333},{"id":792631,"name":"zollhaus","country":"de","lat":50.283333,"lon":8.066667},{"id":774696,"name":"rittersheim","country":"de","lat":49.664722,"lon":8.058333},{"id":755088,"name":"kohlheck","country":"de","lat":50.083333,"lon":8.183333},{"id":783876,"name":"tiefenbach","country":"de","lat":49.6,"lon":7.616667},{"id":722666,"name":"adolphseck","country":"de","lat":50.15,"lon":8.083333},{"id":776596,"name":"sankt goar","country":"de","lat":50.15,"lon":7.716667},{"id":745677,"name":"hassloch","country":"de","lat":49.983333,"lon":8.45},{"id":787492,"name":"wahlheimer hof","country":"de","lat":49.866667,"lon":8.233333},{"id":757698,"name":"langheckerhof","country":"de","lat":49.583333,"lon":7.866667},{"id":746346,"name":"heiligenroth","country":"de","lat":50.45,"lon":7.866667},{"id":757630,"name":"langenseifen","country":"de","lat":50.116667,"lon":8.016667},{"id":773167,"name":"rauenthal","country":"de","lat":50.05,"lon":8.116667},{"id":773437,"name":"rehborn","country":"de","lat":49.733333,"lon":7.683333},{"id":758757,"name":"leuterod","country":"de","lat":50.483333,"lon":7.816667},{"id":787600,"name":"waldalgesheim","country":"de","lat":49.95,"lon":7.833333},{"id":744621,"name":"haide","country":"de","lat":49.666667,"lon":7.983333},{"id":750148,"name":"hundsbach","country":"de","lat":49.716667,"lon":7.55},{"id":752300,"name":"kasdorf","country":"de","lat":50.2,"lon":7.783333},{"id":777041,"name":"schallodenbach","country":"de","lat":49.55,"lon":7.716667},{"id":741472,"name":"gonratherhof","country":"de","lat":49.816667,"lon":7.55},{"id":752575,"name":"kehlbach","country":"de","lat":50.266667,"lon":7.766667},{"id":790192,"name":"wies-oppenheim","country":"de","lat":49.606111,"lon":8.299722},{"id":771118,"name":"pfeddersheim","country":"de","lat":49.640556,"lon":8.278889},{"id":758968,"name":"liebshausen","country":"de","lat":50.033333,"lon":7.633333},{"id":757697,"name":"langhecke","country":"de","lat":50.383333,"lon":8.283333},{"id":760439,"name":"lutzendorf","country":"de","lat":50.45,"lon":8.366667},{"id":731774,"name":"coblentz","country":"de","lat":50.35,"lon":7.6},{"id":767540,"name":"oberdiebach","country":"de","lat":50.033333,"lon":7.783333},{"id":749254,"name":"holzappel","country":"de","lat":50.35,"lon":7.9},{"id":771964,"name":"potzbach","country":"de","lat":49.533333,"lon":7.816667},{"id":790801,"name":"wintersheim","country":"de","lat":49.778611,"lon":8.280278},{"id":749595,"name":"horchheim","country":"de","lat":49.611667,"lon":8.324444},{"id":723435,"name":"altenbamberg","country":"de","lat":49.783333,"lon":7.833333},{"id":725617,"name":"bad salzig","country":"de","lat":50.2,"lon":7.633333},{"id":775996,"name":"ruppach-goldhausen","country":"de","lat":50.466667,"lon":7.883333},{"id":743875,"name":"guls","country":"de","lat":50.333333,"lon":7.55},{"id":734398,"name":"dudenroth","country":"de","lat":50.083333,"lon":7.533333},{"id":733859,"name":"dorndich","country":"de","lat":49.8,"lon":7.633333},{"id":768023,"name":"oberjosbach","country":"de","lat":50.166667,"lon":8.333333},{"id":784800,"name":"udenheim","country":"de","lat":49.864722,"lon":8.171667},{"id":766440,"name":"nieder-olm","country":"de","lat":49.914167,"lon":8.213333},{"id":729167,"name":"born","country":"de","lat":50.15,"lon":8.1},{"id":745284,"name":"hargesheim","country":"de","lat":49.866667,"lon":7.833333},{"id":736147,"name":"elsheim","country":"de","lat":49.916944,"lon":8.122222},{"id":734769,"name":"ebernhahn","country":"de","lat":50.466667,"lon":7.766667},{"id":723581,"name":"altenkirchen","country":"de","lat":50.466667,"lon":8.416667},{"id":754251,"name":"klein-rohrheim","country":"de","lat":49.734722,"lon":8.489167},{"id":766359,"name":"niedermeilingen","country":"de","lat":50.183333,"lon":7.9},{"id":757892,"name":"laubuseschbach","country":"de","lat":50.4,"lon":8.333333},{"id":733880,"name":"dornheim","country":"de","lat":49.877778,"lon":8.483889},{"id":774200,"name":"rhein-durkheimer fahrt","country":"de","lat":49.683333,"lon":8.35},{"id":725573,"name":"bad munster","country":"de","lat":49.816667,"lon":7.85},{"id":785035,"name":"unkenbach","country":"de","lat":49.716667,"lon":7.75},{"id":760899,"name":"mannweiler-colln","country":"de","lat":49.683333,"lon":7.783333},{"id":725487,"name":"badenhard","country":"de","lat":50.116667,"lon":7.633333},{"id":781694,"name":"steinfischbach","country":"de","lat":50.283333,"lon":8.333333},{"id":747703,"name":"hillscheid","country":"de","lat":50.4,"lon":7.7},{"id":790827,"name":"winzenheim","country":"de","lat":49.866667,"lon":7.866667},{"id":737836,"name":"fellen","country":"de","lat":50.166667,"lon":7.683333},{"id":773238,"name":"rayerschied","country":"de","lat":50.016667,"lon":7.583333},{"id":751005,"name":"isselbach","country":"de","lat":50.4,"lon":7.9},{"id":762084,"name":"merzhausen","country":"de","lat":50.316667,"lon":8.466667},{"id":763026,"name":"mombach","country":"de","lat":50.016667,"lon":8.233333},{"id":757940,"name":"lauerhof","country":"de","lat":49.516667,"lon":7.733333},{"id":771051,"name":"pfaffenheck","country":"de","lat":50.233333,"lon":7.516667},{"id":778166,"name":"schnellbach","country":"de","lat":50.116667,"lon":7.516667},{"id":790768,"name":"winterborn","country":"de","lat":49.75,"lon":7.866667},{"id":738298,"name":"flomersheim","country":"de","lat":49.515556,"lon":8.331667},{"id":743589,"name":"gruenstadt","country":"de","lat":49.569167,"lon":8.168056},{"id":766523,"name":"nieder-saulheim","country":"de","lat":49.875833,"lon":8.151111},{"id":778345,"name":"schonborn","country":"de","lat":49.633333,"lon":7.766667},{"id":728735,"name":"bogel","country":"de","lat":50.183333,"lon":7.8},{"id":758051,"name":"lautersheim","country":"de","lat":49.587222,"lon":8.098333},{"id":738198,"name":"fleckertshohe","country":"de","lat":50.183333,"lon":7.6},{"id":747014,"name":"hergenfeld","country":"de","lat":49.9,"lon":7.766667},{"id":745091,"name":"hanauerhof","country":"de","lat":49.666667,"lon":7.833333},{"id":748280,"name":"hochstadten","country":"de","lat":49.8,"lon":7.516667},{"id":725208,"name":"auringen","country":"de","lat":50.116667,"lon":8.316667},{"id":743478,"name":"gross-winternheim","country":"de","lat":49.943889,"lon":8.08},{"id":742864,"name":"gross-gerau","country":"de","lat":49.923889,"lon":8.493611},{"id":773178,"name":"raumbach","country":"de","lat":49.716667,"lon":7.65},{"id":733974,"name":"dorth","country":"de","lat":50.15,"lon":7.583333},{"id":767000,"name":"nordenstadt","country":"de","lat":50.066667,"lon":8.35},{"id":733949,"name":"dorrmoschel","country":"de","lat":49.616667,"lon":7.75},{"id":754752,"name":"kloster","country":"de","lat":50.033333,"lon":7.516667},{"id":732135,"name":"dalberg","country":"de","lat":49.9,"lon":7.733333},{"id":764282,"name":"neckarstadt","country":"de","lat":49.5,"lon":8.466667},{"id":777897,"name":"schmalfelderhof","country":"de","lat":49.7,"lon":7.833333},{"id":788801,"name":"weinheim","country":"de","lat":49.736111,"lon":8.065278},{"id":727070,"name":"bergnassau-scheuern","country":"de","lat":50.316667,"lon":7.8},{"id":788805,"name":"weinolsheim","country":"de","lat":49.815833,"lon":8.272778},{"id":740403,"name":"gerbach","country":"de","lat":49.666667,"lon":7.866667},{"id":731916,"name":"cratzenbach","country":"de","lat":50.333333,"lon":8.383333},{"id":731448,"name":"caan","country":"de","lat":50.466667,"lon":7.616667},{"id":749012,"name":"hohr-grenzhausen","country":"de","lat":50.433333,"lon":7.666667},{"id":726157,"name":"barstadt","country":"de","lat":50.1,"lon":8.066667},{"id":749733,"name":"horressen","country":"de","lat":50.433333,"lon":7.8},{"id":752795,"name":"kerzweilerhof","country":"de","lat":49.566667,"lon":8.016667},{"id":756244,"name":"kreuzberg","country":"de","lat":50.216667,"lon":7.583333},{"id":724605,"name":"armsheim","country":"de","lat":49.809722,"lon":8.056667},{"id":787884,"name":"wallertheim","country":"de","lat":49.835556,"lon":8.051389},{"id":791881,"name":"wurzweiler","country":"de","lat":49.65,"lon":7.866667},{"id":770880,"name":"perscheid","country":"de","lat":50.066667,"lon":7.7},{"id":760431,"name":"lutzel","country":"de","lat":50.366667,"lon":7.6},{"id":790743,"name":"winningen","country":"de","lat":50.316667,"lon":7.516667},{"id":766565,"name":"niederselters","country":"de","lat":50.333333,"lon":8.233333},{"id":749628,"name":"horhausen","country":"de","lat":50.366667,"lon":7.9},{"id":789106,"name":"welschneudorf","country":"de","lat":50.366667,"lon":7.8},{"id":731799,"name":"colgenstein-heidesheim","country":"de","lat":49.583333,"lon":8.202222},{"id":732452,"name":"dautenheim","country":"de","lat":49.738056,"lon":8.144722},{"id":757860,"name":"laubach koblenz","country":"de","lat":50.333333,"lon":7.583333},{"id":740356,"name":"georgenthal","country":"de","lat":50.183333,"lon":8.15},{"id":773519,"name":"reichenbacherhof","country":"de","lat":49.5,"lon":7.75},{"id":751543,"name":"jugenheim","country":"de","lat":49.895,"lon":8.085},{"id":729300,"name":"bosenbach","country":"de","lat":49.533333,"lon":7.533333},{"id":757974,"name":"laumersheim","country":"de","lat":49.55,"lon":8.233333},{"id":736461,"name":"engers","country":"de","lat":50.433333,"lon":7.55},{"id":776819,"name":"sauerthal","country":"de","lat":50.083333,"lon":7.816667},{"id":744879,"name":"hallgarten","country":"de","lat":49.766667,"lon":7.783333},{"id":781728,"name":"steinhardterhof","country":"de","lat":49.8,"lon":7.666667},{"id":746389,"name":"heimbach-weis","country":"de","lat":50.433333,"lon":7.516667},{"id":767385,"name":"oberauroff","country":"de","lat":50.216667,"lon":8.233333},{"id":763319,"name":"morstadt","country":"de","lat":49.661944,"lon":8.254722},{"id":784834,"name":"uelversheim","country":"de","lat":49.81,"lon":8.288611},{"id":771679,"name":"pohl","country":"de","lat":50.25,"lon":7.866667},{"id":762174,"name":"mettenheim","country":"de","lat":49.74,"lon":8.325833},{"id":727669,"name":"biebrich","country":"de","lat":50.316667,"lon":7.95},{"id":737612,"name":"falkenstein","country":"de","lat":49.6,"lon":7.883333},{"id":761662,"name":"mehlingen","country":"de","lat":49.5,"lon":7.85},{"id":750144,"name":"hundsangen","country":"de","lat":50.45,"lon":7.983333},{"id":731095,"name":"burg hohenstein","country":"de","lat":50.183333,"lon":8.05},{"id":766210,"name":"nieder-hilbersheim","country":"de","lat":49.913333,"lon":8.041944},{"id":729076,"name":"borbetomagus","country":"de","lat":49.635556,"lon":8.359722},{"id":769422,"name":"offenbach am glan","country":"de","lat":49.616667,"lon":7.55},{"id":761268,"name":"martenroth","country":"de","lat":50.2,"lon":7.916667},{"id":766961,"name":"norath","country":"de","lat":50.133333,"lon":7.583333},{"id":774410,"name":"riegenroth","country":"de","lat":50.05,"lon":7.583333},{"id":756234,"name":"kreutzhof","country":"de","lat":49.6,"lon":7.733333},{"id":759234,"name":"lindschied","country":"de","lat":50.166667,"lon":8.066667},{"id":766326,"name":"niederlibbach","country":"de","lat":50.2,"lon":8.166667},{"id":756130,"name":"kreershauschen","country":"de","lat":49.883333,"lon":7.633333},{"id":782955,"name":"sulzhof","country":"de","lat":49.633333,"lon":7.616667},{"id":769797,"name":"ormsheimerhof","country":"de","lat":49.533333,"lon":8.333333},{"id":727377,"name":"berzweiler","country":"de","lat":49.616667,"lon":7.683333},{"id":730384,"name":"brucklocherhof","country":"de","lat":49.783333,"lon":7.866667},{"id":727205,"name":"bermbach","country":"de","lat":50.233333,"lon":8.316667},{"id":748880,"name":"hohen-sulzen","country":"de","lat":49.619167,"lon":8.225556},{"id":788472,"name":"wehen","country":"de","lat":50.15,"lon":8.183333},{"id":725316,"name":"baalborn","country":"de","lat":49.5,"lon":7.833333},{"id":764081,"name":"nakterhof","country":"de","lat":49.533333,"lon":8.1},{"id":752793,"name":"kerzenheim","country":"de","lat":49.576389,"lon":8.059722},{"id":775718,"name":"rubenach","country":"de","lat":50.366667,"lon":7.516667},{"id":758588,"name":"lenzhahn","country":"de","lat":50.183333,"lon":8.316667},{"id":746541,"name":"heistenbach","country":"de","lat":50.366667,"lon":8.0},{"id":755219,"name":"kollweiler","country":"de","lat":49.516667,"lon":7.583333},{"id":781393,"name":"staudernheim","country":"de","lat":49.783333,"lon":7.683333},{"id":740075,"name":"gehrweiler","country":"de","lat":49.583333,"lon":7.766667},{"id":744603,"name":"hahnstatten","country":"de","lat":50.3,"lon":8.066667},{"id":759293,"name":"linter","country":"de","lat":50.366667,"lon":8.1},{"id":766616,"name":"niederterhaus","country":"de","lat":50.116667,"lon":7.55},{"id":779410,"name":"seelbach","country":"de","lat":50.416667,"lon":8.233333},{"id":781201,"name":"stadt kelkheim","country":"de","lat":50.133333,"lon":8.45},{"id":723844,"name":"altleiningen","country":"de","lat":49.5075,"lon":8.073333},{"id":744909,"name":"halsenbach","country":"de","lat":50.166667,"lon":7.55},{"id":753181,"name":"kirchheim an der eck","country":"de","lat":49.537222,"lon":8.180833},{"id":777434,"name":"schierstein","country":"de","lat":50.05,"lon":8.2},{"id":740514,"name":"gernsheim","country":"de","lat":49.76,"lon":8.495833},{"id":774228,"name":"rhens","country":"de","lat":50.283333,"lon":7.616667},{"id":736682,"name":"erbenheim","country":"de","lat":50.05,"lon":8.3},{"id":776533,"name":"sandtorf","country":"de","lat":49.5675,"lon":8.492778},{"id":742115,"name":"gravenwiesbach","country":"de","lat":50.4,"lon":8.45},{"id":780963,"name":"spiesheim","country":"de","lat":49.810278,"lon":8.1275},{"id":748501,"name":"hof schonberg","country":"de","lat":50.166667,"lon":7.966667},{"id":769107,"name":"oberzeuzheim","country":"de","lat":50.466667,"lon":8.066667},{"id":790748,"name":"winnweiler","country":"de","lat":49.566667,"lon":7.85},{"id":756401,"name":"kroffelbach","country":"de","lat":50.45,"lon":8.466667},{"id":735927,"name":"elgendorf","country":"de","lat":50.45,"lon":7.8},{"id":747665,"name":"hilgert","country":"de","lat":50.45,"lon":7.7},{"id":779716,"name":"sembach","country":"de","lat":49.516667,"lon":7.85},{"id":753909,"name":"kleinholbach","country":"de","lat":50.45,"lon":7.9},{"id":736351,"name":"endlichhofen","country":"de","lat":50.2,"lon":7.816667},{"id":768183,"name":"oberlibbach","country":"de","lat":50.2,"lon":8.183333},{"id":765138,"name":"neuhemsbach","country":"de","lat":49.516667,"lon":7.916667},{"id":764202,"name":"nauheim","country":"de","lat":50.05,"lon":7.75},{"id":729968,"name":"bremricherhof","country":"de","lat":49.683333,"lon":7.833333},{"id":736841,"name":"erlenborn","country":"de","lat":50.233333,"lon":7.716667},{"id":766711,"name":"niefernheim","country":"de","lat":49.643333,"lon":8.149167},{"id":735765,"name":"eisenschmelz","country":"de","lat":49.583333,"lon":7.833333},{"id":728141,"name":"bissersheim","country":"de","lat":49.535833,"lon":8.204167},{"id":729038,"name":"bonscheuer","country":"de","lat":50.266667,"lon":8.033333},{"id":779420,"name":"seelen","country":"de","lat":49.6,"lon":7.716667},{"id":750657,"name":"immendorf","country":"de","lat":50.383333,"lon":7.65},{"id":792521,"name":"zimmerscheid","country":"de","lat":50.35,"lon":7.783333},{"id":733961,"name":"dorsheim","country":"de","lat":49.916667,"lon":7.866667},{"id":786155,"name":"urbar","country":"de","lat":50.133333,"lon":7.716667},{"id":773637,"name":"reiffelbach","country":"de","lat":49.683333,"lon":7.683333},{"id":759028,"name":"lierscheid","country":"de","lat":50.166667,"lon":7.75},{"id":737198,"name":"essweiler","country":"de","lat":49.55,"lon":7.566667},{"id":752352,"name":"kastel","country":"de","lat":50.008646,"lon":8.282147},{"id":728872,"name":"bolanden","country":"de","lat":49.639167,"lon":8.011944},{"id":732382,"name":"dasbach","country":"de","lat":50.2,"lon":8.3},{"id":763011,"name":"molsheim","country":"de","lat":49.646667,"lon":8.169444},{"id":769034,"name":"oberwiesen","country":"de","lat":49.7,"lon":7.966667},{"id":768842,"name":"obersulzbach","country":"de","lat":49.516667,"lon":7.65},{"id":750236,"name":"huppert","country":"de","lat":50.2,"lon":8.0},{"id":750010,"name":"huhnerhof","country":"de","lat":49.75,"lon":7.65},{"id":791448,"name":"wollmerschied","country":"de","lat":50.116667,"lon":7.85},{"id":742994,"name":"grosskarlbach","country":"de","lat":49.538333,"lon":8.224722},{"id":726439,"name":"bechtheim","country":"de","lat":49.727778,"lon":8.292222},{"id":771456,"name":"planig","country":"de","lat":49.866667,"lon":7.916667},{"id":733847,"name":"dornbach","country":"de","lat":49.616667,"lon":7.8},{"id":729901,"name":"breithardt","country":"de","lat":50.2,"lon":8.1},{"id":770090,"name":"osterspai","country":"de","lat":50.25,"lon":7.616667},{"id":768738,"name":"oberselters","country":"de","lat":50.316667,"lon":8.25},{"id":752512,"name":"kaulbach","country":"de","lat":49.55,"lon":7.633333},{"id":787393,"name":"wackernheim","country":"de","lat":49.974444,"lon":8.116667},{"id":750451,"name":"idstein","country":"de","lat":50.233333,"lon":8.266667},{"id":760771,"name":"malmeneich","country":"de","lat":50.433333,"lon":8.0},{"id":781269,"name":"stahlhausen","country":"de","lat":49.566667,"lon":7.633333},{"id":788773,"name":"weinbach","country":"de","lat":50.433333,"lon":8.3},{"id":767622,"name":"obereisenbach","country":"de","lat":49.616667,"lon":7.5},{"id":735003,"name":"edelsberg","country":"de","lat":50.466667,"lon":8.316667},{"id":726881,"name":"benzweiler","country":"de","lat":50.016667,"lon":7.6},{"id":745492,"name":"harxheim","country":"de","lat":49.642778,"lon":8.133889},{"id":749256,"name":"holzbach","country":"de","lat":49.95,"lon":7.533333},{"id":724836,"name":"aspisheim","country":"de","lat":49.9,"lon":7.983333},{"id":788680,"name":"weiherhof","country":"de","lat":49.633611,"lon":8.0275},{"id":724898,"name":"attenhausen","country":"de","lat":50.3,"lon":7.883333},{"id":731543,"name":"carlsberg","country":"de","lat":49.503889,"lon":8.041667},{"id":736256,"name":"emmelshausen","country":"de","lat":50.15,"lon":7.566667},{"id":790358,"name":"wilhelmsdorf","country":"de","lat":50.35,"lon":8.483333},{"id":733415,"name":"dittelsheim-hessloch","country":"de","lat":49.743889,"lon":8.236944},{"id":752906,"name":"kiedrich","country":"de","lat":50.033333,"lon":8.083333},{"id":754746,"name":"klosterhof","country":"de","lat":49.533333,"lon":8.016667},{"id":787039,"name":"volxheim","country":"de","lat":49.816667,"lon":7.933333},{"id":760826,"name":"mandel","country":"de","lat":49.85,"lon":7.766667},{"id":782952,"name":"sulzheim","country":"de","lat":49.843056,"lon":8.091667},{"id":725170,"name":"aulenhausen","country":"de","lat":50.433333,"lon":8.333333},{"id":732989,"name":"dickschied","country":"de","lat":50.116667,"lon":7.95},{"id":733201,"name":"dietersheim","country":"de","lat":49.933333,"lon":7.9},{"id":787714,"name":"waldhof","country":"de","lat":49.519167,"lon":8.475},{"id":734845,"name":"ebschied","country":"de","lat":50.083333,"lon":7.516667},{"id":792256,"name":"zell","country":"de","lat":49.649167,"lon":8.139722},{"id":734927,"name":"eckenroth","country":"de","lat":49.916667,"lon":7.783333},{"id":758426,"name":"leithofe","country":"de","lat":49.55,"lon":7.816667},{"id":747409,"name":"hessloch","country":"de","lat":50.116667,"lon":8.3},{"id":733954,"name":"dorscheid","country":"de","lat":50.1,"lon":7.75},{"id":743818,"name":"guckingen","country":"de","lat":50.4,"lon":8.016667},{"id":746042,"name":"heckholzhausen","country":"de","lat":50.483333,"lon":8.166667},{"id":725473,"name":"bad ems","country":"de","lat":50.333333,"lon":7.716667},{"id":746409,"name":"heimersheim","country":"de","lat":49.761944,"lon":8.081389},{"id":766620,"name":"niedertiefenbach","country":"de","lat":50.266667,"lon":7.9},{"id":723177,"name":"allenfeld","country":"de","lat":49.866667,"lon":7.666667},{"id":759683,"name":"lohrheim","country":"de","lat":50.316667,"lon":8.05},{"id":754468,"name":"kleinweidelbach","country":"de","lat":50.0,"lon":7.65},{"id":737072,"name":"esch","country":"de","lat":50.25,"lon":8.316667},{"id":750488,"name":"igstadt","country":"de","lat":50.083333,"lon":8.316667},{"id":728539,"name":"bobstadt","country":"de","lat":49.661667,"lon":8.447778},{"id":738738,"name":"freiendiez","country":"de","lat":50.366667,"lon":8.033333},{"id":777124,"name":"scharrau","country":"de","lat":49.583333,"lon":8.383333},{"id":746913,"name":"heppenheim an der wiese","country":"de","lat":49.604722,"lon":8.265556},{"id":734057,"name":"drais","country":"de","lat":49.975278,"lon":8.189167},{"id":736687,"name":"erbes-budesheim","country":"de","lat":49.754444,"lon":8.031389},{"id":759743,"name":"lollbach","country":"de","lat":49.683333,"lon":7.583333},{"id":735892,"name":"elbisheimerhof","country":"de","lat":49.609722,"lon":8.050833},{"id":763312,"name":"morsfeld","country":"de","lat":49.75,"lon":7.933333},{"id":767125,"name":"norheim","country":"de","lat":49.8,"lon":7.816667},{"id":778385,"name":"schoneberg","country":"de","lat":49.916667,"lon":7.75},{"id":747296,"name":"herxheim am berg","country":"de","lat":49.509167,"lon":8.179167},{"id":750420,"name":"ibersheim","country":"de","lat":49.721667,"lon":8.399722},{"id":764578,"name":"neu-bamberg","country":"de","lat":49.8,"lon":7.916667},{"id":734818,"name":"ebertshausen","country":"de","lat":50.283333,"lon":7.983333},{"id":764728,"name":"neudorferhof","country":"de","lat":49.733333,"lon":7.75},{"id":785640,"name":"untermittweilerhof","country":"de","lat":49.65,"lon":7.8},{"id":735345,"name":"eibingen","country":"de","lat":49.983333,"lon":7.933333},{"id":761079,"name":"marienthal","country":"de","lat":50.0,"lon":7.95},{"id":733358,"name":"dintesheim","country":"de","lat":49.7075,"lon":8.143333},{"id":761042,"name":"marienfels","country":"de","lat":50.233333,"lon":7.816667},{"id":732125,"name":"daimbacherhof","country":"de","lat":49.75,"lon":7.95},{"id":758037,"name":"lauterecken","country":"de","lat":49.65,"lon":7.6},{"id":778343,"name":"schonbornerhof","country":"de","lat":49.65,"lon":7.5},{"id":753063,"name":"kirberg","country":"de","lat":50.316667,"lon":8.166667},{"id":786492,"name":"vendersheim","country":"de","lat":49.866389,"lon":8.068611},{"id":739922,"name":"gaugrehweiler","country":"de","lat":49.7,"lon":7.866667},{"id":760468,"name":"lykershausen","country":"de","lat":50.2,"lon":7.666667},{"id":724970,"name":"audenschmiede","country":"de","lat":50.416667,"lon":8.4},{"id":728344,"name":"blessenbach","country":"de","lat":50.416667,"lon":8.3},{"id":745832,"name":"hausbay","country":"de","lat":50.1,"lon":7.55},{"id":754711,"name":"kloppenheim","country":"de","lat":50.1,"lon":8.3},{"id":753401,"name":"klarenthal","country":"de","lat":50.1,"lon":8.2},{"id":777615,"name":"schlangenbad","country":"de","lat":50.1,"lon":8.1},{"id":769182,"name":"ockenheim","country":"de","lat":49.933333,"lon":7.966667},{"id":770500,"name":"panrod","country":"de","lat":50.266667,"lon":8.133333},{"id":734820,"name":"ebertsheim","country":"de","lat":49.568333,"lon":8.108611},{"id":771068,"name":"pfaffen-schwabenheim","country":"de","lat":49.85,"lon":7.95},{"id":775582,"name":"roth","country":"de","lat":49.666667,"lon":7.666667},{"id":744080,"name":"gustavsburg","country":"de","lat":50.000278,"lon":8.336389},{"id":781829,"name":"steinsberg","country":"de","lat":50.333333,"lon":7.95},{"id":738790,"name":"freinsheim","country":"de","lat":49.513889,"lon":8.21},{"id":747432,"name":"hettenhain","country":"de","lat":50.133333,"lon":8.083333},{"id":778806,"name":"schwabenheim","country":"de","lat":49.932778,"lon":8.094167},{"id":763613,"name":"muhlheim an der eis","country":"de","lat":49.585,"lon":8.1875},{"id":773559,"name":"reichenstein falkenburg","country":"de","lat":50.0,"lon":7.85},{"id":751994,"name":"kammerforst","country":"de","lat":50.45,"lon":7.683333},{"id":722454,"name":"abenheim","country":"de","lat":49.677222,"lon":8.281111},{"id":736631,"name":"eppelsheim","country":"de","lat":49.705556,"lon":8.165278},{"id":733936,"name":"dorrebach","country":"de","lat":49.95,"lon":7.716667},{"id":791625,"name":"worrstadt","country":"de","lat":49.848611,"lon":8.124167},{"id":789717,"name":"westhofen","country":"de","lat":49.704444,"lon":8.248056},{"id":732048,"name":"dackenheim","country":"de","lat":49.521111,"lon":8.187222},{"id":740531,"name":"geroldstein","country":"de","lat":50.1,"lon":7.933333},{"id":725489,"name":"badenheim","country":"de","lat":49.833333,"lon":7.966667},{"id":769459,"name":"offstein","country":"de","lat":49.606111,"lon":8.238056},{"id":770169,"name":"ostrich","country":"de","lat":50.016667,"lon":8.033333},{"id":781314,"name":"standenbuhl","country":"de","lat":49.6,"lon":7.983333},{"id":727613,"name":"biblis","country":"de","lat":49.691667,"lon":8.458611},{"id":789026,"name":"welgesheim","country":"de","lat":49.883333,"lon":7.966667},{"id":756326,"name":"kriegsfeld","country":"de","lat":49.716667,"lon":7.916667},{"id":736661,"name":"eppstein","country":"de","lat":49.507222,"lon":8.332778},{"id":776076,"name":"russingen","country":"de","lat":49.615833,"lon":8.088333},{"id":722759,"name":"ahlbach","country":"de","lat":50.433333,"lon":8.083333},{"id":757262,"name":"lambsheim","country":"de","lat":49.513611,"lon":8.287778},{"id":734054,"name":"drahtzug","country":"de","lat":49.516667,"lon":8.1},{"id":770917,"name":"petersackerhof","country":"de","lat":50.033333,"lon":7.8},{"id":778050,"name":"schmitterhof","country":"de","lat":49.533333,"lon":7.833333},{"id":763295,"name":"morschbach","country":"de","lat":50.016667,"lon":7.616667},{"id":731146,"name":"burgschwalbach","country":"de","lat":50.283333,"lon":8.083333},{"id":759075,"name":"limbach","country":"de","lat":50.233333,"lon":8.166667},{"id":728120,"name":"bisholder","country":"de","lat":50.333333,"lon":7.533333},{"id":768353,"name":"oberneisen","country":"de","lat":50.316667,"lon":8.083333},{"id":789904,"name":"wickelhof","country":"de","lat":49.55,"lon":7.733333},{"id":781461,"name":"steeden","country":"de","lat":50.416667,"lon":8.133333},{"id":747178,"name":"herren-sulzbach","country":"de","lat":49.65,"lon":7.533333},{"id":782566,"name":"stromberger neuhutte","country":"de","lat":49.966667,"lon":7.733333},{"id":766501,"name":"niederrod","country":"de","lat":50.233333,"lon":8.366667},{"id":753124,"name":"kircheimbolanden","country":"de","lat":49.6725,"lon":8.018889},{"id":733061,"name":"dieler","country":"de","lat":50.183333,"lon":7.516667},{"id":787898,"name":"wallhausen","country":"de","lat":49.883333,"lon":7.766667},{"id":776672,"name":"sankt sebastian","country":"de","lat":50.416667,"lon":7.566667},{"id":723493,"name":"altendiez","country":"de","lat":50.366667,"lon":7.983333},{"id":778832,"name":"schwabsburg","country":"de","lat":49.862778,"lon":8.311944},{"id":757204,"name":"lahnstein","country":"de","lat":50.3,"lon":7.616667},{"id":757543,"name":"langenhain","country":"de","lat":50.1,"lon":8.383333},{"id":726701,"name":"bellenmuhle","country":"de","lat":49.583333,"lon":7.683333},{"id":775819,"name":"rudesheim","country":"de","lat":49.85,"lon":7.816667},{"id":791214,"name":"wolfenhausen","country":"de","lat":50.383333,"lon":8.316667},{"id":776597,"name":"sankt goarshausen","country":"de","lat":50.15,"lon":7.733333},{"id":785006,"name":"undenheim","country":"de","lat":49.838056,"lon":8.218889},{"id":726441,"name":"bechtolsheim","country":"de","lat":49.804167,"lon":8.193889},{"id":725548,"name":"bad kreuznach","country":"de","lat":49.833333,"lon":7.866667},{"id":764590,"name":"neubau","country":"de","lat":49.666667,"lon":7.766667},{"id":744754,"name":"haintchen","country":"de","lat":50.366667,"lon":8.316667},{"id":764025,"name":"nackenheim","country":"de","lat":49.915278,"lon":8.338889},{"id":776811,"name":"sauerbrunnen","country":"de","lat":50.133333,"lon":7.566667},{"id":781270,"name":"stahlhofen","country":"de","lat":50.4,"lon":7.866667},{"id":787366,"name":"wachholderhof","country":"de","lat":50.033333,"lon":8.066667},{"id":767879,"name":"oberhausen an der appel","country":"de","lat":49.716667,"lon":7.866667},{"id":777103,"name":"scharhof","country":"de","lat":49.561944,"lon":8.448611},{"id":728069,"name":"bischheim","country":"de","lat":49.67,"lon":8.0325},{"id":737048,"name":"eschenhahn","country":"de","lat":50.183333,"lon":8.233333},{"id":780148,"name":"sienerhofe","country":"de","lat":49.7,"lon":7.516667},{"id":748517,"name":"hof steinheim","country":"de","lat":50.033333,"lon":8.133333},{"id":730775,"name":"budenbach","country":"de","lat":50.033333,"lon":7.566667},{"id":751449,"name":"johannisberg im rheingau","country":"de","lat":50.0,"lon":7.983333},{"id":738154,"name":"flacht","country":"de","lat":50.35,"lon":8.05},{"id":757915,"name":"laudert","country":"de","lat":50.083333,"lon":7.6},{"id":766023,"name":"niederbrechen","country":"de","lat":50.366667,"lon":8.166667},{"id":767771,"name":"obergladbach","country":"de","lat":50.1,"lon":8.016667},{"id":740156,"name":"geisenheim","country":"de","lat":49.983333,"lon":7.966667},{"id":762609,"name":"mittelheim","country":"de","lat":50.0,"lon":8.0},{"id":758140,"name":"leeheim","country":"de","lat":49.856667,"lon":8.439444},{"id":787682,"name":"waldfriede","country":"de","lat":49.85,"lon":7.55},{"id":780432,"name":"sitters","country":"de","lat":49.716667,"lon":7.783333},{"id":746229,"name":"heidenfahrt","country":"de","lat":50.0,"lon":8.1},{"id":786709,"name":"villmar","country":"de","lat":50.383333,"lon":8.2},{"id":776010,"name":"ruppertsecken","country":"de","lat":49.65,"lon":7.883333},{"id":737573,"name":"falkenberg","country":"de","lat":50.0,"lon":8.4},{"id":766932,"name":"nomborn","country":"de","lat":50.433333,"lon":7.916667},{"id":776564,"name":"sankt antoniushof","country":"de","lat":49.75,"lon":7.683333},{"id":746504,"name":"heinzenberg","country":"de","lat":50.383333,"lon":8.4},{"id":788747,"name":"weiler","country":"de","lat":49.8,"lon":7.566667},{"id":740111,"name":"geilnau","country":"de","lat":50.35,"lon":7.933333},{"id":790770,"name":"winterburg","country":"de","lat":49.866667,"lon":7.65},{"id":756328,"name":"kriegsheim","country":"de","lat":49.638889,"lon":8.222778},{"id":790876,"name":"wirges","country":"de","lat":50.466667,"lon":7.8},{"id":785952,"name":"untersulzbach","country":"de","lat":49.516667,"lon":7.666667},{"id":741591,"name":"gorsroth","country":"de","lat":50.216667,"lon":8.216667},{"id":763123,"name":"montforterhof","country":"de","lat":49.766667,"lon":7.766667},{"id":732079,"name":"dahlen","country":"de","lat":50.466667,"lon":7.9},{"id":741130,"name":"gnadenthalerhof dom","country":"de","lat":50.316667,"lon":8.216667},{"id":761598,"name":"medenscheid","country":"de","lat":50.05,"lon":7.766667},{"id":728322,"name":"bleidenstadt","country":"de","lat":50.133333,"lon":8.133333},{"id":776079,"name":"russmuhlerhof","country":"de","lat":49.633333,"lon":7.866667},{"id":733067,"name":"dielkirchen","country":"de","lat":49.666667,"lon":7.816667},{"id":732600,"name":"deimberg","country":"de","lat":49.633333,"lon":7.516667},{"id":726767,"name":"bendorf","country":"de","lat":50.433333,"lon":7.566667},{"id":747491,"name":"heuberg","country":"de","lat":49.516667,"lon":7.866667},{"id":749293,"name":"holzfeld","country":"de","lat":50.15,"lon":7.65},{"id":759828,"name":"lorsbach","country":"de","lat":50.116667,"lon":8.416667},{"id":729976,"name":"bremthal","country":"de","lat":50.133333,"lon":8.366667},{"id":765099,"name":"neuhausel","country":"de","lat":50.383333,"lon":7.716667},{"id":787646,"name":"waldems","country":"de","lat":50.25,"lon":8.333333},{"id":767051,"name":"nordheim","country":"de","lat":49.681667,"lon":8.386667},{"id":788954,"name":"weis","country":"de","lat":50.45,"lon":7.55},{"id":726221,"name":"basselscheid","country":"de","lat":50.15,"lon":7.533333},{"id":776629,"name":"sankt katharinen","country":"de","lat":49.866667,"lon":7.766667},{"id":747411,"name":"hessloch","country":"de","lat":49.741389,"lon":8.246667},{"id":753023,"name":"kindenheim","country":"de","lat":49.611111,"lon":8.164167},{"id":733868,"name":"dorn-durkheim","country":"de","lat":49.768611,"lon":8.269722},{"id":724574,"name":"argenschwang","country":"de","lat":49.883333,"lon":7.7},{"id":791551,"name":"wonsheim","country":"de","lat":49.783333,"lon":7.966667},{"id":738069,"name":"finthen","country":"de","lat":49.988889,"lon":8.174167},{"id":769444,"name":"offenthal","country":"de","lat":50.15,"lon":7.75},{"id":744119,"name":"gutenberg","country":"de","lat":49.883333,"lon":7.8},{"id":780809,"name":"spall","country":"de","lat":49.883333,"lon":7.683333},{"id":756726,"name":"kuhbett","country":"de","lat":50.316667,"lon":8.333333},{"id":752668,"name":"kemel","country":"de","lat":50.166667,"lon":8.016667},{"id":734379,"name":"duchroth","country":"de","lat":49.783333,"lon":7.733333},{"id":763647,"name":"muhltal","country":"de","lat":50.233333,"lon":7.566667},{"id":747557,"name":"hewnsheim","country":"de","lat":49.658056,"lon":8.328889},{"id":732471,"name":"daxweiler","country":"de","lat":49.966667,"lon":7.75},{"id":752810,"name":"kesselheim","country":"de","lat":50.4,"lon":7.583333},{"id":765820,"name":"neuweilnau","country":"de","lat":50.316667,"lon":8.416667},{"id":783916,"name":"tiefenthal","country":"de","lat":49.538611,"lon":8.103889},{"id":761020,"name":"marienberg","country":"de","lat":50.233333,"lon":7.616667},{"id":731961,"name":"cronenberg","country":"de","lat":49.65,"lon":7.616667},{"id":761793,"name":"meisenheim","country":"de","lat":49.716667,"lon":7.666667},{"id":781014,"name":"sponheim","country":"de","lat":49.85,"lon":7.733333},{"id":739507,"name":"gabsheim","country":"de","lat":49.827778,"lon":8.176111},{"id":732660,"name":"dellhofen","country":"de","lat":50.083333,"lon":7.716667},{"id":778568,"name":"schornsheim","country":"de","lat":49.845833,"lon":8.175},{"id":781129,"name":"stadecken","country":"de","lat":49.908889,"lon":8.130278},{"id":743953,"name":"gundheimerhof","country":"de","lat":49.6,"lon":8.083333},{"id":753949,"name":"kleinkarlbach","country":"de","lat":49.538611,"lon":8.149722},{"id":780798,"name":"spabrucken","country":"de","lat":49.9,"lon":7.716667},{"id":787685,"name":"waldgrehweiler","country":"de","lat":49.666667,"lon":7.733333},{"id":752028,"name":"kamp-bornhofen","country":"de","lat":50.216667,"lon":7.616667},{"id":757461,"name":"langenbach","country":"de","lat":50.4,"lon":8.383333},{"id":750157,"name":"hundsdorf","country":"de","lat":50.466667,"lon":7.716667},{"id":766000,"name":"niederberg","country":"de","lat":50.383333,"lon":7.633333},{"id":745876,"name":"hausen uber aar","country":"de","lat":50.25,"lon":8.066667},{"id":766621,"name":"niedert","country":"de","lat":50.133333,"lon":7.533333},{"id":766296,"name":"niederkumbd","country":"de","lat":50.016667,"lon":7.533333},{"id":733218,"name":"diethardt","country":"de","lat":50.166667,"lon":7.866667},{"id":789864,"name":"weyer","country":"de","lat":50.183333,"lon":7.716667},{"id":761299,"name":"martinstein","country":"de","lat":49.8,"lon":7.533333},{"id":725183,"name":"aumenau","country":"de","lat":50.4,"lon":8.25},{"id":728012,"name":"birkheim","country":"de","lat":50.116667,"lon":7.616667},{"id":759747,"name":"lollschied","country":"de","lat":50.266667,"lon":7.866667},{"id":738085,"name":"fischbach","country":"de","lat":50.15,"lon":8.416667},{"id":788761,"name":"weilmunster","country":"de","lat":50.433333,"lon":8.366667},{"id":731625,"name":"charlottenberg","country":"de","lat":50.35,"lon":7.883333},{"id":725791,"name":"balduinstein","country":"de","lat":50.35,"lon":7.966667},{"id":789019,"name":"welchweiler","country":"de","lat":49.583333,"lon":7.5},{"id":791364,"name":"wolfstein","country":"de","lat":49.583333,"lon":7.6},{"id":764231,"name":"nauroth","country":"de","lat":50.15,"lon":7.95},{"id":770272,"name":"otterberg","country":"de","lat":49.5,"lon":7.766667},{"id":774484,"name":"riesweiler","country":"de","lat":49.966667,"lon":7.55},{"id":754756,"name":"klosterkumbd","country":"de","lat":50.033333,"lon":7.533333},{"id":756731,"name":"kuhborncheshof","country":"de","lat":49.5,"lon":7.683333},{"id":742217,"name":"grenzau","country":"de","lat":50.45,"lon":7.65},{"id":751685,"name":"kahlheckerhof","country":"de","lat":49.583333,"lon":7.816667},{"id":755801,"name":"kostheim","country":"de","lat":50.005076,"lon":8.313437},{"id":781942,"name":"stephanshausen","country":"de","lat":50.033333,"lon":7.95},{"id":789157,"name":"wendelsheim","country":"de","lat":49.766667,"lon":8.0},{"id":727632,"name":"bickenbach","country":"de","lat":50.116667,"lon":7.533333},{"id":781411,"name":"stauf","country":"de","lat":49.551111,"lon":8.0275},{"id":733887,"name":"dornholzhausen","country":"de","lat":50.266667,"lon":7.783333},{"id":773534,"name":"reichenberg","country":"de","lat":50.15,"lon":7.766667},{"id":748009,"name":"hinterwald","country":"de","lat":50.283333,"lon":7.716667},{"id":776706,"name":"sargenroth","country":"de","lat":49.933333,"lon":7.516667},{"id":730783,"name":"budesheim","country":"de","lat":49.95,"lon":7.916667},{"id":779089,"name":"schweighausen","country":"de","lat":50.283333,"lon":7.75},{"id":768301,"name":"obermoschel","country":"de","lat":49.733333,"lon":7.766667},{"id":772828,"name":"rambach","country":"de","lat":50.116667,"lon":8.266667},{"id":748808,"name":"hohenollen","country":"de","lat":49.616667,"lon":7.633333},{"id":775343,"name":"rossbach in der pfalz","country":"de","lat":49.583333,"lon":7.633333},{"id":771038,"name":"pfaffendorf","country":"de","lat":50.35,"lon":7.616667},{"id":727115,"name":"berkach","country":"de","lat":49.901389,"lon":8.479722},{"id":768349,"name":"oberndorf","country":"de","lat":49.716667,"lon":7.816667},{"id":765106,"name":"neuhausen","country":"de","lat":49.65,"lon":8.35},{"id":787909,"name":"wallmerod","country":"de","lat":50.483333,"lon":7.95},{"id":745713,"name":"hattenheim","country":"de","lat":50.016667,"lon":8.05},{"id":749984,"name":"huffelsheim","country":"de","lat":49.816667,"lon":7.8},{"id":758076,"name":"layenkaul","country":"de","lat":49.916667,"lon":7.516667},{"id":740292,"name":"gemunden","country":"de","lat":50.366667,"lon":8.416667},{"id":744360,"name":"hackenheim","country":"de","lat":49.816667,"lon":7.9},{"id":745724,"name":"hattersheim","country":"de","lat":50.066667,"lon":8.466667},{"id":746135,"name":"heftrich","country":"de","lat":50.216667,"lon":8.333333},{"id":732952,"name":"dhaun","country":"de","lat":49.816667,"lon":7.5},{"id":777433,"name":"schiersfeld","country":"de","lat":49.7,"lon":7.766667},{"id":732146,"name":"dalheim","country":"de","lat":49.826667,"lon":8.295278},{"id":734796,"name":"ebersheim","country":"de","lat":49.912778,"lon":8.240833},{"id":776846,"name":"sausenheim","country":"de","lat":49.549444,"lon":8.157222},{"id":779814,"name":"sessenbach","country":"de","lat":50.466667,"lon":7.65},{"id":760900,"name":"mannweiler","country":"de","lat":49.7,"lon":7.8},{"id":731479,"name":"callbach","country":"de","lat":49.7,"lon":7.7},{"id":759680,"name":"lohrerhof","country":"de","lat":49.833333,"lon":7.833333},{"id":780152,"name":"sien","country":"de","lat":49.7,"lon":7.5},{"id":733850,"name":"dornberg","country":"de","lat":49.9,"lon":8.483333},{"id":775818,"name":"rudesheim","country":"de","lat":49.983333,"lon":7.916667},{"id":733181,"name":"dietenhausen","country":"de","lat":50.416667,"lon":8.433333},{"id":766649,"name":"niederwalluf","country":"de","lat":50.033333,"lon":8.15},{"id":752852,"name":"kettenheim","country":"de","lat":49.721667,"lon":8.113333},{"id":745972,"name":"haxthauserhof","country":"de","lat":49.966667,"lon":8.116667},{"id":757724,"name":"langschied","country":"de","lat":50.183333,"lon":7.966667},{"id":736206,"name":"elz","country":"de","lat":50.416667,"lon":8.033333},{"id":748407,"name":"hoferhof","country":"de","lat":49.683333,"lon":7.85},{"id":764201,"name":"nauheim","country":"de","lat":49.950833,"lon":8.463333},{"id":739918,"name":"gauersheim","country":"de","lat":49.659722,"lon":8.071944},{"id":752454,"name":"katzenelnbogen","country":"de","lat":50.283333,"lon":7.95},{"id":725627,"name":"bad schwalbach","country":"de","lat":50.133333,"lon":8.066667},{"id":747566,"name":"heyerhof","country":"de","lat":49.633333,"lon":8.066667},{"id":784868,"name":"uffhofen","country":"de","lat":49.783333,"lon":8.033333},{"id":730555,"name":"bubach","country":"de","lat":50.066667,"lon":7.55},{"id":740343,"name":"georgenborn","country":"de","lat":50.083333,"lon":8.116667},{"id":789404,"name":"weroth","country":"de","lat":50.466667,"lon":7.95},{"id":725259,"name":"autishof","country":"de","lat":49.95,"lon":7.733333},{"id":750765,"name":"ingelheim-mitte","country":"de","lat":49.983333,"lon":8.066667},{"id":766108,"name":"niedererbach","country":"de","lat":50.433333,"lon":7.983333},{"id":748239,"name":"hochheim am main","country":"de","lat":50.016667,"lon":8.35},{"id":728573,"name":"bockenau","country":"de","lat":49.833333,"lon":7.683333},{"id":763127,"name":"monzernheim","country":"de","lat":49.721389,"lon":8.228333},{"id":774187,"name":"rheinbay","country":"de","lat":50.166667,"lon":7.616667},{"id":724073,"name":"alzey","country":"de","lat":49.751667,"lon":8.116111},{"id":763119,"name":"montabaur","country":"de","lat":50.433333,"lon":7.833333},{"id":732946,"name":"dexheim","country":"de","lat":49.847222,"lon":8.316667},{"id":778873,"name":"schwall","country":"de","lat":50.15,"lon":7.55},{"id":771416,"name":"pissighofen","country":"de","lat":50.216667,"lon":7.783333},{"id":771147,"name":"pferdsfeld","country":"de","lat":49.85,"lon":7.6},{"id":767627,"name":"oberelbert","country":"de","lat":50.383333,"lon":7.816667},{"id":779222,"name":"schwickershausen","country":"de","lat":50.316667,"lon":8.3},{"id":724991,"name":"auel","country":"de","lat":50.166667,"lon":7.766667},{"id":764545,"name":"netzbach","country":"de","lat":50.316667,"lon":8.1},{"id":728667,"name":"boden","country":"de","lat":50.466667,"lon":7.85},{"id":790629,"name":"windhof","country":"de","lat":50.483333,"lon":8.283333},{"id":761561,"name":"mechtildshausen","country":"de","lat":50.041754,"lon":8.324742},{"id":765946,"name":"niederahr","country":"de","lat":50.483333,"lon":7.85},{"id":767170,"name":"nothgottes","country":"de","lat":50.0,"lon":7.916667},{"id":777229,"name":"scheidt","country":"de","lat":50.333333,"lon":7.916667},{"id":733384,"name":"dirmstein","country":"de","lat":49.563333,"lon":8.244722},{"id":776611,"name":"sankt johannisberg","country":"de","lat":49.8,"lon":7.5},{"id":763300,"name":"morschheim","country":"de","lat":49.696667,"lon":8.026111},{"id":768831,"name":"oberstreit","country":"de","lat":49.8,"lon":7.7},{"id":769792,"name":"orlen","country":"de","lat":50.183333,"lon":8.183333},{"id":778149,"name":"schneeweiderhof","country":"de","lat":49.566667,"lon":7.533333},{"id":738776,"name":"frei-laubersheim","country":"de","lat":49.8,"lon":7.9},{"id":737259,"name":"ettikon","country":"de","lat":49.616667,"lon":8.266667},{"id":780306,"name":"simmern","country":"de","lat":49.983333,"lon":7.516667},{"id":782526,"name":"strinz-trinitatis","country":"de","lat":50.233333,"lon":8.15},{"id":729683,"name":"braunweiler","country":"de","lat":49.866667,"lon":7.75},{"id":747126,"name":"herold","country":"de","lat":50.266667,"lon":7.933333},{"id":752115,"name":"kappeln","country":"de","lat":49.683333,"lon":7.566667},{"id":789862,"name":"weyer","country":"de","lat":50.366667,"lon":8.233333},{"id":736434,"name":"engelstadt","country":"de","lat":49.904167,"lon":8.065278},{"id":773427,"name":"rehbach","country":"de","lat":49.85,"lon":7.633333},{"id":724845,"name":"asselheim","country":"de","lat":49.579444,"lon":8.162778},{"id":750766,"name":"ingelheim-nord","country":"de","lat":50.0,"lon":8.033333},{"id":745557,"name":"hasenbergerhof","country":"de","lat":50.233333,"lon":7.983333},{"id":735307,"name":"ehrerheide","country":"de","lat":50.166667,"lon":7.583333},{"id":753324,"name":"kirschroth","country":"de","lat":49.766667,"lon":7.566667},{"id":735357,"name":"eichberg","country":"de","lat":50.033333,"lon":8.05},{"id":772896,"name":"ramschied","country":"de","lat":50.133333,"lon":8.033333},{"id":761587,"name":"medard","country":"de","lat":49.666667,"lon":7.616667},{"id":759395,"name":"littersheimer hof","country":"de","lat":49.6,"lon":8.366667},{"id":782568,"name":"stromberg","country":"de","lat":49.95,"lon":7.766667},{"id":788712,"name":"weilbach","country":"de","lat":50.05,"lon":8.433333},{"id":759813,"name":"lorchhausen","country":"de","lat":50.05,"lon":7.783333},{"id":791629,"name":"worsdorf","country":"de","lat":50.233333,"lon":8.25},{"id":733414,"name":"dittelsheim","country":"de","lat":49.746389,"lon":8.226389},{"id":737255,"name":"ettersdorf","country":"de","lat":50.4,"lon":7.883333},{"id":734913,"name":"eckelsheim","country":"de","lat":49.8,"lon":7.983333},{"id":722624,"name":"adenbach","country":"de","lat":49.666667,"lon":7.65},{"id":768258,"name":"obermeilingen","country":"de","lat":50.166667,"lon":7.9},{"id":773188,"name":"raunheim","country":"de","lat":50.016667,"lon":8.45},{"id":764230,"name":"naurod","country":"de","lat":50.133333,"lon":8.3},{"id":789077,"name":"wellmich","country":"de","lat":50.166667,"lon":7.7},{"id":736660,"name":"eppstein","country":"de","lat":50.133333,"lon":8.4},{"id":766158,"name":"niedergondershausen","country":"de","lat":50.166667,"lon":7.5},{"id":759167,"name":"lindenholzhausen","country":"de","lat":50.366667,"lon":8.116667},{"id":730777,"name":"budenheim","country":"de","lat":50.016667,"lon":8.166667},{"id":784310,"name":"trebur","country":"de","lat":49.931111,"lon":8.416111},{"id":760111,"name":"ludwigshohe","country":"de","lat":49.816667,"lon":8.343611},{"id":788314,"name":"watzelhain","country":"de","lat":50.133333,"lon":8.0},{"id":724872,"name":"astheim","country":"de","lat":49.935556,"lon":8.381667},{"id":740333,"name":"gensingen","country":"de","lat":49.9,"lon":7.933333},{"id":737159,"name":"esselborn","country":"de","lat":49.715278,"lon":8.118611},{"id":779619,"name":"seitzenhahn","country":"de","lat":50.116667,"lon":8.116667},{"id":792166,"name":"zehnhausen bei wallmerod","country":"de","lat":50.466667,"lon":7.933333},{"id":768436,"name":"ober-olm","country":"de","lat":49.937222,"lon":8.188889},{"id":782008,"name":"stetten","country":"de","lat":49.669444,"lon":8.091944},{"id":743166,"name":"grossniedesheim","country":"de","lat":49.575278,"lon":8.312222},{"id":769452,"name":"offheim","country":"de","lat":50.416667,"lon":8.066667},{"id":727648,"name":"biebelsheim","country":"de","lat":49.866667,"lon":7.933333},{"id":728873,"name":"bolanderhof","country":"de","lat":49.65,"lon":8.033333},{"id":759815,"name":"lorch rheingaukreis","country":"de","lat":50.05,"lon":7.816667},{"id":735261,"name":"ehlhalten","country":"de","lat":50.183333,"lon":8.366667},{"id":745136,"name":"hangen-weisheim","country":"de","lat":49.710278,"lon":8.183611},{"id":784799,"name":"udenhausen","country":"de","lat":50.233333,"lon":7.5},{"id":729064,"name":"boppard","country":"de","lat":50.233333,"lon":7.6},{"id":790816,"name":"winterwerb","country":"de","lat":50.233333,"lon":7.733333},{"id":766092,"name":"niederelbert","country":"de","lat":50.416667,"lon":7.816667},{"id":773858,"name":"relsberg","country":"de","lat":49.6,"lon":7.666667},{"id":735279,"name":"ehr","country":"de","lat":50.183333,"lon":7.566667},{"id":774770,"name":"rockenhausen","country":"de","lat":49.633333,"lon":7.833333},{"id":782660,"name":"studernheim","country":"de","lat":49.505833,"lon":8.363889},{"id":768880,"name":"obertiefenbach","country":"de","lat":50.233333,"lon":7.883333},{"id":733085,"name":"dienethal","country":"de","lat":50.3,"lon":7.783333},{"id":766579,"name":"niederspay","country":"de","lat":50.266667,"lon":7.65},{"id":777815,"name":"schlossborn","country":"de","lat":50.2,"lon":8.383333},{"id":775709,"name":"roxheim","country":"de","lat":49.581111,"lon":8.362778},{"id":729859,"name":"breitenfelserhof","country":"de","lat":49.883333,"lon":7.833333},{"id":763128,"name":"monzingen","country":"de","lat":49.8,"lon":7.583333},{"id":762365,"name":"miellen","country":"de","lat":50.333333,"lon":7.666667},{"id":748288,"name":"hochstatten","country":"de","lat":49.766667,"lon":7.833333},{"id":756402,"name":"kroftel","country":"de","lat":50.233333,"lon":8.383333},{"id":724203,"name":"amoshof","country":"de","lat":49.566667,"lon":7.7},{"id":765902,"name":"ney","country":"de","lat":50.183333,"lon":7.533333},{"id":779714,"name":"selzen","country":"de","lat":49.860556,"lon":8.255278},{"id":734314,"name":"dromersheim","country":"de","lat":49.916667,"lon":7.966667},{"id":781615,"name":"steinborn","country":"de","lat":49.553611,"lon":8.042222},{"id":724347,"name":"angschied","country":"de","lat":50.15,"lon":7.916667},{"id":776496,"name":"sandhofen","country":"de","lat":49.542222,"lon":8.448333},{"id":763842,"name":"munsterappel","country":"de","lat":49.733333,"lon":7.883333},{"id":791626,"name":"worsbach","country":"de","lat":49.55,"lon":7.666667},{"id":767238,"name":"nussbach","country":"de","lat":49.633333,"lon":7.7},{"id":746506,"name":"heinzenhausen","country":"de","lat":49.633333,"lon":7.6},{"id":766701,"name":"niederzeuzheim","country":"de","lat":50.466667,"lon":8.033333},{"id":748960,"name":"hohlenfels","country":"de","lat":50.3,"lon":8.033333},{"id":736190,"name":"eltville","country":"de","lat":50.033333,"lon":8.116667},{"id":772022,"name":"prath","country":"de","lat":50.183333,"lon":7.683333},{"id":733613,"name":"dolgesheim","country":"de","lat":49.794444,"lon":8.256944},{"id":739936,"name":"gau-odernheim","country":"de","lat":49.784722,"lon":8.194167},{"id":758687,"name":"lettweiler","country":"de","lat":49.733333,"lon":7.733333},{"id":765242,"name":"neukirchen","country":"de","lat":49.5,"lon":7.866667},{"id":776499,"name":"sandhof","country":"de","lat":49.733333,"lon":8.35},{"id":726350,"name":"bauschheim","country":"de","lat":49.959722,"lon":8.376667},{"id":768152,"name":"oberlauken","country":"de","lat":50.333333,"lon":8.433333},{"id":776412,"name":"sambach","country":"de","lat":49.5,"lon":7.716667},{"id":727658,"name":"biebernheim","country":"de","lat":50.15,"lon":7.7},{"id":766399,"name":"niederneisen","country":"de","lat":50.333333,"lon":8.05},{"id":741460,"name":"gondershausen","country":"de","lat":50.15,"lon":7.5},{"id":761024,"name":"marienborn","country":"de","lat":49.961667,"lon":8.227778},{"id":792021,"name":"zahlbach","country":"de","lat":49.981667,"lon":8.241667},{"id":791835,"name":"wurges","country":"de","lat":50.283333,"lon":8.283333},{"id":724199,"name":"amoneburg","country":"de","lat":50.033333,"lon":8.266667},{"id":781264,"name":"stahlberg","country":"de","lat":49.666667,"lon":7.783333},{"id":769539,"name":"ohren","country":"de","lat":50.3,"lon":8.183333},{"id":747383,"name":"hessenaue","country":"de","lat":49.890556,"lon":8.370556},{"id":752603,"name":"keidelheim","country":"de","lat":49.983333,"lon":7.5},{"id":779412,"name":"seelbach","country":"de","lat":50.316667,"lon":7.866667},{"id":778053,"name":"schmittweiler bei odenbach","country":"de","lat":49.683333,"lon":7.7},{"id":746250,"name":"heidesheim","country":"de","lat":50.0,"lon":8.126111},{"id":774192,"name":"rheinbollerhutte","country":"de","lat":49.983333,"lon":7.7},{"id":763788,"name":"munchwald","country":"de","lat":49.9,"lon":7.683333},{"id":724570,"name":"arfurt","country":"de","lat":50.4,"lon":8.2},{"id":733226,"name":"dietkirchen","country":"de","lat":50.4,"lon":8.1},{"id":767900,"name":"oberheimbach","country":"de","lat":50.016667,"lon":7.783333},{"id":780407,"name":"sippersfeld","country":"de","lat":49.55,"lon":7.933333},{"id":754472,"name":"kleinweinbach","country":"de","lat":50.4,"lon":8.3},{"id":749415,"name":"homberg","country":"de","lat":49.65,"lon":7.516667},{"id":764324,"name":"neesbach","country":"de","lat":50.333333,"lon":8.15},{"id":723325,"name":"alsenbruck","country":"de","lat":49.566667,"lon":7.866667},{"id":779148,"name":"schweizerhaus","country":"de","lat":49.983333,"lon":7.85},{"id":725176,"name":"aull","country":"de","lat":50.4,"lon":8.0},{"id":769019,"name":"oberwesel","country":"de","lat":50.1,"lon":7.733333},{"id":766556,"name":"niederseelback","country":"de","lat":50.183333,"lon":8.3},{"id":736532,"name":"ennerich","country":"de","lat":50.4,"lon":8.133333},{"id":759777,"name":"lonsheim","country":"de","lat":49.778611,"lon":8.076667},{"id":766312,"name":"niederlauken","country":"de","lat":50.35,"lon":8.433333},{"id":734108,"name":"drehenthalerhof","country":"de","lat":49.516667,"lon":7.816667},{"id":738946,"name":"friedelhausen","country":"de","lat":49.55,"lon":7.5},{"id":775588,"name":"rothselberg","country":"de","lat":49.55,"lon":7.6},{"id":786288,"name":"utzenhain","country":"de","lat":50.133333,"lon":7.633333},{"id":747498,"name":"heuchelheim bei frankenthal","country":"de","lat":49.563056,"lon":8.290833},{"id":749632,"name":"horingen","country":"de","lat":49.55,"lon":7.8},{"id":780743,"name":"sorgenloch","country":"de","lat":49.883056,"lon":8.201111},{"id":769736,"name":"oppenheim","country":"de","lat":49.858056,"lon":8.367778},{"id":741456,"name":"gonbach","country":"de","lat":49.55,"lon":7.9},{"id":762066,"name":"mertesheim","country":"de","lat":49.571667,"lon":8.135556},{"id":781023,"name":"sporkenheim","country":"de","lat":49.983333,"lon":8.016667},{"id":735738,"name":"eisenbach","country":"de","lat":50.333333,"lon":8.25},{"id":742615,"name":"grossbockenheim","country":"de","lat":49.6,"lon":8.183333},{"id":788318,"name":"watzhahn","country":"de","lat":50.166667,"lon":8.116667},{"id":790675,"name":"wingertsweilerhof","country":"de","lat":49.566667,"lon":7.8},{"id":746423,"name":"heimkirchen","country":"de","lat":49.566667,"lon":7.716667},{"id":739989,"name":"gebroth","country":"de","lat":49.883333,"lon":7.65},{"id":731806,"name":"colln","country":"de","lat":49.683333,"lon":7.8},{"id":764154,"name":"nastatten","country":"de","lat":50.2,"lon":7.866667},{"id":748035,"name":"hinzweiler","country":"de","lat":49.583333,"lon":7.55},{"id":746894,"name":"henschhausen","country":"de","lat":50.066667,"lon":7.75},{"id":752488,"name":"kaub","country":"de","lat":50.083333,"lon":7.766667},{"id":773846,"name":"reitzenhain","country":"de","lat":50.15,"lon":7.783333},{"id":760934,"name":"mappen hof","country":"de","lat":50.066667,"lon":8.0},{"id":739084,"name":"friedrichssegen","country":"de","lat":50.3,"lon":7.666667},{"id":730043,"name":"bretzenheim","country":"de","lat":49.866667,"lon":7.9},{"id":740875,"name":"girod","country":"de","lat":50.45,"lon":7.916667},{"id":769201,"name":"odenbach","country":"de","lat":49.683333,"lon":7.65},{"id":726650,"name":"beindersheim","country":"de","lat":49.560556,"lon":8.319444},{"id":746819,"name":"henau","country":"de","lat":49.866667,"lon":7.5},{"id":736565,"name":"entenpfuhl","country":"de","lat":49.866667,"lon":7.6},{"id":732430,"name":"dauborn","country":"de","lat":50.333333,"lon":8.183333},{"id":736547,"name":"ensheim","country":"de","lat":49.806389,"lon":8.115556},{"id":743887,"name":"gumbsweiler","country":"de","lat":49.6,"lon":7.5},{"id":766414,"name":"niedernhausen","country":"de","lat":50.15,"lon":8.316667},{"id":767186,"name":"notwende","country":"de","lat":49.503056,"lon":8.374444},{"id":729059,"name":"boos","country":"de","lat":49.8,"lon":7.716667},{"id":772903,"name":"ramsen","country":"de","lat":49.536944,"lon":8.013333},{"id":750859,"name":"ippenschied","country":"de","lat":49.866667,"lon":7.633333},{"id":764444,"name":"nentershausen","country":"de","lat":50.416667,"lon":7.933333},{"id":757723,"name":"langscheid","country":"de","lat":50.083333,"lon":7.733333},{"id":781128,"name":"stadecken-elsheim","country":"de","lat":49.912222,"lon":8.125278},{"id":736012,"name":"ellern","country":"de","lat":49.983333,"lon":7.633333},{"id":723126,"name":"algenroth","country":"de","lat":50.166667,"lon":7.883333},{"id":728417,"name":"blodesheim","country":"de","lat":49.733333,"lon":8.2},{"id":770598,"name":"partenheim","country":"de","lat":49.883889,"lon":8.082222},{"id":726769,"name":"bendorf-sayn","country":"de","lat":50.433333,"lon":7.583333},{"id":749736,"name":"horrweiler","country":"de","lat":49.9,"lon":7.966667},{"id":738025,"name":"finkenbach","country":"de","lat":49.683333,"lon":7.75},{"id":757649,"name":"langenthal","country":"de","lat":49.833333,"lon":7.566667},{"id":761947,"name":"mensfelden","country":"de","lat":50.35,"lon":8.1},{"id":727646,"name":"biebelnheim","country":"de","lat":49.796667,"lon":8.170556},{"id":768988,"name":"oberweiler","country":"de","lat":49.6,"lon":7.6},{"id":767483,"name":"oberbrechen","country":"de","lat":50.35,"lon":8.2},{"id":750716,"name":"imsweiler","country":"de","lat":49.6,"lon":7.8},{"id":746056,"name":"heddesheim","country":"de","lat":49.883333,"lon":7.85},{"id":778731,"name":"schupbach","country":"de","lat":50.45,"lon":8.166667},{"id":733661,"name":"dombach","country":"de","lat":50.3,"lon":8.316667},{"id":779529,"name":"seibersbach","country":"de","lat":49.966667,"lon":7.716667},{"id":751924,"name":"kaltenholzhausen","country":"de","lat":50.3,"lon":8.1},{"id":787669,"name":"waldesch","country":"de","lat":50.283333,"lon":7.55},{"id":790623,"name":"windhauserhof","country":"de","lat":49.933333,"lon":8.133333},{"id":761370,"name":"massenheim","country":"de","lat":50.033333,"lon":8.383333},{"id":736737,"name":"erfelden","country":"de","lat":49.835556,"lon":8.468056},{"id":735687,"name":"einselthum","country":"de","lat":49.651667,"lon":8.124722},{"id":743954,"name":"gundheim","country":"de","lat":49.675833,"lon":8.237778},{"id":739394,"name":"furfurt","country":"de","lat":50.433333,"lon":8.25},{"id":790609,"name":"windesheim","country":"de","lat":49.9,"lon":7.816667},{"id":775759,"name":"ruckershausen","country":"de","lat":50.266667,"lon":8.066667},{"id":774328,"name":"riedelbach","country":"de","lat":50.3,"lon":8.4},{"id":757995,"name":"lauschied","country":"de","lat":49.733333,"lon":7.616667},{"id":737685,"name":"faulbach","country":"de","lat":50.466667,"lon":7.683333},{"id":754138,"name":"kleinniedesheim","country":"de","lat":49.586944,"lon":8.322222},{"id":776551,"name":"sankt alban","country":"de","lat":49.683333,"lon":7.866667},{"id":752485,"name":"katzweiler","country":"de","lat":49.5,"lon":7.7},{"id":748097,"name":"hirschhorn","country":"de","lat":49.516667,"lon":7.683333},{"id":763777,"name":"munchschwanderhof","country":"de","lat":49.5,"lon":7.8},{"id":738343,"name":"fockenberg-limbach","country":"de","lat":49.5,"lon":7.5},{"id":771868,"name":"porrbach","country":"de","lat":49.5,"lon":7.6},{"id":729311,"name":"bosenheim","country":"de","lat":49.85,"lon":7.916667},{"id":768535,"name":"oberreifenberg","country":"de","lat":50.25,"lon":8.433333},{"id":786177,"name":"urmitz","country":"de","lat":50.416667,"lon":7.516667},{"id":769319,"name":"oelsberg","country":"de","lat":50.2,"lon":7.833333},{"id":789413,"name":"werschau","country":"de","lat":50.35,"lon":8.166667},{"id":738005,"name":"filsen","country":"de","lat":50.233333,"lon":7.583333},{"id":749322,"name":"holzhausen uber aar","country":"de","lat":50.2,"lon":8.083333},{"id":750687,"name":"immesheim","country":"de","lat":49.636389,"lon":8.105278},{"id":749790,"name":"horterhof","country":"de","lat":49.533333,"lon":7.766667},{"id":768506,"name":"oberquembach","country":"de","lat":50.466667,"lon":8.483333},{"id":731241,"name":"burstadt","country":"de","lat":49.643611,"lon":8.46}]});