callback({"markets":[{"id":1350379,"name":"panchala","country":"in","lat":26.9065,"lon":75.7247},{"id":1325683,"name":"basi","country":"in","lat":26.833333,"lon":76.033333},{"id":1335772,"name":"harisingh ki basi","country":"in","lat":26.9796,"lon":75.5041},{"id":1340289,"name":"keriya ka bas","country":"in","lat":26.8197,"lon":75.5051},{"id":1345409,"name":"mangiyawas","country":"in","lat":26.8591,"lon":75.736},{"id":1348373,"name":"nangal jaisanbohran","country":"in","lat":26.9663,"lon":75.7393},{"id":1349356,"name":"nimora","country":"in","lat":26.5,"lon":75.516667},{"id":1327153,"name":"bhopa ki dhani","country":"in","lat":26.8672,"lon":75.5056},{"id":1338811,"name":"kalwara","country":"in","lat":26.7969,"lon":75.6366},{"id":1348585,"name":"nari ka bas","country":"in","lat":26.9785,"lon":75.6454},{"id":1353331,"name":"ramgarh jamwa","country":"in","lat":27.016667,"lon":76.0},{"id":1327184,"name":"bhudarpura","country":"in","lat":26.9847,"lon":75.6695},{"id":1323295,"name":"asarpura","country":"in","lat":26.8651,"lon":75.7269},{"id":1323985,"name":"bagru","country":"in","lat":26.8084,"lon":75.5435},{"id":1321915,"name":"achrala","country":"in","lat":26.7633,"lon":75.7378},{"id":1351375,"name":"pempura","country":"in","lat":26.7747,"lon":75.6528},{"id":1348625,"name":"narotampura","country":"in","lat":26.8367,"lon":75.71},{"id":1337618,"name":"jhai","country":"in","lat":26.8223,"lon":75.6523},{"id":1327963,"name":"bonliya ki dhani","country":"in","lat":26.9427,"lon":75.745},{"id":1351965,"name":"pithawas","country":"in","lat":26.962,"lon":75.6774},{"id":1323364,"name":"aspura","country":"in","lat":27.433333,"lon":75.75},{"id":1328923,"name":"chandma","country":"in","lat":26.5,"lon":75.666667},{"id":1341790,"name":"kolkhadoa","country":"in","lat":26.65,"lon":76.083333},{"id":1357606,"name":"sri madhopur","country":"in","lat":27.466667,"lon":75.6},{"id":1350453,"name":"pando ki dhani","country":"in","lat":26.8936,"lon":75.6785},{"id":1322489,"name":"aluda","country":"in","lat":26.8,"lon":76.383333},{"id":1329106,"name":"charan ka bas","country":"in","lat":26.957,"lon":75.5175},{"id":1336933,"name":"jairampura","country":"in","lat":27.066667,"lon":75.683333},{"id":1351505,"name":"phagi","country":"in","lat":26.583333,"lon":75.566667},{"id":1336942,"name":"jaisinghpura","country":"in","lat":26.8399,"lon":75.6982},{"id":1339276,"name":"kanota","country":"in","lat":26.866667,"lon":75.95},{"id":1325353,"name":"barh","country":"in","lat":26.8825,"lon":75.5617},{"id":1354697,"name":"sainthal","country":"in","lat":27.033333,"lon":76.3},{"id":1348089,"name":"naila","country":"in","lat":26.916667,"lon":75.983333},{"id":1328994,"name":"chandwaji","country":"in","lat":27.216667,"lon":75.95},{"id":1339346,"name":"kanwar ka bas","country":"in","lat":26.9575,"lon":75.5717},{"id":1343897,"name":"lokhanda ki dhani","country":"in","lat":26.8225,"lon":75.5107},{"id":1328817,"name":"chanchukiya","country":"in","lat":26.8568,"lon":75.5411},{"id":1334374,"name":"girdharipura","country":"in","lat":26.7871,"lon":75.678},{"id":1357069,"name":"sirani","country":"in","lat":26.7622,"lon":75.6287},{"id":1334970,"name":"gujron ki dhani","country":"in","lat":26.9865,"lon":75.5369},{"id":1329213,"name":"chattarpura","country":"in","lat":26.7606,"lon":75.6661},{"id":1339637,"name":"kar ki dhani","country":"in","lat":26.8779,"lon":75.7166},{"id":1349337,"name":"nimera","country":"in","lat":26.899,"lon":75.6325},{"id":1337478,"name":"jaton ki dhani","country":"in","lat":26.9057,"lon":75.6459},{"id":1359289,"name":"tilas","country":"in","lat":26.8253,"lon":75.6048},{"id":1354120,"name":"ringas","country":"in","lat":27.35,"lon":75.566667},{"id":1322184,"name":"ajabgarh","country":"in","lat":27.2,"lon":76.283333},{"id":1347072,"name":"muhana ki dhani","country":"in","lat":26.7703,"lon":75.7401},{"id":1357750,"name":"sukhiya","country":"in","lat":26.814,"lon":75.7469},{"id":1333499,"name":"ganatpura","country":"in","lat":26.7771,"lon":75.628},{"id":1349538,"name":"noriya","country":"in","lat":26.7664,"lon":75.5583},{"id":1341542,"name":"kishoripura","country":"in","lat":26.944,"lon":75.6661},{"id":1340979,"name":"khejrauli","country":"in","lat":27.333333,"lon":75.7},{"id":1330509,"name":"dahmi kalan","country":"in","lat":26.8342,"lon":75.5644},{"id":1334663,"name":"gopalgarh","country":"in","lat":27.05,"lon":76.066667},{"id":1356050,"name":"seriska","country":"in","lat":27.4,"lon":76.4},{"id":1358987,"name":"thana ghazi","country":"in","lat":27.416667,"lon":76.316667},{"id":1329112,"name":"charanwas","country":"in","lat":26.9918,"lon":75.5573},{"id":1323556,"name":"avaniya","country":"in","lat":26.8283,"lon":75.5184},{"id":1330428,"name":"dadiya","country":"in","lat":26.7962,"lon":75.61},{"id":1327580,"name":"bindayaka","country":"in","lat":26.9159,"lon":75.6605},{"id":1336900,"name":"jaichandpura","country":"in","lat":26.8831,"lon":75.6533},{"id":1357908,"name":"sundriyawas","country":"in","lat":26.9577,"lon":75.5977},{"id":1340331,"name":"keshupura","country":"in","lat":26.8774,"lon":75.7092},{"id":1335231,"name":"gurliya","country":"in","lat":26.9239,"lon":75.5492},{"id":1355200,"name":"sanjriya","country":"in","lat":26.8599,"lon":75.5936},{"id":1355411,"name":"saran ki dhani","country":"in","lat":26.9899,"lon":75.6207},{"id":1349437,"name":"nitharwala ki dhani","country":"in","lat":26.9755,"lon":75.5407},{"id":1360291,"name":"unti","country":"in","lat":26.7702,"lon":75.5227},{"id":1327326,"name":"bichpari","country":"in","lat":26.8787,"lon":75.6273},{"id":1338485,"name":"kakroda","country":"in","lat":26.8824,"lon":75.6062},{"id":1357043,"name":"sinwar","country":"in","lat":26.9226,"lon":75.6341},{"id":1335941,"name":"hathod","country":"in","lat":26.9606,"lon":75.6806},{"id":1347522,"name":"nadi ki dhani","country":"in","lat":26.8945,"lon":75.683},{"id":1356562,"name":"shopura","country":"in","lat":26.9126,"lon":75.5528},{"id":1348422,"name":"nanosar","country":"in","lat":26.9268,"lon":75.6637},{"id":1331787,"name":"dharampura","country":"in","lat":26.9768,"lon":75.6298},{"id":1328729,"name":"chamanpura","country":"in","lat":26.8239,"lon":75.5341},{"id":1326514,"name":"bhakhrota","country":"in","lat":26.8721,"lon":75.699},{"id":1330510,"name":"dahmi khurd","country":"in","lat":26.8287,"lon":75.5767},{"id":1347103,"name":"mukandpura","country":"in","lat":26.8783,"lon":75.664},{"id":1337608,"name":"jeypore","country":"in","lat":26.916667,"lon":75.816667},{"id":1358802,"name":"tehla","country":"in","lat":27.233333,"lon":76.4},{"id":1353317,"name":"ramenandpura","country":"in","lat":26.8504,"lon":75.6532},{"id":1324326,"name":"balai ki dhani","country":"in","lat":26.9963,"lon":75.5253},{"id":1325145,"name":"bara kiranwali dhani","country":"in","lat":26.9931,"lon":75.7251},{"id":1341178,"name":"khoh","country":"in","lat":27.183333,"lon":76.383333},{"id":1336973,"name":"jajaspura","country":"in","lat":26.7734,"lon":75.5979},{"id":1351773,"name":"pindolai","country":"in","lat":26.9347,"lon":75.6436},{"id":1355137,"name":"sanganer town","country":"in","lat":26.816667,"lon":75.783333},{"id":1335806,"name":"harnathpura","country":"in","lat":26.9519,"lon":75.7321},{"id":1326632,"name":"bhankrota khurd","country":"in","lat":26.7655,"lon":75.57},{"id":1350619,"name":"paparda","country":"in","lat":26.783333,"lon":76.433333},{"id":1332157,"name":"dhurniyawas","country":"in","lat":26.9551,"lon":75.5867},{"id":1324496,"name":"balmukanpura","country":"in","lat":26.8478,"lon":75.6117},{"id":1345960,"name":"matawali dhani","country":"in","lat":26.9967,"lon":75.6984},{"id":1335653,"name":"harbanspura","country":"in","lat":26.8356,"lon":75.7044},{"id":1324372,"name":"balawala","country":"in","lat":26.7502,"lon":75.7353},{"id":1349453,"name":"niwaru","country":"in","lat":26.9731,"lon":75.7129},{"id":1333411,"name":"gajesinghpura","country":"in","lat":26.8769,"lon":75.7283},{"id":1325386,"name":"bari ka khera","country":"in","lat":26.8275,"lon":75.5413},{"id":1346354,"name":"meri ka bas","country":"in","lat":26.9552,"lon":75.5229},{"id":1338496,"name":"kakuri dhani","country":"in","lat":26.9954,"lon":75.7333},{"id":1355405,"name":"sarangpura ki dhani","country":"in","lat":26.8421,"lon":75.6452},{"id":1327731,"name":"bisanhala","country":"in","lat":26.9255,"lon":75.727},{"id":1356584,"name":"shrirampura","country":"in","lat":26.8516,"lon":75.7049},{"id":1343221,"name":"lakas","country":"in","lat":26.7628,"lon":75.582},{"id":1331715,"name":"dhankya ki dhani","country":"in","lat":26.9248,"lon":75.5827},{"id":1326572,"name":"bhamori","country":"in","lat":26.9587,"lon":75.6174},{"id":1328525,"name":"chakala","country":"in","lat":26.7541,"lon":75.5974},{"id":1346481,"name":"minawala","country":"in","lat":26.9227,"lon":75.7114},{"id":1342385,"name":"kuchiyari","country":"in","lat":26.8886,"lon":75.6927},{"id":1343418,"name":"lalsot","country":"in","lat":26.566667,"lon":76.333333},{"id":1338507,"name":"kala dera","country":"in","lat":27.183333,"lon":75.616667},{"id":1343431,"name":"lalya ka bas","country":"in","lat":26.834,"lon":75.6599},{"id":1361280,"name":"watka","country":"in","lat":26.716667,"lon":75.8},{"id":1352373,"name":"puniya ki dhani","country":"in","lat":26.9368,"lon":75.5491},{"id":1343880,"name":"lohriya bagru","country":"in","lat":26.8225,"lon":75.5027},{"id":1343425,"name":"lalupura","country":"in","lat":26.9033,"lon":75.7075},{"id":1326573,"name":"bhamoriya","country":"in","lat":26.8244,"lon":75.6372},{"id":1331961,"name":"dherwali dhani","country":"in","lat":26.9868,"lon":75.6438},{"id":1340917,"name":"khatoja ki dhani","country":"in","lat":26.951,"lon":75.6898},{"id":1351507,"name":"phagoriya","country":"in","lat":26.8565,"lon":75.627},{"id":1344126,"name":"machwa","country":"in","lat":26.9627,"lon":75.6568},{"id":1356355,"name":"sheodaspura","country":"in","lat":26.7,"lon":75.9},{"id":1336594,"name":"intokiya ki dhani","country":"in","lat":26.9355,"lon":75.6072},{"id":1359888,"name":"tunga","country":"in","lat":26.733333,"lon":76.15},{"id":1358006,"name":"suratpura","country":"in","lat":26.7749,"lon":75.6062},{"id":1358284,"name":"talaiwali dhani","country":"in","lat":26.9589,"lon":75.7114},{"id":1349832,"name":"pachar","country":"in","lat":26.97,"lon":75.5388},{"id":1343327,"name":"lakshminarayanpura","country":"in","lat":26.7628,"lon":75.5505},{"id":1346482,"name":"minawali dhani","country":"in","lat":26.9171,"lon":75.7245},{"id":1355039,"name":"sampura","country":"in","lat":26.7852,"lon":75.5878},{"id":1357140,"name":"sirsi ki dhani","country":"in","lat":26.9251,"lon":75.68},{"id":1357146,"name":"sirsi","country":"in","lat":26.9104,"lon":75.6787},{"id":1326826,"name":"bhattawala","country":"in","lat":26.7594,"lon":75.5925},{"id":1349141,"name":"nevata","country":"in","lat":26.7972,"lon":75.6799},{"id":1324772,"name":"bando ki dhani","country":"in","lat":26.8821,"lon":75.7016},{"id":1321857,"name":"abhaipura","country":"in","lat":26.7707,"lon":75.722},{"id":1359105,"name":"thikriya","country":"in","lat":26.8474,"lon":75.6203},{"id":1339399,"name":"kapurawala","country":"in","lat":26.7677,"lon":75.7081},{"id":1352998,"name":"raisar","country":"in","lat":27.15,"lon":76.116667},{"id":1352890,"name":"rahawas","country":"in","lat":26.7,"lon":76.333333},{"id":1359591,"name":"tiwariwala","country":"in","lat":26.9168,"lon":75.5693},{"id":1342553,"name":"kumara ki dhani","country":"in","lat":26.959,"lon":75.5381},{"id":1345613,"name":"mansarampura","country":"in","lat":26.9861,"lon":75.689},{"id":1344222,"name":"madhorajpura","country":"in","lat":26.583333,"lon":75.65},{"id":1322721,"name":"amloda","country":"in","lat":27.333333,"lon":76.066667},{"id":1334592,"name":"goliyawas","country":"in","lat":26.8473,"lon":75.7463},{"id":1330825,"name":"darawala ki dhani","country":"in","lat":26.9397,"lon":75.557},{"id":1360261,"name":"unchamagra","country":"in","lat":26.8111,"lon":75.5172},{"id":1360081,"name":"uguni dhani","country":"in","lat":26.977,"lon":75.638},{"id":1355403,"name":"sarang ka bas","country":"in","lat":26.9567,"lon":75.5777},{"id":1341622,"name":"kodar","country":"in","lat":26.8305,"lon":75.5087},{"id":1328920,"name":"chandlai","country":"in","lat":26.683333,"lon":75.883333},{"id":1322562,"name":"amarwa","country":"in","lat":26.666667,"lon":76.483333},{"id":1325941,"name":"begas","country":"in","lat":26.8734,"lon":75.549},{"id":1352248,"name":"prithvisinghpura","country":"in","lat":26.8699,"lon":75.6164},{"id":1343703,"name":"lewali","country":"in","lat":26.566667,"lon":76.483333},{"id":1328767,"name":"champapura","country":"in","lat":26.9754,"lon":75.6347},{"id":1338815,"name":"kalwar","country":"in","lat":26.9883,"lon":75.5846},{"id":1335216,"name":"gurha","country":"in","lat":27.066667,"lon":76.483333},{"id":1337671,"name":"jhaniriya ki dhani","country":"in","lat":26.9766,"lon":75.537},{"id":1345499,"name":"maniyawas","country":"in","lat":26.8669,"lon":75.7391},{"id":1349003,"name":"nayawas","country":"in","lat":26.8659,"lon":75.5479},{"id":1332679,"name":"dudhara ki dhani","country":"in","lat":26.9284,"lon":75.7179},{"id":1337487,"name":"jatwara","country":"in","lat":26.883333,"lon":76.2},{"id":1361001,"name":"virhathad","country":"in","lat":26.9494,"lon":75.6838},{"id":1331683,"name":"dhani bhabhru","country":"in","lat":27.466667,"lon":76.033333},{"id":1357634,"name":"srirampura","country":"in","lat":26.8909,"lon":75.669},{"id":1354445,"name":"sabrampura","country":"in","lat":26.9568,"lon":75.6339},{"id":1328031,"name":"bor ki dhani","country":"in","lat":26.9553,"lon":75.7026},{"id":1355106,"name":"sandkotra","country":"in","lat":27.083333,"lon":76.183333},{"id":1340336,"name":"kesiyawala","country":"in","lat":26.7888,"lon":75.7474},{"id":1326502,"name":"bhajawas","country":"in","lat":26.884,"lon":75.688},{"id":1357116,"name":"siroli","country":"in","lat":26.8,"lon":75.9},{"id":1328909,"name":"chandio","country":"in","lat":26.9,"lon":76.1},{"id":1330792,"name":"daosa","country":"in","lat":26.883333,"lon":76.333333},{"id":1331253,"name":"deorala","country":"in","lat":27.4,"lon":75.766667},{"id":1343898,"name":"lokhanda","country":"in","lat":26.798,"lon":75.5573},{"id":1325494,"name":"baro ki dhani","country":"in","lat":26.9223,"lon":75.7263},{"id":1355027,"name":"samode","country":"in","lat":27.2,"lon":75.816667},{"id":1332458,"name":"dogeta","country":"in","lat":27.116667,"lon":76.266667},{"id":1345572,"name":"manoharpur","country":"in","lat":27.3,"lon":75.95},{"id":1336100,"name":"himmatpura","country":"in","lat":26.888,"lon":75.584},{"id":1336164,"name":"hirapura","country":"in","lat":26.8938,"lon":75.7375},{"id":1354025,"name":"renwal","country":"in","lat":26.683333,"lon":75.683333},{"id":1340937,"name":"khatwara","country":"in","lat":26.821,"lon":75.6721},{"id":1329989,"name":"chitora","country":"in","lat":26.633333,"lon":75.7},{"id":1359905,"name":"tuntili","country":"in","lat":26.633333,"lon":75.8},{"id":1344412,"name":"maharajpura","country":"in","lat":26.8869,"lon":75.6576},{"id":1356580,"name":"shringarpura","country":"in","lat":26.8517,"lon":75.7221},{"id":1337898,"name":"jiwan patel ki dhani","country":"in","lat":26.9871,"lon":75.7239},{"id":1329627,"name":"chhitroli","country":"in","lat":26.8082,"lon":75.5154},{"id":1332606,"name":"doulai","country":"in","lat":26.8361,"lon":75.7455},{"id":1334632,"name":"gondi","country":"in","lat":26.683333,"lon":75.6},{"id":1344402,"name":"mahapura","country":"in","lat":26.8468,"lon":75.672},{"id":1352901,"name":"rahmatpura","country":"in","lat":26.7553,"lon":75.5803},{"id":1345234,"name":"mandau","country":"in","lat":26.8148,"lon":75.7231},{"id":1344967,"name":"maliwara","country":"in","lat":26.9714,"lon":75.6106},{"id":1336132,"name":"hingonia","country":"in","lat":26.533333,"lon":75.866667},{"id":1324987,"name":"banskhoh","country":"in","lat":26.833333,"lon":76.15},{"id":1324168,"name":"bairat","country":"in","lat":27.45,"lon":76.183333},{"id":1334161,"name":"ghatwari","country":"in","lat":27.266667,"lon":76.016667},{"id":1325687,"name":"basi kalan","country":"in","lat":26.9117,"lon":75.5253},{"id":1358811,"name":"tejala","country":"in","lat":26.7567,"lon":75.7257},{"id":1330075,"name":"chonp","country":"in","lat":27.116667,"lon":75.816667},{"id":1346664,"name":"mohanpura","country":"in","lat":26.8246,"lon":75.7394},{"id":1347073,"name":"muhana","country":"in","lat":26.796,"lon":75.7296},{"id":1329210,"name":"chatsu","country":"in","lat":26.6,"lon":75.95},{"id":1344649,"name":"mairh","country":"in","lat":27.366667,"lon":76.15},{"id":1329941,"name":"chirota","country":"in","lat":26.8007,"lon":75.5725},{"id":1326946,"name":"bheriya","country":"in","lat":26.9506,"lon":75.7209},{"id":1326588,"name":"bhandarej","country":"in","lat":26.883333,"lon":76.416667},{"id":1353358,"name":"ramjipura","country":"in","lat":26.7746,"lon":75.6774},{"id":1336839,"name":"jagatsiromanipura","country":"in","lat":26.8134,"lon":75.7329},{"id":1326949,"name":"bherujiwali dhani","country":"in","lat":26.9446,"lon":75.644},{"id":1348380,"name":"nangal","country":"in","lat":27.366667,"lon":76.216667},{"id":1340129,"name":"kawa","country":"in","lat":26.983333,"lon":76.066667},{"id":1351964,"name":"pithawas ki dhani","country":"in","lat":26.9401,"lon":75.7014},{"id":1323390,"name":"astera","country":"in","lat":27.233333,"lon":75.533333},{"id":1327391,"name":"bijaipur ki dhani","country":"in","lat":26.9312,"lon":75.6562},{"id":1328550,"name":"chakbawri","country":"in","lat":26.9902,"lon":75.6846},{"id":1329278,"name":"chaumu","country":"in","lat":27.166667,"lon":75.716667},{"id":1324383,"name":"baldeogarh","country":"in","lat":27.133333,"lon":76.383333},{"id":1336810,"name":"jagannath ki dhani","country":"in","lat":26.9146,"lon":75.7055},{"id":1331305,"name":"derali","country":"in","lat":26.9948,"lon":75.67},{"id":1335674,"name":"hardhyanpura","country":"in","lat":26.827,"lon":75.585},{"id":1339373,"name":"kapariyawas","country":"in","lat":26.9575,"lon":75.5592},{"id":1331938,"name":"dhawas","country":"in","lat":26.888,"lon":75.7158},{"id":1322561,"name":"amarsar","country":"in","lat":27.366667,"lon":75.833333},{"id":1331640,"name":"dhand","country":"in","lat":27.066667,"lon":75.933333},{"id":1338795,"name":"kaluramwali dhani","country":"in","lat":26.9379,"lon":75.7315},{"id":1351859,"name":"pipla","country":"in","lat":26.8177,"lon":75.7027},{"id":1335835,"name":"harsampura","country":"in","lat":26.7781,"lon":75.6946},{"id":1355837,"name":"sawal jaisinghpura","country":"in","lat":26.7734,"lon":75.6668},{"id":1347230,"name":"mundiya","country":"in","lat":26.8981,"lon":75.6226},{"id":1356066,"name":"serwali","country":"in","lat":26.7576,"lon":75.6737},{"id":1358306,"name":"talara","country":"in","lat":26.9867,"lon":75.6581},{"id":1322636,"name":"amber","country":"in","lat":26.983333,"lon":75.866667},{"id":1322224,"name":"ajrajpura ki dhani","country":"in","lat":26.7574,"lon":75.6087},{"id":1334546,"name":"gokulpura","country":"in","lat":26.9354,"lon":75.7192},{"id":1340664,"name":"khanjrawas","country":"in","lat":26.9821,"lon":75.6646},{"id":1328375,"name":"buthariya","country":"in","lat":26.8992,"lon":75.6656},{"id":1343980,"name":"lowan","country":"in","lat":26.766667,"lon":76.2},{"id":1342617,"name":"kumharon ki dhani","country":"in","lat":26.9777,"lon":75.727},{"id":1347505,"name":"nadawali dhani","country":"in","lat":26.888,"lon":75.645},{"id":1355406,"name":"sarangpura","country":"in","lat":26.8444,"lon":75.6358},{"id":1340304,"name":"kesala","country":"in","lat":26.9088,"lon":75.5649},{"id":1355082,"name":"sanchoti","country":"in","lat":26.9989,"lon":75.632},{"id":1346082,"name":"maujeramwali dhani","country":"in","lat":26.9395,"lon":75.7348},{"id":1338979,"name":"kanakpura","country":"in","lat":26.916,"lon":75.7084},{"id":1348733,"name":"natlalpura","country":"in","lat":26.8867,"lon":75.6178},{"id":1348299,"name":"nandgaon","country":"in","lat":26.915,"lon":75.6052},{"id":1333990,"name":"gegha","country":"in","lat":26.8253,"lon":75.5432},{"id":1323820,"name":"badrawas","country":"in","lat":26.8799,"lon":75.7418},{"id":1322223,"name":"ajrajpura","country":"in","lat":26.7633,"lon":75.6031},{"id":1347279,"name":"munna ki dhani","country":"in","lat":26.9763,"lon":75.6951},{"id":1334837,"name":"govindpura","country":"in","lat":26.9501,"lon":75.7022},{"id":1353373,"name":"ramla ka bas","country":"in","lat":26.9733,"lon":75.5521},{"id":1337127,"name":"jamadar ki dhani","country":"in","lat":26.8889,"lon":75.6792},{"id":1331605,"name":"dhanakya","country":"in","lat":26.9121,"lon":75.5865},{"id":1331439,"name":"devliya","country":"in","lat":26.8272,"lon":75.5918},{"id":1333400,"name":"gajadharpura","country":"in","lat":26.9992,"lon":75.6254},{"id":1346478,"name":"mina ki dhani","country":"in","lat":26.8012,"lon":75.5218},{"id":1330341,"name":"dabar ki dhani","country":"in","lat":26.8471,"lon":75.5478}]});