callback({"markets":[{"id":316532,"name":"sao jose","country":"br","lat":-14.45,"lon":-55.666667},{"id":327847,"name":"vaquejador","country":"br","lat":-14.383333,"lon":-55.616667},{"id":326479,"name":"teixeira","country":"br","lat":-14.3,"lon":-56.283333},{"id":310365,"name":"piarore","country":"br","lat":-14.183333,"lon":-56.2},{"id":292458,"name":"caju","country":"br","lat":-14.366667,"lon":-56.433333},{"id":311825,"name":"porto esperanca","country":"br","lat":-14.15,"lon":-56.1},{"id":287986,"name":"arinos","country":"br","lat":-14.033333,"lon":-56.466667},{"id":313936,"name":"rio novo","country":"br","lat":-14.233333,"lon":-55.516667},{"id":316283,"name":"sao joao","country":"br","lat":-14.1,"lon":-56.366667},{"id":292033,"name":"cachoeira","country":"br","lat":-14.416667,"lon":-55.65},{"id":291681,"name":"buracao","country":"br","lat":-14.35,"lon":-55.766667},{"id":296764,"name":"diamantino","country":"br","lat":-14.416667,"lon":-56.45},{"id":308919,"name":"pantanalzinho","country":"br","lat":-14.233333,"lon":-55.633333},{"id":289890,"name":"barreiro","country":"br","lat":-14.483333,"lon":-55.8},{"id":294595,"name":"cerquinha","country":"br","lat":-14.4,"lon":-55.966667},{"id":302906,"name":"jaudilandia","country":"br","lat":-13.6,"lon":-55.966667},{"id":286319,"name":"agua fina","country":"br","lat":-14.266667,"lon":-55.966667},{"id":307940,"name":"nova","country":"br","lat":-14.15,"lon":-56.283333}]});