callback({"markets":[{"id":2910795,"name":"postoak","country":"us","lat":32.0008333,"lon":-85.82},{"id":2909632,"name":"jacksons lake","country":"us","lat":32.4452778,"lon":-86.3411111},{"id":2910105,"name":"mcdade","country":"us","lat":32.3155556,"lon":-86.0463889},{"id":2908973,"name":"ezell","country":"us","lat":31.9175,"lon":-85.8555556},{"id":2909414,"name":"hector","country":"us","lat":32.1122222,"lon":-85.9088889},{"id":2910698,"name":"pike road","country":"us","lat":32.2841667,"lon":-86.1030556},{"id":2908543,"name":"colina","country":"us","lat":31.9527778,"lon":-85.8361111},{"id":2911748,"name":"waugh","country":"us","lat":32.365,"lon":-86.045},{"id":2907749,"name":"akinsville","country":"us","lat":31.6355556,"lon":-85.6111111},{"id":2910670,"name":"perrys mill","country":"us","lat":32.2911111,"lon":-86.1583333},{"id":2909912,"name":"little texas","country":"us","lat":32.4427778,"lon":-85.5683333},{"id":2908588,"name":"corcoran","country":"us","lat":31.8313889,"lon":-85.9497222},{"id":2907940,"name":"baxters","country":"us","lat":31.7575,"lon":-85.5811111},{"id":2908432,"name":"chesson","country":"us","lat":32.2936111,"lon":-85.9244444},{"id":2908285,"name":"calebee","country":"us","lat":32.3852778,"lon":-85.8844444},{"id":2908448,"name":"china grove","country":"us","lat":32.0294444,"lon":-85.9447222},{"id":2911490,"name":"teasleys mill","country":"us","lat":32.1541667,"lon":-86.1113889},{"id":2908374,"name":"centenary","country":"us","lat":31.7786111,"lon":-86.3675},{"id":2910678,"name":"petrey","country":"us","lat":31.8486111,"lon":-86.2077778},{"id":2910963,"name":"robinson crossroads","country":"us","lat":31.7355556,"lon":-86.3755556},{"id":2910277,"name":"mossy grove","country":"us","lat":31.7544444,"lon":-85.96},{"id":2911276,"name":"smuteye","country":"us","lat":31.9777778,"lon":-85.6502778},{"id":2911727,"name":"ware","country":"us","lat":32.4563889,"lon":-86.0508333},{"id":2909193,"name":"gibson","country":"us","lat":32.0933333,"lon":-86.1561111},{"id":2911890,"name":"wilson trailer park","country":"us","lat":31.7630556,"lon":-85.9625},{"id":2909455,"name":"highland home","country":"us","lat":31.9533333,"lon":-86.3138889},{"id":2910292,"name":"mount hillard","country":"us","lat":32.06,"lon":-85.8680556},{"id":2910814,"name":"prattville junction","country":"us","lat":32.4672222,"lon":-86.3427778},{"id":2911286,"name":"social town","country":"us","lat":31.7116667,"lon":-86.1819444},{"id":2910827,"name":"pronto","country":"us","lat":31.7572222,"lon":-85.8175},{"id":2911388,"name":"stones","country":"us","lat":32.3372222,"lon":-86.4208333},{"id":2911440,"name":"suspension","country":"us","lat":32.1963889,"lon":-85.5880556},{"id":2911609,"name":"tyler crossroads","country":"us","lat":31.7030556,"lon":-85.5266667},{"id":2911150,"name":"sellers","country":"us","lat":32.0561111,"lon":-86.3030556},{"id":2907818,"name":"arcus","country":"us","lat":31.5136111,"lon":-85.9752778},{"id":2911359,"name":"stavo","country":"us","lat":32.1044444,"lon":-85.725},{"id":2910019,"name":"mamie","country":"us","lat":32.1863889,"lon":-86.0405556},{"id":2910245,"name":"moodys crossroads","country":"us","lat":31.7347222,"lon":-86.3947222},{"id":2908124,"name":"boot hill","country":"us","lat":31.8758333,"lon":-85.6425},{"id":2910624,"name":"patsburg","country":"us","lat":31.7863889,"lon":-86.2283333},{"id":2908464,"name":"chunnenuggee","country":"us","lat":32.1563889,"lon":-85.6436111},{"id":2907977,"name":"bell station","country":"us","lat":32.33,"lon":-86.1938889},{"id":2910241,"name":"monticello","country":"us","lat":31.8252778,"lon":-85.7786111},{"id":2908692,"name":"daisy","country":"us","lat":31.8988889,"lon":-86.4847222},{"id":2909958,"name":"louisville","country":"us","lat":31.7833333,"lon":-85.5558333},{"id":2911086,"name":"sanders hill","country":"us","lat":31.7052778,"lon":-86.0363889},{"id":2911056,"name":"saco","country":"us","lat":31.955,"lon":-85.8208333},{"id":2909918,"name":"live oak","country":"us","lat":31.8083333,"lon":-86.2475},{"id":2911610,"name":"tyson","country":"us","lat":32.1866667,"lon":-86.4394444},{"id":2907989,"name":"bells crossroads","country":"us","lat":31.8952778,"lon":-85.5236111},{"id":2911087,"name":"sandfield","country":"us","lat":31.9058333,"lon":-85.8077778},{"id":2908022,"name":"bethel","country":"us","lat":31.6280556,"lon":-85.6819444},{"id":2907905,"name":"barachias","country":"us","lat":32.2994444,"lon":-86.1963889},{"id":2908147,"name":"bradleyton","country":"us","lat":31.9016667,"lon":-86.2422222},{"id":2908161,"name":"brassell","country":"us","lat":32.3994444,"lon":-86.0402778},{"id":2911673,"name":"vidette","country":"us","lat":31.7327778,"lon":-86.195},{"id":2908886,"name":"edgewood mobile home park","country":"us","lat":31.7652778,"lon":-85.9625},{"id":2907781,"name":"allred","country":"us","lat":31.7716667,"lon":-86.0083333},{"id":2910987,"name":"rocky head","country":"us","lat":31.5680556,"lon":-85.7686111},{"id":2907902,"name":"banks","country":"us","lat":31.815,"lon":-85.8430556},{"id":2908602,"name":"cotton valley","country":"us","lat":32.2927778,"lon":-85.6922222},{"id":2909534,"name":"hornady","country":"us","lat":32.465,"lon":-85.8652778},{"id":2910297,"name":"mount meigs station","country":"us","lat":32.3991667,"lon":-86.1069444},{"id":2910286,"name":"mount andrew","country":"us","lat":31.9711111,"lon":-85.5247222},{"id":2909340,"name":"hallsville","country":"us","lat":31.7452778,"lon":-86.1038889},{"id":2907724,"name":"aberfoil","country":"us","lat":32.0702778,"lon":-85.6877778},{"id":2909307,"name":"guerryton","country":"us","lat":32.2208333,"lon":-85.5013889},{"id":2908914,"name":"ellis crossroads","country":"us","lat":31.9780556,"lon":-86.4513889},{"id":2908345,"name":"carters hill","country":"us","lat":32.1927778,"lon":-86.1172222},{"id":2911124,"name":"scottland","country":"us","lat":32.0263889,"lon":-85.7063889},{"id":2910717,"name":"pine level","country":"us","lat":32.0677778,"lon":-86.0597222},{"id":2911579,"name":"troy","country":"us","lat":31.8086111,"lon":-85.97},{"id":2910096,"name":"mcclure town","country":"us","lat":31.8444444,"lon":-85.9611111},{"id":2911873,"name":"wilkinstown","country":"us","lat":31.6080556,"lon":-85.9980556},{"id":2910296,"name":"mount meigs","country":"us","lat":32.3625,"lon":-86.1019444},{"id":2910686,"name":"phillips crossroads","country":"us","lat":31.6166667,"lon":-85.6069444},{"id":2910214,"name":"mitylene","country":"us","lat":32.3827778,"lon":-86.1741667},{"id":2911517,"name":"theba","country":"us","lat":31.5555556,"lon":-86.3036111},{"id":2908523,"name":"cobbs ford","country":"us","lat":32.4541667,"lon":-86.3772222},{"id":2910812,"name":"pratts","country":"us","lat":31.8308333,"lon":-85.5097222},{"id":2909032,"name":"fitzpatrick","country":"us","lat":32.2163889,"lon":-85.8888889},{"id":2911489,"name":"teals crossroads","country":"us","lat":31.6408333,"lon":-85.5686111},{"id":2909418,"name":"helicon","country":"us","lat":31.9133333,"lon":-86.2119444},{"id":2909356,"name":"hannon","country":"us","lat":32.2391667,"lon":-85.5261111},{"id":2909862,"name":"letohatchee","country":"us","lat":32.1294444,"lon":-86.4858333},{"id":2911199,"name":"shirleys crossroads","country":"us","lat":31.7147222,"lon":-86.165},{"id":2910116,"name":"mcgowan","country":"us","lat":32.0688889,"lon":-85.9402778},{"id":2911604,"name":"tuskegee","country":"us","lat":32.4238889,"lon":-85.6916667},{"id":2908143,"name":"boylston","country":"us","lat":32.4283333,"lon":-86.2794444},{"id":2907949,"name":"beamon","country":"us","lat":31.5188889,"lon":-85.5861111},{"id":2908220,"name":"brundidge","country":"us","lat":31.72,"lon":-85.8161111},{"id":2909134,"name":"fullers crossroads","country":"us","lat":31.8177778,"lon":-86.3111111},{"id":2910377,"name":"new bingham","country":"us","lat":32.4691667,"lon":-86.1619444},{"id":2909291,"name":"greens crossroads","country":"us","lat":31.8852778,"lon":-85.6008333},{"id":2910859,"name":"ramer","country":"us","lat":32.0502778,"lon":-86.2213889},{"id":2911522,"name":"thomas crossroad","country":"us","lat":31.7763889,"lon":-86.1286111},{"id":2910183,"name":"millbrook","country":"us","lat":32.4797222,"lon":-86.3619444},{"id":2910744,"name":"pintlala","country":"us","lat":32.1755556,"lon":-86.3675},{"id":2909360,"name":"hardaway","country":"us","lat":32.2863889,"lon":-85.8488889},{"id":2908420,"name":"chehaw","country":"us","lat":32.48,"lon":-85.7188889},{"id":2908171,"name":"briar hill","country":"us","lat":31.9588889,"lon":-86.13},{"id":2911735,"name":"washington hill","country":"us","lat":32.4080556,"lon":-86.4677778},{"id":2911974,"name":"zoar","country":"us","lat":31.5313889,"lon":-86.1069444},{"id":2910009,"name":"magnolia shores","country":"us","lat":31.9325,"lon":-86.2941667},{"id":2911203,"name":"shopton","country":"us","lat":32.1169444,"lon":-85.9422222},{"id":2908756,"name":"dillard","country":"us","lat":31.5175,"lon":-85.695},{"id":2909640,"name":"java","country":"us","lat":31.5577778,"lon":-85.8438889},{"id":2911870,"name":"wiley","country":"us","lat":32.295,"lon":-86.3097222},{"id":2910142,"name":"meadville","country":"us","lat":32.0677778,"lon":-86.1438889},{"id":2910960,"name":"roberts crossroads","country":"us","lat":31.6008333,"lon":-85.5288889},{"id":2911880,"name":"willow springs","country":"us","lat":32.4680556,"lon":-86.1897222},{"id":2909938,"name":"logton","country":"us","lat":31.9527778,"lon":-85.9144444},{"id":2908315,"name":"canty","country":"us","lat":32.1633333,"lon":-86.0830556},{"id":2908592,"name":"cornerstone","country":"us","lat":32.1558333,"lon":-85.8422222},{"id":2910146,"name":"meeksville","country":"us","lat":31.9177778,"lon":-86.0055556},{"id":2911326,"name":"sprague","country":"us","lat":32.1327778,"lon":-86.27},{"id":2907785,"name":"almeria","country":"us","lat":32.0263889,"lon":-85.8505556},{"id":2908508,"name":"clowers crossroads","country":"us","lat":31.5913889,"lon":-85.8933333},{"id":2910668,"name":"perote","country":"us","lat":31.9475,"lon":-85.7052778},{"id":2908314,"name":"cantelous","country":"us","lat":32.3233333,"lon":-86.4558333},{"id":2908711,"name":"davis crossroads","country":"us","lat":32.1355556,"lon":-86.1758333},{"id":2910162,"name":"merrill mill","country":"us","lat":31.5930556,"lon":-86.4025},{"id":2909082,"name":"fort davis","country":"us","lat":32.2430556,"lon":-85.7097222},{"id":2909346,"name":"hamilton crossroads","country":"us","lat":31.6436111,"lon":-85.8083333},{"id":2910279,"name":"mossy grove village","country":"us","lat":31.7333333,"lon":-85.9569444},{"id":2910237,"name":"montgomery","country":"us","lat":32.3666667,"lon":-86.3},{"id":2908087,"name":"blues old stand","country":"us","lat":31.9847222,"lon":-85.7169444},{"id":2910407,"name":"newby","country":"us","lat":31.5555556,"lon":-86.1316667},{"id":2909252,"name":"goshen","country":"us","lat":31.7227778,"lon":-86.1183333},{"id":2910165,"name":"merry","country":"us","lat":32.3466667,"lon":-86.0944444},{"id":2911382,"name":"stills crossroads","country":"us","lat":31.9972222,"lon":-85.8930556},{"id":2908162,"name":"brassell bottom","country":"us","lat":32.3988889,"lon":-86.1847222},{"id":2908755,"name":"dill","country":"us","lat":31.5108333,"lon":-85.6536111},{"id":2908332,"name":"carmen","country":"us","lat":31.6322222,"lon":-86.1891667},{"id":2907733,"name":"ada","country":"us","lat":32.1052778,"lon":-86.2763889},{"id":2909528,"name":"hope hull","country":"us","lat":32.2697222,"lon":-86.3572222},{"id":2908580,"name":"coosada","country":"us","lat":32.4977778,"lon":-86.3313889},{"id":2908823,"name":"dunn","country":"us","lat":31.845,"lon":-85.8961111},{"id":2910539,"name":"olustee","country":"us","lat":31.9027778,"lon":-86.1625},{"id":2911146,"name":"sedgefield","country":"us","lat":32.1836111,"lon":-85.7047222},{"id":2911393,"name":"strata","country":"us","lat":32.0344444,"lon":-86.2941667},{"id":2909634,"name":"jamback","country":"us","lat":31.91,"lon":-85.6652778},{"id":2909521,"name":"honoraville","country":"us","lat":31.8505556,"lon":-86.4061111},{"id":2911497,"name":"tennille","country":"us","lat":31.6230556,"lon":-85.7686111},{"id":2908085,"name":"blue springs","country":"us","lat":31.6636111,"lon":-85.5066667},{"id":2910278,"name":"mossy grove estates","country":"us","lat":31.7241667,"lon":-85.9594444},{"id":2909484,"name":"hobbie farm","country":"us","lat":32.1938889,"lon":-86.2447222},{"id":2911367,"name":"steiner","country":"us","lat":32.3502778,"lon":-86.2608333},{"id":2911234,"name":"simsville","country":"us","lat":32.1044444,"lon":-85.8708333},{"id":2908504,"name":"clough","country":"us","lat":32.4816667,"lon":-85.7638889},{"id":2911151,"name":"sellers crossroads","country":"us","lat":31.9569444,"lon":-85.7552778},{"id":2909486,"name":"hobdy","country":"us","lat":31.815,"lon":-85.5316667},{"id":2908359,"name":"cecil","country":"us","lat":32.3025,"lon":-86.0086111},{"id":2910073,"name":"matthews","country":"us","lat":32.2652778,"lon":-86.0038889},{"id":2911366,"name":"steep creek","country":"us","lat":32.1536111,"lon":-86.4791667},{"id":2909258,"name":"grady","country":"us","lat":31.9947222,"lon":-86.2011111},{"id":2908429,"name":"cherokee village","country":"us","lat":31.7294444,"lon":-86.3369444},{"id":2911092,"name":"sandy ridge","country":"us","lat":32.0244444,"lon":-86.4519444},{"id":2909426,"name":"hephzibah","country":"us","lat":31.7652778,"lon":-86.0130556},{"id":2909972,"name":"lowry mill","country":"us","lat":31.5386111,"lon":-85.9822222},{"id":2910637,"name":"peachburg","country":"us","lat":32.1636111,"lon":-85.6241667},{"id":2908710,"name":"davenport","country":"us","lat":32.0655556,"lon":-86.4063889},{"id":2909651,"name":"jenkins crossroads","country":"us","lat":32.0261111,"lon":-85.7744444},{"id":2908219,"name":"bruceville","country":"us","lat":32.0977778,"lon":-85.8483333},{"id":2910177,"name":"midway","country":"us","lat":32.0769444,"lon":-85.5222222},{"id":2911969,"name":"zion","country":"us","lat":32.1125,"lon":-86.4027778},{"id":2908717,"name":"davisville","country":"us","lat":32.3275,"lon":-85.6697222},{"id":2911109,"name":"saville","country":"us","lat":31.8772222,"lon":-86.3311111},{"id":2911476,"name":"tanyard","country":"us","lat":31.8886111,"lon":-85.7041667},{"id":2911962,"name":"youngblood","country":"us","lat":31.845,"lon":-86.0694444},{"id":2908240,"name":"bullock","country":"us","lat":31.5405556,"lon":-86.1786111},{"id":2910345,"name":"naftel","country":"us","lat":32.0094444,"lon":-86.2891667},{"id":2907832,"name":"armstrong","country":"us","lat":32.2394444,"lon":-85.6577778},{"id":2911527,"name":"thompson","country":"us","lat":32.185,"lon":-85.8180556},{"id":2909525,"name":"hooks crossroads","country":"us","lat":32.0513889,"lon":-85.8527778},{"id":2911670,"name":"victoria","country":"us","lat":31.5297222,"lon":-85.9383333},{"id":2908437,"name":"chestnut grove","country":"us","lat":31.5969444,"lon":-85.9136111},{"id":2909011,"name":"fays","country":"us","lat":32.4805556,"lon":-86.41},{"id":2911143,"name":"seasha","country":"us","lat":32.3963889,"lon":-85.7416667},{"id":2910813,"name":"prattville","country":"us","lat":32.4638889,"lon":-86.4597222},{"id":2911354,"name":"star hill","country":"us","lat":31.9125,"lon":-85.6316667},{"id":2907913,"name":"barnes","country":"us","lat":31.5425,"lon":-85.6744444},{"id":2908657,"name":"cross keys","country":"us","lat":32.3336111,"lon":-85.8933333},{"id":2908832,"name":"dykes crossroad","country":"us","lat":31.6,"lon":-85.5611111},{"id":2908084,"name":"blue ridge","country":"us","lat":32.4925,"lon":-86.1905556},{"id":2911536,"name":"three notch","country":"us","lat":32.1061111,"lon":-85.5791667},{"id":2911049,"name":"rutledge","country":"us","lat":31.7302778,"lon":-86.3097222},{"id":2908163,"name":"bread tray hill","country":"us","lat":32.0638889,"lon":-85.7705556},{"id":2909921,"name":"liverpool","country":"us","lat":32.3666667,"lon":-85.7783333},{"id":2910196,"name":"milstead","country":"us","lat":32.4425,"lon":-85.8975},{"id":2911308,"name":"southmont","country":"us","lat":32.3227778,"lon":-86.2991667},{"id":2908354,"name":"catoma","country":"us","lat":32.3133333,"lon":-86.4336111},{"id":2909621,"name":"ivy creek","country":"us","lat":31.7069444,"lon":-86.3652778},{"id":2911192,"name":"shepherd hill","country":"us","lat":32.1855556,"lon":-86.0663889},{"id":2908797,"name":"downs","country":"us","lat":32.2647222,"lon":-85.7841667},{"id":2910551,"name":"orion","country":"us","lat":31.9586111,"lon":-86.0055556},{"id":2908452,"name":"chisholm","country":"us","lat":32.4172222,"lon":-86.2855556},{"id":2909835,"name":"le grand","country":"us","lat":32.1622222,"lon":-86.2686111},{"id":2911508,"name":"tharin","country":"us","lat":32.2044444,"lon":-86.2838889},{"id":2909686,"name":"josie","country":"us","lat":31.8697222,"lon":-85.7188889},{"id":2909721,"name":"kilby","country":"us","lat":32.4094444,"lon":-86.2655556},{"id":2909986,"name":"luverne","country":"us","lat":31.7163889,"lon":-86.2638889},{"id":2911206,"name":"shorter","country":"us","lat":32.3947222,"lon":-85.9169444},{"id":2909166,"name":"garnersville","country":"us","lat":31.8761111,"lon":-86.2727778},{"id":2908807,"name":"dublin","country":"us","lat":32.0319444,"lon":-86.1591667},{"id":2909623,"name":"jack","country":"us","lat":31.5738889,"lon":-86.0002778},{"id":2907824,"name":"ariton","country":"us","lat":31.6,"lon":-85.7188889},{"id":2910921,"name":"richland","country":"us","lat":31.7327778,"lon":-85.7277778},{"id":2908501,"name":"clio","country":"us","lat":31.7086111,"lon":-85.6105556},{"id":2907895,"name":"baltic","country":"us","lat":31.6516667,"lon":-86.0041667},{"id":2911244,"name":"skipperville","country":"us","lat":31.5575,"lon":-85.5455556},{"id":2908383,"name":"center ridge","country":"us","lat":31.8158333,"lon":-86.4125},{"id":2909895,"name":"linwood","country":"us","lat":31.9266667,"lon":-85.8641667},{"id":2911624,"name":"union springs","country":"us","lat":32.1441667,"lon":-85.715},{"id":2907806,"name":"ansley","country":"us","lat":31.8861111,"lon":-86.1158333},{"id":2911547,"name":"tito","country":"us","lat":32.0813889,"lon":-85.7388889},{"id":2909125,"name":"frisco","country":"us","lat":31.5952778,"lon":-85.8655556},{"id":2909449,"name":"high ridge","country":"us","lat":32.0625,"lon":-85.895},{"id":2908772,"name":"dogwood acres","country":"us","lat":31.7069444,"lon":-86.0577778},{"id":2908787,"name":"dosterville","country":"us","lat":32.4383333,"lon":-86.4497222},{"id":2908569,"name":"cooks","country":"us","lat":32.4113889,"lon":-86.1466667},{"id":2908678,"name":"currys","country":"us","lat":32.0183333,"lon":-86.0808333},{"id":2909680,"name":"joquin","country":"us","lat":31.7863889,"lon":-86.1641667},{"id":2907823,"name":"arguta","country":"us","lat":31.5691667,"lon":-85.5952778},{"id":2908897,"name":"elamville","country":"us","lat":31.6675,"lon":-85.6563889},{"id":2908786,"name":"doster","country":"us","lat":31.6475,"lon":-85.6738889},{"id":2911732,"name":"warriorstand","country":"us","lat":32.3116667,"lon":-85.5533333},{"id":2910113,"name":"mcgehees","country":"us","lat":32.2697222,"lon":-86.3747222},{"id":2911283,"name":"snowdoun","country":"us","lat":32.2413889,"lon":-86.2963889},{"id":2908157,"name":"brantley","country":"us","lat":31.5822222,"lon":-86.2572222},{"id":2909571,"name":"hunter","country":"us","lat":32.3955556,"lon":-86.3955556},{"id":2909856,"name":"leon","country":"us","lat":31.5575,"lon":-86.3927778},{"id":2909809,"name":"lapine","country":"us","lat":31.9655556,"lon":-86.2844444},{"id":2911005,"name":"roeton","country":"us","lat":31.5975,"lon":-85.8347222},{"id":2911477,"name":"tarentum","country":"us","lat":31.6391667,"lon":-85.8788889},{"id":2911762,"name":"weed crossroad","country":"us","lat":31.5186111,"lon":-86.2230556},{"id":2908677,"name":"curry","country":"us","lat":31.9411111,"lon":-86.0441667},{"id":2909221,"name":"glenwood","country":"us","lat":31.6644444,"lon":-86.1713889},{"id":2909243,"name":"goodwyn","country":"us","lat":32.4377778,"lon":-85.9338889},{"id":2908352,"name":"catalpa","country":"us","lat":31.8794444,"lon":-85.8330556},{"id":2909047,"name":"fleta","country":"us","lat":32.1094444,"lon":-86.3522222},{"id":2909904,"name":"little oak","country":"us","lat":31.7308333,"lon":-86.0538889},{"id":2910571,"name":"ox level","country":"us","lat":32.0297222,"lon":-85.6286111},{"id":2910449,"name":"north ridge mobile home park","country":"us","lat":31.8569444,"lon":-85.9997222},{"id":2911903,"name":"wingard","country":"us","lat":31.8330556,"lon":-86.1486111},{"id":2909677,"name":"jonesville","country":"us","lat":31.8930556,"lon":-85.9041667},{"id":2909992,"name":"lynndale","country":"us","lat":32.3236111,"lon":-86.2658333},{"id":2910693,"name":"pickett","country":"us","lat":31.9777778,"lon":-85.6261111},{"id":2909845,"name":"lees park","country":"us","lat":31.8555556,"lon":-86.0263889},{"id":2910955,"name":"roba","country":"us","lat":32.2438889,"lon":-85.5941667},{"id":2909765,"name":"la place","country":"us","lat":32.3783333,"lon":-85.8627778},{"id":2909605,"name":"inverness","country":"us","lat":32.0147222,"lon":-85.7461111},{"id":2909165,"name":"garmon crossroads","country":"us","lat":31.9394444,"lon":-85.5533333},{"id":2910447,"name":"north montgomery","country":"us","lat":32.3938889,"lon":-86.3138889},{"id":2910725,"name":"pinedale","country":"us","lat":32.295,"lon":-86.2386111},{"id":2911664,"name":"vernledge","country":"us","lat":31.7711111,"lon":-86.2927778},{"id":2910541,"name":"omega","country":"us","lat":31.9758333,"lon":-85.785},{"id":2910210,"name":"mitchell","country":"us","lat":32.2461111,"lon":-85.9377778},{"id":2911611,"name":"tysonville","country":"us","lat":32.4002778,"lon":-85.9986111},{"id":2907950,"name":"beans crossroads","country":"us","lat":31.9991667,"lon":-85.8536111},{"id":2910509,"name":"old bingham","country":"us","lat":32.4416667,"lon":-86.1302778},{"id":2911191,"name":"shellhorn","country":"us","lat":31.8758333,"lon":-86.0797222},{"id":2908697,"name":"danielsville","country":"us","lat":31.9205556,"lon":-86.4063889}]});