callback({"markets":[{"id":2372389,"name":"bichili","country":"ru","lat":57.576,"lon":72.6167},{"id":2563965,"name":"yermilovka","country":"ru","lat":57.6338,"lon":72.918},{"id":2510789,"name":"seninsk","country":"ru","lat":57.601,"lon":72.9304},{"id":2518092,"name":"sik","country":"ru","lat":57.633333,"lon":73.383333},{"id":2497563,"name":"prokopyevka","country":"ru","lat":57.666667,"lon":72.666667},{"id":2396427,"name":"fedorovskiy","country":"ru","lat":57.5904,"lon":73.2629},{"id":2504490,"name":"rudny","country":"ru","lat":57.633333,"lon":73.05},{"id":2407609,"name":"imeni voroshilova","country":"ru","lat":57.85,"lon":72.583333},{"id":2474340,"name":"novopetrovka","country":"ru","lat":57.722,"lon":72.518},{"id":2411898,"name":"kamarinskiy","country":"ru","lat":57.65,"lon":73.183333},{"id":2497670,"name":"proletarka","country":"ru","lat":57.6816,"lon":73.3611},{"id":2520423,"name":"smolenskiy","country":"ru","lat":57.766667,"lon":72.716667},{"id":2410280,"name":"izyuk","country":"ru","lat":57.5282,"lon":72.5598},{"id":2473353,"name":"novokazanka","country":"ru","lat":57.716667,"lon":72.616667},{"id":2546634,"name":"ust-tuy","country":"ru","lat":57.55,"lon":72.516667},{"id":2409046,"name":"ityugas","country":"ru","lat":57.733333,"lon":72.883333},{"id":2550281,"name":"verkhne-byzinskiy","country":"ru","lat":57.766667,"lon":72.9},{"id":2452980,"name":"malyy bygat","country":"ru","lat":57.683333,"lon":72.533333},{"id":2535583,"name":"tereshka","country":"ru","lat":57.8,"lon":72.55},{"id":2413373,"name":"karagach","country":"ru","lat":57.85,"lon":72.616667}]});