callback({"markets":[{"id":2518283,"name":"simkino","country":"ru","lat":60.460265,"lon":48.195243},{"id":2485624,"name":"pavshinskaya","country":"ru","lat":60.4027,"lon":48.3007},{"id":2403740,"name":"griboshevo","country":"ru","lat":60.1645,"lon":47.7379},{"id":2511329,"name":"sergeyevskaya vereteya","country":"ru","lat":59.647467,"lon":48.339982},{"id":2383671,"name":"chalbun","country":"ru","lat":59.684662,"lon":47.882448},{"id":2426567,"name":"komelskaya","country":"ru","lat":60.488367,"lon":48.170422},{"id":2407951,"name":"internatsional","country":"ru","lat":59.766667,"lon":47.783333},{"id":2558540,"name":"vyazovo","country":"ru","lat":60.1409,"lon":47.7939},{"id":2553210,"name":"verlyug","country":"ru","lat":59.715645,"lon":47.746538},{"id":2494041,"name":"ponomarevskiy","country":"ru","lat":60.35,"lon":47.933333},{"id":2367198,"name":"bannaya griva","country":"ru","lat":59.787518,"lon":48.326872},{"id":2501258,"name":"razdelnyy","country":"ru","lat":59.866667,"lon":47.966667},{"id":2464133,"name":"mysovskaya","country":"ru","lat":60.4399,"lon":48.2047},{"id":2545357,"name":"ushkinskaya","country":"ru","lat":60.392969,"lon":48.323896},{"id":2460988,"name":"molebinskaya","country":"ru","lat":59.594788,"lon":47.514753},{"id":2480382,"name":"oparino","country":"ru","lat":59.851786,"lon":48.278256},{"id":2454048,"name":"mamoshino","country":"ru","lat":59.564678,"lon":47.864007},{"id":2486737,"name":"pereyezhnya","country":"ru","lat":59.686812,"lon":48.210177},{"id":2474163,"name":"novonostavlennyy","country":"ru","lat":59.691801,"lon":47.645972},{"id":2361093,"name":"almezh","country":"ru","lat":60.056505,"lon":48.040881},{"id":2406687,"name":"ilina gora","country":"ru","lat":60.1884,"lon":47.5692},{"id":2566799,"name":"zagoskino","country":"ru","lat":60.2009,"lon":47.5612},{"id":2394366,"name":"duvannaya","country":"ru","lat":59.6795,"lon":47.922922},{"id":2557823,"name":"vtoraya mamoshinskaya","country":"ru","lat":59.5355,"lon":47.8847},{"id":2553461,"name":"veselaya griva","country":"ru","lat":59.7411,"lon":47.7634},{"id":2421510,"name":"kikosovskaya","country":"ru","lat":60.4097,"lon":48.2909},{"id":2470531,"name":"nizhnyaya volmanga","country":"ru","lat":59.703452,"lon":47.635683},{"id":2393392,"name":"dubovo","country":"ru","lat":60.1632,"lon":47.7831},{"id":2432590,"name":"krasnikovo","country":"ru","lat":60.1719,"lon":47.602},{"id":2412038,"name":"kamenka","country":"ru","lat":59.816667,"lon":48.283333},{"id":2464560,"name":"nagibino","country":"ru","lat":59.727932,"lon":48.419753},{"id":2442354,"name":"latyshskiy","country":"ru","lat":59.948216,"lon":48.17956},{"id":2573046,"name":"zubikovo","country":"ru","lat":59.5,"lon":48.183333},{"id":2387315,"name":"chiryug","country":"ru","lat":60.416667,"lon":48.333333},{"id":2413215,"name":"kapuyetina","country":"ru","lat":60.066667,"lon":48.283333},{"id":2401814,"name":"gorevka","country":"ru","lat":59.5873,"lon":47.9353},{"id":2407606,"name":"imeni voroshilova","country":"ru","lat":59.866667,"lon":48.4},{"id":2455096,"name":"maromitsa","country":"ru","lat":59.868282,"lon":48.012274},{"id":2489343,"name":"pinyug","country":"ru","lat":60.250949,"lon":47.784252},{"id":2521284,"name":"sokolnikovskiy","country":"ru","lat":60.416667,"lon":47.9},{"id":2423170,"name":"klementyevskaya","country":"ru","lat":60.2,"lon":47.55},{"id":2568569,"name":"zarya","country":"ru","lat":60.0077,"lon":48.029571},{"id":2444078,"name":"lesouchastok pervyy","country":"ru","lat":59.6,"lon":48.316667},{"id":2411720,"name":"kalnikovskiy","country":"ru","lat":60.466667,"lon":47.8},{"id":2545358,"name":"ushkinskiy vystavok","country":"ru","lat":60.387589,"lon":48.337924},{"id":2365736,"name":"babayevskaya","country":"ru","lat":60.381405,"lon":48.431864},{"id":2480111,"name":"olyukhino","country":"ru","lat":60.154495,"lon":47.614416},{"id":2429933,"name":"koskovo","country":"ru","lat":60.451781,"lon":48.214949},{"id":2558767,"name":"vymsk","country":"ru","lat":60.433333,"lon":48.266667},{"id":2446525,"name":"loriny","country":"ru","lat":59.5,"lon":48.483333},{"id":2503237,"name":"romanovshchina","country":"ru","lat":60.203,"lon":47.658},{"id":2424444,"name":"koberskaya","country":"ru","lat":59.7,"lon":48.083333},{"id":2379548,"name":"borovskoy","country":"ru","lat":59.566667,"lon":48.466667},{"id":2548081,"name":"vaninskaya","country":"ru","lat":59.62329,"lon":48.381963},{"id":2396399,"name":"fedorovskaya","country":"ru","lat":60.1888,"lon":47.6346},{"id":2447469,"name":"lukinskaya","country":"ru","lat":59.607263,"lon":47.829774},{"id":2465251,"name":"nasonovskaya","country":"ru","lat":60.497327,"lon":48.144604},{"id":2551101,"name":"verkhneye vakhmino","country":"ru","lat":59.867637,"lon":48.399812},{"id":2461194,"name":"moloma","country":"ru","lat":59.715608,"lon":47.603324},{"id":2403742,"name":"griboshinskiy vystavok","country":"ru","lat":60.4498,"lon":48.2186},{"id":2534661,"name":"tchannikovo","country":"ru","lat":60.1685,"lon":47.8128},{"id":2487370,"name":"pervoye maya","country":"ru","lat":59.883333,"lon":48.166667},{"id":2544020,"name":"ulyashenki","country":"ru","lat":59.637251,"lon":48.34876},{"id":2480351,"name":"opalevo","country":"ru","lat":60.2954,"lon":47.5774},{"id":2535475,"name":"terekhovskaya","country":"ru","lat":60.4372,"lon":48.1705},{"id":2562353,"name":"yegoshinskaya","country":"ru","lat":60.418937,"lon":48.283779},{"id":2440861,"name":"kuzyugskiy","country":"ru","lat":59.616667,"lon":48.35},{"id":2361845,"name":"andreyeva gora","country":"ru","lat":60.468641,"lon":48.194043},{"id":2403679,"name":"grezovo","country":"ru","lat":60.365205,"lon":48.43833},{"id":2512198,"name":"shaburskaya","country":"ru","lat":59.533333,"lon":48.15},{"id":2537222,"name":"tokovitsa","country":"ru","lat":60.177368,"lon":47.725232},{"id":2479322,"name":"oktyabr","country":"ru","lat":60.192407,"lon":47.607461},{"id":2481834,"name":"ostakino","country":"ru","lat":60.216667,"lon":47.633333},{"id":2361612,"name":"anakhino","country":"ru","lat":60.310897,"lon":47.576634},{"id":2513782,"name":"shchelye","country":"ru","lat":60.276,"lon":47.6278},{"id":2563660,"name":"yeremeno","country":"ru","lat":60.383333,"lon":48.45},{"id":2555879,"name":"volokovaya pervaya","country":"ru","lat":59.630598,"lon":48.362763},{"id":2550494,"name":"verkhnemalsk","country":"ru","lat":60.404942,"lon":47.523822},{"id":2567820,"name":"zaosinovka","country":"ru","lat":59.6971,"lon":47.6273},{"id":2437859,"name":"kultura","country":"ru","lat":59.8301,"lon":48.2486},{"id":2523739,"name":"spirina gora","country":"ru","lat":60.4947,"lon":48.1525},{"id":2440864,"name":"kuzyuk","country":"ru","lat":59.683333,"lon":48.3},{"id":2401622,"name":"gorchi vystavok","country":"ru","lat":60.443611,"lon":48.178085},{"id":2388179,"name":"chupanovskaya","country":"ru","lat":59.587204,"lon":47.854052},{"id":2429549,"name":"kosarevo","country":"ru","lat":60.2957,"lon":47.6148},{"id":2444057,"name":"lesorubovskiy","country":"ru","lat":59.906915,"lon":48.433343},{"id":2498918,"name":"pushemskiy","country":"ru","lat":60.19157,"lon":47.891013},{"id":2536538,"name":"timoshinskaya","country":"ru","lat":60.484595,"lon":48.174584},{"id":2359546,"name":"aksentyevitsa","country":"ru","lat":60.039433,"lon":47.667455},{"id":2567135,"name":"zakharovskiy vystavok","country":"ru","lat":60.382357,"lon":48.404122},{"id":2480157,"name":"omelinskaya","country":"ru","lat":59.5783,"lon":47.8529},{"id":2401891,"name":"goriy","country":"ru","lat":60.43146,"lon":48.177878},{"id":2447384,"name":"lukhtanovo","country":"ru","lat":60.3802,"lon":48.3642},{"id":2391915,"name":"dolmatovo","country":"ru","lat":60.143553,"lon":47.60678},{"id":2473647,"name":"novokuzyugskaya","country":"ru","lat":59.665505,"lon":48.31098},{"id":2423260,"name":"klepichata","country":"ru","lat":60.3048,"lon":47.547},{"id":2467254,"name":"nikitinskaya","country":"ru","lat":60.42305,"lon":48.203798},{"id":2380948,"name":"buchnyata","country":"ru","lat":59.700787,"lon":47.959435},{"id":2400413,"name":"godovo","country":"ru","lat":60.365368,"lon":48.446482},{"id":2417888,"name":"kharitonovo","country":"ru","lat":60.470168,"lon":48.180086},{"id":2479567,"name":"oladovo","country":"ru","lat":60.1567,"lon":47.7923},{"id":2392766,"name":"dresvitse","country":"ru","lat":60.4436,"lon":48.2209},{"id":2403741,"name":"griboshino","country":"ru","lat":60.44481,"lon":48.228048},{"id":2485098,"name":"paskhalinskaya","country":"ru","lat":60.4915,"lon":48.1585},{"id":2463934,"name":"myasovskaya","country":"ru","lat":60.38644,"lon":48.362215},{"id":2549912,"name":"verdyukovskaya","country":"ru","lat":60.434518,"lon":48.156899},{"id":2542907,"name":"uga","country":"ru","lat":60.387427,"lon":48.35269}]});