callback({"markets":[{"id":568232,"name":"sanzhangwan","country":"cn","lat":33.416111,"lon":111.494722},{"id":467956,"name":"fujiaping","country":"cn","lat":33.4525,"lon":111.485278},{"id":521414,"name":"lijiazhuang","country":"cn","lat":33.223056,"lon":111.316944},{"id":515473,"name":"laocheng","country":"cn","lat":33.0075,"lon":111.386667},{"id":429416,"name":"bijiapu","country":"cn","lat":33.439444,"lon":110.6175},{"id":566112,"name":"sanggouwan","country":"cn","lat":33.173333,"lon":111.321944},{"id":422811,"name":"bailaya","country":"cn","lat":32.883611,"lon":110.693889},{"id":648751,"name":"zhanggou","country":"cn","lat":32.916111,"lon":111.482778},{"id":499085,"name":"hwanglungchen","country":"cn","lat":32.681111,"lon":110.5475},{"id":560781,"name":"qingqu","country":"cn","lat":32.885278,"lon":110.5825},{"id":606964,"name":"wangjiahe","country":"cn","lat":33.311667,"lon":111.1075},{"id":501419,"name":"jiangwan","country":"cn","lat":33.066667,"lon":110.955278},{"id":580497,"name":"shimengou","country":"cn","lat":33.308333,"lon":111.204167},{"id":580214,"name":"shiliping","country":"cn","lat":33.246111,"lon":110.593056},{"id":464947,"name":"fanjiayuan","country":"cn","lat":32.618056,"lon":111.063889},{"id":464916,"name":"fanjiawan","country":"cn","lat":33.1425,"lon":111.215556},{"id":580076,"name":"shileitai","country":"cn","lat":33.253889,"lon":110.6675},{"id":501233,"name":"jiangping","country":"cn","lat":33.189167,"lon":111.423056},{"id":458268,"name":"dongfengluntaichang","country":"cn","lat":32.701944,"lon":110.752222},{"id":599267,"name":"tingho","country":"cn","lat":33.345556,"lon":111.328056},{"id":521301,"name":"lijiawan","country":"cn","lat":33.242222,"lon":111.192222},{"id":431163,"name":"cangfang","country":"cn","lat":32.773611,"lon":111.476389},{"id":652911,"name":"zhongchagou","country":"cn","lat":33.345556,"lon":111.495833},{"id":496650,"name":"huigou","country":"cn","lat":33.205833,"lon":111.033889},{"id":472335,"name":"gedaping","country":"cn","lat":33.316389,"lon":110.623056},{"id":425043,"name":"bamiao","country":"cn","lat":33.41,"lon":111.18},{"id":432420,"name":"chadian","country":"cn","lat":32.74,"lon":110.833333},{"id":617100,"name":"xianghejie","country":"cn","lat":33.292222,"lon":110.904167},{"id":525522,"name":"liuliya","country":"cn","lat":33.268611,"lon":111.477778},{"id":481433,"name":"hejia","country":"cn","lat":32.915278,"lon":110.536111},{"id":627615,"name":"xinpuzi","country":"cn","lat":32.933889,"lon":110.695833},{"id":493170,"name":"huangjiagou","country":"cn","lat":32.883611,"lon":110.929722},{"id":442300,"name":"chingshanchen","country":"cn","lat":33.407222,"lon":110.917778},{"id":623801,"name":"xiejiawan","country":"cn","lat":33.094444,"lon":110.888889},{"id":587746,"name":"songshuwan","country":"cn","lat":33.08,"lon":110.799722},{"id":525954,"name":"liushuwan","country":"cn","lat":33.432778,"lon":110.725},{"id":501001,"name":"jiangjiazhuang","country":"cn","lat":33.283333,"lon":111.2825},{"id":450159,"name":"daliu","country":"cn","lat":33.053611,"lon":110.723333},{"id":531780,"name":"luogou","country":"cn","lat":33.194722,"lon":111.091389},{"id":610747,"name":"wenhuaping","country":"cn","lat":33.296111,"lon":110.783611},{"id":464653,"name":"fangtan","country":"cn","lat":32.731111,"lon":110.612778},{"id":586830,"name":"siwan","country":"cn","lat":33.156389,"lon":111.143333},{"id":463595,"name":"erhyen","country":"cn","lat":32.633889,"lon":110.714722},{"id":422434,"name":"baihewan","country":"cn","lat":33.319444,"lon":111.431111},{"id":559735,"name":"qiligoukou","country":"cn","lat":33.039444,"lon":110.527222},{"id":456070,"name":"dianfanghe","country":"cn","lat":33.211389,"lon":110.751389},{"id":634886,"name":"yangpan","country":"cn","lat":33.202222,"lon":111.234167},{"id":491598,"name":"huaguo","country":"cn","lat":32.650278,"lon":110.691389},{"id":633762,"name":"yangjiacun","country":"cn","lat":33.009167,"lon":110.751667},{"id":612796,"name":"wujiawan","country":"cn","lat":33.027778,"lon":110.930556},{"id":510964,"name":"kingtzekwan","country":"cn","lat":33.270278,"lon":110.994444},{"id":646187,"name":"yunxian chengguanzhen","country":"cn","lat":32.831292,"lon":110.808749},{"id":565500,"name":"sanchakou","country":"cn","lat":32.661667,"lon":111.424444},{"id":525625,"name":"liupi","country":"cn","lat":32.778056,"lon":110.722778},{"id":578858,"name":"shihkukuan","country":"cn","lat":32.748333,"lon":111.358333},{"id":577169,"name":"shenwulinchachang","country":"cn","lat":33.025556,"lon":110.706111},{"id":566776,"name":"sanjiaochijie","country":"cn","lat":33.464722,"lon":110.861667},{"id":519690,"name":"liaochi","country":"cn","lat":32.771111,"lon":110.935556},{"id":578641,"name":"shihchuho","country":"cn","lat":33.266667,"lon":110.666667},{"id":536709,"name":"maotang","country":"cn","lat":33.202778,"lon":111.390833},{"id":538608,"name":"meipu","country":"cn","lat":33.008889,"lon":111.255556},{"id":462836,"name":"duying","country":"cn","lat":33.202222,"lon":111.494167},{"id":618762,"name":"xiaodouling","country":"cn","lat":33.305833,"lon":111.041111},{"id":422795,"name":"bailangtang","country":"cn","lat":32.5725,"lon":110.89},{"id":557586,"name":"qianjiaping","country":"cn","lat":33.357222,"lon":110.685556},{"id":521635,"name":"liluogoukou","country":"cn","lat":33.250833,"lon":110.605833},{"id":586681,"name":"sishanmiao","country":"cn","lat":33.450278,"lon":111.301389},{"id":585678,"name":"sichwan","country":"cn","lat":32.981944,"lon":111.375278},{"id":424057,"name":"baiwan","country":"cn","lat":32.896111,"lon":111.082222},{"id":589331,"name":"sunjiagoukou","country":"cn","lat":33.2125,"lon":110.680278},{"id":435898,"name":"chaochuan","country":"cn","lat":33.184444,"lon":110.701389},{"id":518845,"name":"liangshuihe","country":"cn","lat":32.645556,"lon":111.468333},{"id":444021,"name":"chongyang","country":"cn","lat":33.383889,"lon":111.243611},{"id":508129,"name":"junxian","country":"cn","lat":32.664722,"lon":111.139444},{"id":579758,"name":"shijiawan","country":"cn","lat":33.046389,"lon":111.436944},{"id":429913,"name":"bolinzhen","country":"cn","lat":32.647778,"lon":110.628611},{"id":489359,"name":"hsihsiakouchi","country":"cn","lat":33.289167,"lon":111.474444},{"id":455626,"name":"dengjiawan","country":"cn","lat":32.789722,"lon":110.769167},{"id":601263,"name":"tsaochiatien","country":"cn","lat":32.870278,"lon":111.175833},{"id":556494,"name":"putang","country":"cn","lat":33.283889,"lon":111.282778},{"id":650234,"name":"zhangzhang","country":"cn","lat":32.681944,"lon":111.315556},{"id":515973,"name":"laojuntai","country":"cn","lat":33.301111,"lon":111.359722},{"id":521828,"name":"linchang","country":"cn","lat":33.368611,"lon":111.364722},{"id":488992,"name":"hsichiatien","country":"cn","lat":32.748889,"lon":111.180833},{"id":596984,"name":"tianchuan","country":"cn","lat":32.862778,"lon":111.460833},{"id":609573,"name":"weichiatai","country":"cn","lat":33.237778,"lon":110.819722},{"id":540215,"name":"miaotaizi","country":"cn","lat":33.367222,"lon":110.584722},{"id":604532,"name":"tutai","country":"cn","lat":32.6,"lon":111.25},{"id":439378,"name":"chenyangping","country":"cn","lat":33.493333,"lon":111.268333},{"id":488571,"name":"hsiaotientzu","country":"cn","lat":32.5,"lon":111.25},{"id":506128,"name":"jinziguan","country":"cn","lat":33.238333,"lon":111.015278},{"id":474319,"name":"guandimiao","country":"cn","lat":33.089444,"lon":110.9475},{"id":486395,"name":"houjiashan","country":"cn","lat":32.966944,"lon":111.441389},{"id":533828,"name":"machiaping","country":"cn","lat":33.404444,"lon":110.528333},{"id":562505,"name":"quandian","country":"cn","lat":33.069722,"lon":111.445833},{"id":502870,"name":"jiaying","country":"cn","lat":33.240833,"lon":111.398889},{"id":452818,"name":"dashiqiao","country":"cn","lat":33.065556,"lon":111.246389},{"id":464826,"name":"fanjiacun","country":"cn","lat":33.165833,"lon":110.7575},{"id":525506,"name":"liuliping","country":"cn","lat":32.531667,"lon":110.974722},{"id":579795,"name":"shijiaying","country":"cn","lat":32.954722,"lon":111.245556},{"id":579501,"name":"shihyenshih","country":"cn","lat":32.6475,"lon":110.778056},{"id":591166,"name":"taijihe","country":"cn","lat":33.45,"lon":110.566667},{"id":566302,"name":"sanguandong","country":"cn","lat":33.156667,"lon":110.571667},{"id":490350,"name":"hsinmiao","country":"cn","lat":33.379722,"lon":111.001111},{"id":500741,"name":"jiangjiaan","country":"cn","lat":33.066667,"lon":110.585},{"id":591917,"name":"taiziping","country":"cn","lat":33.386667,"lon":110.566667},{"id":586580,"name":"sipingchen","country":"cn","lat":33.4475,"lon":111.084167},{"id":484667,"name":"hongmenpu","country":"cn","lat":32.869444,"lon":110.621389},{"id":518282,"name":"liangchiawan","country":"cn","lat":33.462778,"lon":110.519444},{"id":584343,"name":"shuikoukou","country":"cn","lat":33.351944,"lon":110.8175},{"id":496035,"name":"huayin","country":"cn","lat":33.116667,"lon":110.716667},{"id":447534,"name":"dachuan","country":"cn","lat":32.533889,"lon":110.684722},{"id":519887,"name":"liaowa","country":"cn","lat":32.781944,"lon":110.696389},{"id":623395,"name":"xichuan","country":"cn","lat":33.135278,"lon":111.480833},{"id":426614,"name":"baoyu","country":"cn","lat":33.1425,"lon":110.928611},{"id":576659,"name":"shengwan","country":"cn","lat":32.955278,"lon":111.424167},{"id":438756,"name":"chenjiawan","country":"cn","lat":32.578889,"lon":110.789444},{"id":480113,"name":"haoping","country":"cn","lat":33.106667,"lon":111.383889},{"id":490529,"name":"hsintien","country":"cn","lat":32.761944,"lon":111.311111},{"id":422934,"name":"bailong","country":"cn","lat":33.07,"lon":111.121667},{"id":582221,"name":"shiziping","country":"cn","lat":32.9,"lon":111.233333},{"id":581821,"name":"shiyanjie","country":"cn","lat":32.6,"lon":110.75},{"id":421771,"name":"badaohe","country":"cn","lat":33.101111,"lon":110.629167},{"id":441847,"name":"chinchiaying","country":"cn","lat":33.009167,"lon":111.260833},{"id":501486,"name":"jiangxigou","country":"cn","lat":33.436667,"lon":110.669444},{"id":624517,"name":"xihuang","country":"cn","lat":33.2375,"lon":111.15},{"id":601428,"name":"tsaotienchen","country":"cn","lat":32.508889,"lon":111.135833},{"id":566297,"name":"sanguandian","country":"cn","lat":32.513333,"lon":111.485556},{"id":643682,"name":"yuanyang","country":"cn","lat":32.611667,"lon":110.885},{"id":491126,"name":"hsuchiatien","country":"cn","lat":33.43,"lon":110.783889},{"id":506303,"name":"jitinghe","country":"cn","lat":33.385,"lon":111.0975},{"id":501788,"name":"jianliupu","country":"cn","lat":32.902222,"lon":110.552778},{"id":613727,"name":"wuping","country":"cn","lat":33.102222,"lon":110.705},{"id":488216,"name":"hsiaohochi","country":"cn","lat":32.850278,"lon":110.745278},{"id":468583,"name":"fushuizhen","country":"cn","lat":33.493333,"lon":110.966667},{"id":634962,"name":"yangpo","country":"cn","lat":33.423333,"lon":111.075278},{"id":587426,"name":"songjiaying","country":"cn","lat":33.314722,"lon":111.485278},{"id":580944,"name":"shiqiao","country":"cn","lat":33.4375,"lon":111.228333},{"id":658186,"name":"zuoxi","country":"cn","lat":33.028611,"lon":110.851111},{"id":451969,"name":"daping","country":"cn","lat":32.511944,"lon":110.886111},{"id":550660,"name":"paisang","country":"cn","lat":32.958333,"lon":110.986667},{"id":558753,"name":"qiaojiaying","country":"cn","lat":33.343611,"lon":111.444722},{"id":611966,"name":"wudangshan","country":"cn","lat":32.506389,"lon":111.079444},{"id":606883,"name":"wangjiadian","country":"cn","lat":33.226111,"lon":110.904722},{"id":541923,"name":"mozigouao","country":"cn","lat":33.3525,"lon":110.725},{"id":544454,"name":"nanhuatang","country":"cn","lat":33.11,"lon":110.908889},{"id":532137,"name":"luojiazhuang","country":"cn","lat":33.488333,"lon":111.023333},{"id":524424,"name":"liudong","country":"cn","lat":33.140278,"lon":111.1225},{"id":420951,"name":"anyangkou","country":"cn","lat":32.804167,"lon":110.994722},{"id":649342,"name":"zhangjiaying","country":"cn","lat":33.094167,"lon":111.036944},{"id":594815,"name":"taohe","country":"cn","lat":33.032222,"lon":111.252222},{"id":428815,"name":"beiyu","country":"cn","lat":33.380556,"lon":111.311389},{"id":494603,"name":"huangshi","country":"cn","lat":33.042778,"lon":110.997222},{"id":481453,"name":"hejiajing","country":"cn","lat":33.121111,"lon":110.545833},{"id":424496,"name":"baiyuqu","country":"cn","lat":33.449444,"lon":110.576111}]});