callback({"markets":[{"id":307637,"name":"nazareth","country":"br","lat":-8.45,"lon":-70.466667},{"id":308111,"name":"novo porto","country":"br","lat":-8.483333,"lon":-70.483333},{"id":326969,"name":"tracoa","country":"br","lat":-7.8,"lon":-70.133333},{"id":328533,"name":"vila gomez","country":"br","lat":-7.583333,"lon":-70.116667},{"id":304192,"name":"lago verde","country":"br","lat":-7.733333,"lon":-70.433333},{"id":306597,"name":"mira-flores","country":"br","lat":-8.45,"lon":-69.983333},{"id":328517,"name":"vila feijo","country":"br","lat":-8.15,"lon":-70.35},{"id":290352,"name":"bello monte","country":"br","lat":-8.116667,"lon":-70.333333},{"id":307738,"name":"nitero","country":"br","lat":-7.633333,"lon":-70.083333}]});