callback({"markets":[{"id":2968634,"name":"mansfield","country":"us","lat":46.0875,"lon":-88.1486111},{"id":2968832,"name":"national mine","country":"us","lat":46.4586111,"lon":-87.6813889},{"id":2968673,"name":"mastodon","country":"us","lat":46.0183333,"lon":-88.3486111},{"id":2969155,"name":"quinnesec","country":"us","lat":45.8063889,"lon":-87.9883333},{"id":2968012,"name":"fortune lake","country":"us","lat":46.0947222,"lon":-88.4161111},{"id":2968821,"name":"nadeau","country":"us","lat":45.6088889,"lon":-87.5527778},{"id":2969391,"name":"skidmore","country":"us","lat":45.7919444,"lon":-88.0736111},{"id":2969280,"name":"sagola","country":"us","lat":46.0902778,"lon":-88.0775},{"id":2969168,"name":"randville","country":"us","lat":45.9916667,"lon":-88.0569444},{"id":3046952,"name":"aurora","country":"us","lat":45.7855556,"lon":-88.1008333},{"id":3048603,"name":"ridgetop","country":"us","lat":45.9297222,"lon":-88.27},{"id":2968047,"name":"frenchtown","country":"us","lat":46.4733333,"lon":-87.6788889},{"id":2967272,"name":"banat","country":"us","lat":45.5177778,"lon":-87.6975},{"id":2967959,"name":"felch mountain","country":"us","lat":46.0011111,"lon":-87.8319444},{"id":2967915,"name":"erickson landing","country":"us","lat":46.1416667,"lon":-88.4041667},{"id":2969796,"name":"winthrop junction","country":"us","lat":46.4761111,"lon":-87.6869444},{"id":3047920,"name":"kremlin","country":"us","lat":45.6508333,"lon":-87.8447222},{"id":3047718,"name":"hematite","country":"us","lat":45.9091667,"lon":-88.2094444},{"id":2968932,"name":"odgers location","country":"us","lat":46.0975,"lon":-88.3488889},{"id":2968530,"name":"leapers","country":"us","lat":45.7872222,"lon":-87.6944444},{"id":2968014,"name":"foster city","country":"us","lat":45.9633333,"lon":-87.7438889},{"id":2968598,"name":"loretto","country":"us","lat":45.7772222,"lon":-87.815},{"id":2969636,"name":"vega","country":"us","lat":45.7858333,"lon":-87.6030556},{"id":2968837,"name":"negaunee","country":"us","lat":46.4991667,"lon":-87.6116667},{"id":2967826,"name":"dunn location","country":"us","lat":46.0680556,"lon":-88.3747222},{"id":3048439,"name":"pembine","country":"us","lat":45.6352778,"lon":-87.9908333},{"id":2968421,"name":"kelso junction","country":"us","lat":46.1472222,"lon":-88.2536111},{"id":3047008,"name":"beecher","country":"us","lat":45.5883333,"lon":-87.9947222},{"id":2967719,"name":"cunard","country":"us","lat":45.7380556,"lon":-87.6666667},{"id":2968908,"name":"norway","country":"us","lat":45.7869444,"lon":-87.9036111},{"id":2968724,"name":"merriman","country":"us","lat":45.9175,"lon":-88.0555556},{"id":2967628,"name":"clarksburg","country":"us","lat":46.4919444,"lon":-87.8519444},{"id":2969738,"name":"western location","country":"us","lat":46.1013889,"lon":-88.3141667},{"id":2968830,"name":"nathan","country":"us","lat":45.5791667,"lon":-87.7069444},{"id":2968845,"name":"new bristol location","country":"us","lat":46.1044444,"lon":-88.3863889},{"id":2969440,"name":"spalding","country":"us","lat":45.6958333,"lon":-87.5108333},{"id":3046926,"name":"armstrong creek","country":"us","lat":45.6583333,"lon":-88.4461111},{"id":2968119,"name":"golden","country":"us","lat":46.1427778,"lon":-88.0205556},{"id":2968448,"name":"kingsford","country":"us","lat":45.795,"lon":-88.0719444},{"id":2968069,"name":"gardner","country":"us","lat":45.5363889,"lon":-87.7077778},{"id":3046894,"name":"amberg","country":"us","lat":45.5030556,"lon":-87.9936111},{"id":3047632,"name":"goodman","country":"us","lat":45.6313889,"lon":-88.3533333},{"id":2968346,"name":"hylas","country":"us","lat":45.9572222,"lon":-87.6794444},{"id":2967580,"name":"channing","country":"us","lat":46.1416667,"lon":-88.0938889},{"id":2968089,"name":"gibson lake","country":"us","lat":46.2030556,"lon":-88.43},{"id":2969461,"name":"stager","country":"us","lat":45.9908333,"lon":-88.3480556},{"id":2969137,"name":"powers","country":"us","lat":45.69,"lon":-87.5258333},{"id":2969703,"name":"waucedah","country":"us","lat":45.7630556,"lon":-87.7452778},{"id":2969044,"name":"pentoga","country":"us","lat":46.0030556,"lon":-88.4944444},{"id":2969726,"name":"west ishpeming","country":"us","lat":46.4836111,"lon":-87.7008333},{"id":2969660,"name":"vulcan","country":"us","lat":45.7805556,"lon":-87.8625},{"id":3047535,"name":"fern","country":"us","lat":45.8361111,"lon":-88.3858333},{"id":2969799,"name":"witbeck","country":"us","lat":46.3152778,"lon":-88.0041667},{"id":2968332,"name":"humboldt mine","country":"us","lat":46.4838889,"lon":-87.8977778},{"id":3047408,"name":"dunbar","country":"us","lat":45.6508333,"lon":-88.1713889},{"id":2969530,"name":"talbot","country":"us","lat":45.5105556,"lon":-87.5975},{"id":2967958,"name":"felch","country":"us","lat":45.9972222,"lon":-87.8255556},{"id":2967714,"name":"crystal falls","country":"us","lat":46.0980556,"lon":-88.3338889},{"id":2968635,"name":"mansfield location","country":"us","lat":46.1191667,"lon":-88.2194444},{"id":2967943,"name":"faithorn","country":"us","lat":45.6797222,"lon":-87.7519444},{"id":2969296,"name":"salisbury","country":"us","lat":46.475,"lon":-87.6769444},{"id":2967260,"name":"bagley","country":"us","lat":45.5513889,"lon":-87.5755556},{"id":2967400,"name":"blom","country":"us","lat":45.6511111,"lon":-87.7380556},{"id":2968217,"name":"hardwood","country":"us","lat":45.9616667,"lon":-87.6911111},{"id":2968834,"name":"naults","country":"us","lat":45.9916667,"lon":-88.3938889},{"id":3047285,"name":"commonwealth","country":"us","lat":45.9136111,"lon":-88.24},{"id":2969553,"name":"theodore","country":"us","lat":46.0013889,"lon":-87.8366667},{"id":2969406,"name":"snowville","country":"us","lat":46.4997222,"lon":-87.8191667},{"id":2969001,"name":"panola","country":"us","lat":46.0494444,"lon":-88.3286111},{"id":3047532,"name":"fence","country":"us","lat":45.7444444,"lon":-88.4241667},{"id":2967991,"name":"floodwood","country":"us","lat":46.2227778,"lon":-88.0091667},{"id":2967270,"name":"balsam","country":"us","lat":46.2077778,"lon":-88.3808333},{"id":2969345,"name":"shafer location","country":"us","lat":46.085,"lon":-88.3572222},{"id":2968437,"name":"kiernan","country":"us","lat":46.1455556,"lon":-88.1797222},{"id":2968887,"name":"north lake","country":"us","lat":46.4936111,"lon":-87.7275},{"id":2967184,"name":"amasa","country":"us","lat":46.2327778,"lon":-88.4486111},{"id":2968442,"name":"kimball location","country":"us","lat":46.0880556,"lon":-88.3294444},{"id":2969571,"name":"tobin location","country":"us","lat":46.0925,"lon":-88.3561111},{"id":2968254,"name":"helps","country":"us","lat":45.9308333,"lon":-87.5986111},{"id":2969800,"name":"witch lake","country":"us","lat":46.2755556,"lon":-88.0188889},{"id":2968373,"name":"ishpeming","country":"us","lat":46.4886111,"lon":-87.6675},{"id":2968364,"name":"iron mountain","country":"us","lat":45.8202778,"lon":-88.0658333},{"id":2968777,"name":"monongahela location","country":"us","lat":46.0869444,"lon":-88.3713889},{"id":3048810,"name":"spread eagle","country":"us","lat":45.8819444,"lon":-88.1397222},{"id":2967175,"name":"alpha","country":"us","lat":46.0438889,"lon":-88.3769444},{"id":2968899,"name":"northland","country":"us","lat":46.0730556,"lon":-87.5955556},{"id":2967846,"name":"east kingsford","country":"us","lat":45.795,"lon":-88.0644444},{"id":2969164,"name":"ralph","country":"us","lat":46.1086111,"lon":-87.7836111},{"id":2968730,"name":"metropolitan","country":"us","lat":45.9947222,"lon":-87.8938889},{"id":2969423,"name":"south greenwood","country":"us","lat":46.4730556,"lon":-87.7863889},{"id":2969194,"name":"republic","country":"us","lat":46.4066667,"lon":-87.9755556},{"id":3048305,"name":"niagara","country":"us","lat":45.7713889,"lon":-87.9947222},{"id":3047549,"name":"florence","country":"us","lat":45.9222222,"lon":-88.2516667},{"id":2968331,"name":"humboldt","country":"us","lat":46.4955556,"lon":-87.8869444},{"id":2969181,"name":"reade","country":"us","lat":46.0597222,"lon":-87.5616667},{"id":2967954,"name":"faunus","country":"us","lat":45.8925,"lon":-87.5088889},{"id":2967156,"name":"alfred","country":"us","lat":46.0838889,"lon":-87.6325},{"id":2967536,"name":"carney","country":"us","lat":45.5866667,"lon":-87.5572222},{"id":2968997,"name":"palmer","country":"us","lat":46.4408333,"lon":-87.5930556},{"id":2967199,"name":"antoine","country":"us","lat":45.8375,"lon":-88.0619444},{"id":3047009,"name":"beecher lake","country":"us","lat":45.5691667,"lon":-87.9975},{"id":2968260,"name":"hermansville","country":"us","lat":45.7111111,"lon":-87.6019444},{"id":2968151,"name":"granite bluff","country":"us","lat":45.9394444,"lon":-88.0536111},{"id":2968479,"name":"lake angeline","country":"us","lat":46.4783333,"lon":-87.6758333},{"id":3049085,"name":"white pine haven","country":"us","lat":45.5636111,"lon":-87.7944444},{"id":3048547,"name":"pulp","country":"us","lat":45.8730556,"lon":-88.1055556},{"id":3048962,"name":"tyran","country":"us","lat":45.9488889,"lon":-88.3052778}]});