callback({"markets":[{"id":2912094,"name":"clear creek park","country":"us","lat":64.8186111,"lon":-147.5658333},{"id":2912124,"name":"dennis manor","country":"us","lat":64.8291667,"lon":-147.5397222},{"id":2912159,"name":"ester","country":"us","lat":64.8472222,"lon":-148.0144444},{"id":2912017,"name":"aurora","country":"us","lat":64.8569444,"lon":-147.7586111},{"id":2912101,"name":"college","country":"us","lat":64.8569444,"lon":-147.8027778},{"id":2912326,"name":"lemeta","country":"us","lat":64.8597222,"lon":-147.7322222},{"id":2912210,"name":"hamilton acres","country":"us","lat":64.8469444,"lon":-147.6705556},{"id":2912549,"name":"south fairbanks","country":"us","lat":64.8333333,"lon":-147.7166667},{"id":2912131,"name":"dogpatch","country":"us","lat":64.8955556,"lon":-147.8063889},{"id":2912046,"name":"broadmoor","country":"us","lat":64.8238889,"lon":-147.8758333},{"id":2912038,"name":"bjerrmark","country":"us","lat":64.825,"lon":-147.7166667},{"id":2912544,"name":"slaterville","country":"us","lat":64.8480556,"lon":-147.7236111},{"id":2912165,"name":"fairbanks","country":"us","lat":64.8377778,"lon":-147.7163889},{"id":2912381,"name":"musk ox","country":"us","lat":64.9002778,"lon":-147.8225},{"id":2912598,"name":"totem park","country":"us","lat":64.8627778,"lon":-147.7780556},{"id":2912631,"name":"westgate","country":"us","lat":64.8372222,"lon":-147.7958333},{"id":2912176,"name":"fox","country":"us","lat":64.9580556,"lon":-147.6183333},{"id":2912442,"name":"olnes","country":"us","lat":65.0741667,"lon":-147.67}]});