callback({"markets":[{"id":2310682,"name":"ngargol","country":"pw","lat":7.0277778,"lon":134.2583333},{"id":3006279,"name":"archongelungel","country":"us","lat":7.3358333,"lon":134.4633333},{"id":2310596,"name":"ladmisang","country":"pw","lat":7.0080556,"lon":134.2375},{"id":3006312,"name":"lademisang","country":"us","lat":7.0080556,"lon":134.2475},{"id":3006288,"name":"derromel","country":"us","lat":7.3536111,"lon":134.4633333},{"id":3006321,"name":"ngaramasch","country":"us","lat":6.9013889,"lon":134.1294444},{"id":2310370,"name":"aebukuru","country":"pw","lat":7.3469444,"lon":134.4836111},{"id":3006350,"name":"ngerngiil","country":"us","lat":7.3372222,"lon":134.4880556},{"id":2310597,"name":"madalai","country":"pw","lat":7.3391667,"lon":134.4675},{"id":2310554,"name":"imelechol","country":"pw","lat":7.0372222,"lon":134.2613889},{"id":3006376,"name":"rois","country":"us","lat":6.9055556,"lon":134.1305556},{"id":2310449,"name":"btangech iterchobel","country":"pw","lat":7.4288889,"lon":134.4816667},{"id":3006299,"name":"ikelau","country":"us","lat":7.3397222,"lon":134.4761111},{"id":2310473,"name":"eholl","country":"pw","lat":7.3488889,"lon":134.4438889},{"id":3006348,"name":"ngermid","country":"us","lat":7.3375,"lon":134.4986111},{"id":2310799,"name":"tngeronger","country":"pw","lat":7.3411111,"lon":134.4744444},{"id":2310567,"name":"kamesang","country":"pw","lat":7.4933333,"lon":134.4822222},{"id":2310712,"name":"ngerechemai","country":"pw","lat":7.345,"lon":134.4855556},{"id":2310590,"name":"koror","country":"pw","lat":7.3333333,"lon":134.4833333},{"id":2310804,"name":"ulubosan","country":"pw","lat":7.4880556,"lon":134.4722222},{"id":2310419,"name":"arakabesan","country":"pw","lat":7.3511111,"lon":134.4436111},{"id":3006292,"name":"echang","country":"us","lat":7.3436111,"lon":134.4488889},{"id":2310723,"name":"ngerkesewaol","country":"pw","lat":7.3416667,"lon":134.4872222},{"id":2310716,"name":"ngereklmadel","country":"pw","lat":7.4858333,"lon":134.48},{"id":2310476,"name":"elecbue","country":"pw","lat":7.4297222,"lon":134.4772222},{"id":2310487,"name":"gabayanga","country":"pw","lat":6.9138889,"lon":134.1438889},{"id":2310669,"name":"ngarekai","country":"pw","lat":7.4186111,"lon":134.4933333},{"id":2310632,"name":"mudorom","country":"pw","lat":7.4547222,"lon":134.4777778},{"id":3006310,"name":"koror","country":"us","lat":7.3419444,"lon":134.4791667},{"id":3006313,"name":"mechang","country":"us","lat":7.3330556,"lon":134.4988889},{"id":2310675,"name":"ngarekeul","country":"pw","lat":6.9986111,"lon":134.2333333},{"id":2310545,"name":"goreor","country":"pw","lat":7.3405556,"lon":134.4708333},{"id":2310659,"name":"ngarbagedesau","country":"pw","lat":7.3463889,"lon":134.49},{"id":2310598,"name":"madarabae","country":"pw","lat":7.4916667,"lon":134.4916667},{"id":2310549,"name":"idid","country":"pw","lat":7.3413889,"lon":134.4811111},{"id":2310629,"name":"minatohang","country":"pw","lat":7.3427778,"lon":134.4786111},{"id":2310636,"name":"namako island","country":"pw","lat":7.3483333,"lon":134.4766667},{"id":2310570,"name":"kamiyangaur","country":"pw","lat":7.4438889,"lon":134.4733333},{"id":2310745,"name":"ngesyas","country":"pw","lat":7.0436111,"lon":134.2594444},{"id":2310582,"name":"kloulklubed","country":"pw","lat":7.0394444,"lon":134.2525},{"id":2310626,"name":"meungs","country":"pw","lat":7.3519444,"lon":134.4544444},{"id":3006311,"name":"koska","country":"us","lat":7.0341667,"lon":134.2494444},{"id":2310563,"name":"kaemesang","country":"pw","lat":7.4138889,"lon":134.4927778},{"id":2310660,"name":"ngarbaged","country":"pw","lat":7.3333333,"lon":134.4722222},{"id":2310652,"name":"ngarakeai","country":"pw","lat":7.4180556,"lon":134.495}]});