callback({"markets":[{"id":2924484,"name":"saint petersburg","country":"us","lat":40.5555556,"lon":-102.8166667},{"id":2923968,"name":"iliff","country":"us","lat":40.7591667,"lon":-103.0661111},{"id":2981488,"name":"sidney","country":"us","lat":41.1427778,"lon":-102.9775},{"id":2923988,"name":"jessica","country":"us","lat":40.7605556,"lon":-103.1713889},{"id":2924767,"name":"willard","country":"us","lat":40.5544444,"lon":-103.4858333},{"id":2924088,"name":"leroy","country":"us","lat":40.5261111,"lon":-102.9136111},{"id":2924643,"name":"tobin","country":"us","lat":40.8341667,"lon":-102.8722222},{"id":2980748,"name":"conestoga mobile home park","country":"us","lat":41.1444444,"lon":-102.9722222},{"id":2981370,"name":"potter","country":"us","lat":41.2175,"lon":-103.3152778},{"id":2981547,"name":"sunol","country":"us","lat":41.1552778,"lon":-102.7630556},{"id":2923632,"name":"dailey","country":"us","lat":40.6566667,"lon":-102.7233333},{"id":2981364,"name":"point of rocks","country":"us","lat":41.2102778,"lon":-103.2455556},{"id":2923367,"name":"atwood","country":"us","lat":40.5477778,"lon":-103.2691667},{"id":2980817,"name":"dix","country":"us","lat":41.2352778,"lon":-103.4858333},{"id":2924447,"name":"rockland","country":"us","lat":40.5105556,"lon":-102.7194444},{"id":2924394,"name":"proctor","country":"us","lat":40.8069444,"lon":-102.9511111},{"id":2981233,"name":"mount vernon","country":"us","lat":41.1066667,"lon":-103.1991667},{"id":2923758,"name":"fleming","country":"us","lat":40.68,"lon":-102.8388889},{"id":2923481,"name":"buchanan","country":"us","lat":40.8319444,"lon":-103.1680556},{"id":2923900,"name":"haxtun","country":"us","lat":40.6411111,"lon":-102.6263889},{"id":2980744,"name":"colton","country":"us","lat":41.1533333,"lon":-102.8566667},{"id":2980948,"name":"gurley","country":"us","lat":41.3222222,"lon":-102.9702778},{"id":2924586,"name":"sterling","country":"us","lat":40.6255556,"lon":-103.2072222},{"id":2980790,"name":"dalton","country":"us","lat":41.4072222,"lon":-102.9733333},{"id":2924152,"name":"marcott","country":"us","lat":40.8786111,"lon":-102.7236111},{"id":2924418,"name":"red lion","country":"us","lat":40.8916667,"lon":-102.6763889},{"id":2981040,"name":"jacinto","country":"us","lat":41.2258333,"lon":-103.4036111},{"id":2981129,"name":"lodgepole","country":"us","lat":41.1497222,"lon":-102.6358333},{"id":2923795,"name":"galien","country":"us","lat":40.6877778,"lon":-103.0077778},{"id":2924514,"name":"selma","country":"us","lat":40.7713889,"lon":-103.0305556},{"id":2980931,"name":"gordons mobile plaza","country":"us","lat":41.1369444,"lon":-102.9875},{"id":2924110,"name":"logan","country":"us","lat":40.5786111,"lon":-103.3577778},{"id":2980739,"name":"coldwater trailer court","country":"us","lat":41.4972222,"lon":-102.6197222},{"id":2981136,"name":"lorenzo","country":"us","lat":41.0475,"lon":-103.0675},{"id":2924748,"name":"westplains","country":"us","lat":40.8647222,"lon":-103.4972222},{"id":2924309,"name":"padroni","country":"us","lat":40.7777778,"lon":-103.1722222},{"id":2923870,"name":"griff","country":"us","lat":40.7822222,"lon":-103.0066667},{"id":2924673,"name":"twin mills","country":"us","lat":40.5736111,"lon":-103.1258333},{"id":2980673,"name":"brownson","country":"us","lat":41.1875,"lon":-103.1125},{"id":2924345,"name":"peetz","country":"us","lat":40.9627778,"lon":-103.1119444},{"id":2924511,"name":"sedgwick","country":"us","lat":40.9363889,"lon":-102.525},{"id":2981024,"name":"huntsman","country":"us","lat":41.2208333,"lon":-102.9733333},{"id":2923621,"name":"crook","country":"us","lat":40.8588889,"lon":-102.8005556}]});