callback({"markets":[{"id":3020232,"name":"karinen","country":"us","lat":45.9005556,"lon":-103.6744444},{"id":3020253,"name":"ladner","country":"us","lat":45.8272222,"lon":-103.7275},{"id":2997754,"name":"griffin","country":"us","lat":46.2158333,"lon":-103.5402778},{"id":2979867,"name":"mill iron","country":"us","lat":45.8536111,"lon":-104.2188889},{"id":2997823,"name":"ives","country":"us","lat":46.2708333,"lon":-103.7388889},{"id":2980480,"name":"willard","country":"us","lat":46.1938889,"lon":-104.3694444},{"id":2997978,"name":"mound","country":"us","lat":46.4025,"lon":-103.7380556},{"id":2979038,"name":"belltower","country":"us","lat":45.6383333,"lon":-104.3766667},{"id":2980438,"name":"webster","country":"us","lat":46.055,"lon":-104.2466667},{"id":2978997,"name":"baker","country":"us","lat":46.3669444,"lon":-104.2841667},{"id":3019933,"name":"camp crook","country":"us","lat":45.5502778,"lon":-103.9741667},{"id":3019921,"name":"buffalo","country":"us","lat":45.5841667,"lon":-103.5455556},{"id":2997932,"name":"marmarth","country":"us","lat":46.295,"lon":-103.9202778},{"id":2998093,"name":"rhame","country":"us","lat":46.2325,"lon":-103.655},{"id":2997941,"name":"mazda","country":"us","lat":46.2858333,"lon":-103.8611111}]});