callback({"markets":[{"id":2988304,"name":"deruyter","country":"us","lat":42.7583333,"lon":-75.8847222},{"id":2987343,"name":"bardeen corners","country":"us","lat":43.3452778,"lon":-76.1522222},{"id":2989019,"name":"georgetown","country":"us","lat":42.7683333,"lon":-75.7369444},{"id":2992556,"name":"wellington corner","country":"us","lat":42.9869444,"lon":-76.2605556},{"id":2990905,"name":"otisco","country":"us","lat":42.86,"lon":-76.2183333},{"id":2992044,"name":"starks landing","country":"us","lat":43.1713889,"lon":-75.6486111},{"id":2990480,"name":"munnsville","country":"us","lat":42.9769444,"lon":-75.5872222},{"id":2987217,"name":"apulia station","country":"us","lat":42.8186111,"lon":-76.0727778},{"id":2992428,"name":"vesper","country":"us","lat":42.8175,"lon":-76.1816667},{"id":2990772,"name":"northwest corners","country":"us","lat":42.6294444,"lon":-75.7738889},{"id":2992639,"name":"west groton","country":"us","lat":42.6041667,"lon":-76.4458333},{"id":2992386,"name":"valley mills","country":"us","lat":43.0119444,"lon":-75.59},{"id":2989997,"name":"little york","country":"us","lat":42.6958333,"lon":-76.1647222},{"id":2989202,"name":"griffins corners","country":"us","lat":42.9333333,"lon":-76.1972222},{"id":2990070,"name":"lower south bay","country":"us","lat":43.2,"lon":-76.0633333},{"id":2992718,"name":"west woodstock","country":"us","lat":42.8469444,"lon":-75.8819444},{"id":2990365,"name":"minoa","country":"us","lat":43.0761111,"lon":-76.0011111},{"id":2992766,"name":"white corners","country":"us","lat":42.9080556,"lon":-75.6038889},{"id":2992046,"name":"state bridge","country":"us","lat":43.1458333,"lon":-75.6769444},{"id":2992257,"name":"toll gate corners","country":"us","lat":42.6955556,"lon":-76.4205556},{"id":2990297,"name":"mexico","country":"us","lat":43.4594444,"lon":-76.2291667},{"id":2991655,"name":"scribner corners","country":"us","lat":43.0541667,"lon":-75.6327778},{"id":2987309,"name":"baird corners","country":"us","lat":43.2222222,"lon":-76.4605556},{"id":2990220,"name":"mattydale","country":"us","lat":43.0977778,"lon":-76.1455556},{"id":2992685,"name":"west phoenix","country":"us","lat":43.2255556,"lon":-76.305},{"id":2989279,"name":"hammonds corner","country":"us","lat":43.4725,"lon":-76.3847222},{"id":2988025,"name":"clifford","country":"us","lat":43.3816667,"lon":-76.2855556},{"id":2989907,"name":"lebanon center","country":"us","lat":42.785,"lon":-75.62},{"id":2988834,"name":"florence hill","country":"us","lat":43.4230556,"lon":-75.7933333},{"id":2991916,"name":"south lebanon","country":"us","lat":42.7591667,"lon":-75.6583333},{"id":2989967,"name":"lindbergh lawns","country":"us","lat":43.1147222,"lon":-76.2566667},{"id":2991256,"name":"puckerville","country":"us","lat":42.7866667,"lon":-75.8758333},{"id":2992439,"name":"village green","country":"us","lat":43.1333333,"lon":-76.3133333},{"id":2990411,"name":"moravia","country":"us","lat":42.7125,"lon":-76.4219444},{"id":2990431,"name":"morrisville station","country":"us","lat":42.8913889,"lon":-75.6044444},{"id":2987499,"name":"big bend","country":"us","lat":42.8775,"lon":-76.09},{"id":2987876,"name":"cazenovia","country":"us","lat":42.93,"lon":-75.8530556},{"id":2990108,"name":"madison","country":"us","lat":42.8988889,"lon":-75.5125},{"id":2988988,"name":"garden terrace","country":"us","lat":43.0855556,"lon":-76.2841667},{"id":2990854,"name":"oneida lake beach east","country":"us","lat":43.1663889,"lon":-75.7647222},{"id":2989922,"name":"leisher mill","country":"us","lat":43.4852778,"lon":-75.6386111},{"id":2988272,"name":"dams corner","country":"us","lat":43.1313889,"lon":-75.58},{"id":2991893,"name":"south granby","country":"us","lat":43.2511111,"lon":-76.4047222},{"id":2990186,"name":"marietta","country":"us","lat":42.9088889,"lon":-76.3238889},{"id":2990851,"name":"oneida","country":"us","lat":43.0925,"lon":-75.6516667},{"id":2991680,"name":"seneca knolls","country":"us","lat":43.12,"lon":-76.2866667},{"id":2992120,"name":"sullivan","country":"us","lat":43.0544444,"lon":-75.8472222},{"id":2992181,"name":"taylor","country":"us","lat":42.5669444,"lon":-75.8936111},{"id":2987275,"name":"atwell corners","country":"us","lat":42.9247222,"lon":-75.9066667},{"id":2990291,"name":"merrillsville","country":"us","lat":43.0188889,"lon":-75.6713889},{"id":2991376,"name":"ricard","country":"us","lat":43.4980556,"lon":-75.9216667},{"id":2991096,"name":"pine","country":"us","lat":43.2586111,"lon":-75.6391667},{"id":2992723,"name":"westdale","country":"us","lat":43.3877778,"lon":-75.8155556},{"id":2991671,"name":"seifert corners","country":"us","lat":43.2252778,"lon":-75.5366667},{"id":2988836,"name":"floridaville","country":"us","lat":43.2386111,"lon":-76.4875},{"id":2988932,"name":"freeville","country":"us","lat":42.5138889,"lon":-76.3469444},{"id":2991020,"name":"peck hill","country":"us","lat":42.9997222,"lon":-75.9188889},{"id":2991822,"name":"snyder crossing","country":"us","lat":43.0752778,"lon":-75.9913889},{"id":2989184,"name":"greenway","country":"us","lat":43.1805556,"lon":-75.5333333},{"id":2988591,"name":"east syracuse","country":"us","lat":43.0652778,"lon":-76.0788889},{"id":2989873,"name":"lamson","country":"us","lat":43.2175,"lon":-76.3702778},{"id":2987846,"name":"casowasco","country":"us","lat":42.7833333,"lon":-76.4941667},{"id":2992425,"name":"verona station","country":"us","lat":43.1336111,"lon":-75.5869444},{"id":2992477,"name":"walkers corners","country":"us","lat":43.1211111,"lon":-75.7736111},{"id":2991833,"name":"solsville","country":"us","lat":42.9105556,"lon":-75.5180556},{"id":2992156,"name":"swift corner","country":"us","lat":42.8663889,"lon":-76.0288889},{"id":2987600,"name":"bowens corners","country":"us","lat":43.2752778,"lon":-76.4638889},{"id":2991255,"name":"prussian settlement","country":"us","lat":43.4525,"lon":-75.5077778},{"id":2992306,"name":"tully lake park","country":"us","lat":42.7841667,"lon":-76.1363889},{"id":2991245,"name":"preston center","country":"us","lat":42.5077778,"lon":-75.5983333},{"id":2992522,"name":"watervale","country":"us","lat":42.95,"lon":-75.9825},{"id":2990748,"name":"north syracuse","country":"us","lat":43.1347222,"lon":-76.1302778},{"id":2988639,"name":"edgewater park","country":"us","lat":42.8808333,"lon":-76.3805556},{"id":2990439,"name":"mosher corners","country":"us","lat":42.5908333,"lon":-76.4016667},{"id":2991973,"name":"spafford landing","country":"us","lat":42.7863889,"lon":-76.2747222},{"id":2992147,"name":"swancott mill","country":"us","lat":43.4622222,"lon":-75.6033333},{"id":2988733,"name":"fabius","country":"us","lat":42.835,"lon":-75.9863889},{"id":2990989,"name":"parson mill","country":"us","lat":43.4494444,"lon":-75.5669444},{"id":2991137,"name":"plasterville","country":"us","lat":42.5861111,"lon":-75.5222222},{"id":2990430,"name":"morrisville","country":"us","lat":42.8986111,"lon":-75.6405556},{"id":2988176,"name":"cottons","country":"us","lat":43.0416667,"lon":-75.7822222},{"id":2991731,"name":"sherwood knolls","country":"us","lat":43.0375,"lon":-76.2594444},{"id":2991816,"name":"smyrna","country":"us","lat":42.6872222,"lon":-75.5711111},{"id":2992419,"name":"vernon center","country":"us","lat":43.0522222,"lon":-75.5019444},{"id":2989060,"name":"glen haven","country":"us","lat":42.7655556,"lon":-76.2783333},{"id":2989725,"name":"kellys corners","country":"us","lat":43.015,"lon":-76.2527778},{"id":2987820,"name":"cards corners","country":"us","lat":42.9891667,"lon":-76.2508333},{"id":2991304,"name":"randallsville","country":"us","lat":42.795,"lon":-75.5672222},{"id":2988263,"name":"cuyler","country":"us","lat":42.7372222,"lon":-75.9488889},{"id":2989819,"name":"lacy corners","country":"us","lat":42.5047222,"lon":-76.2988889},{"id":2988685,"name":"elmcrest","country":"us","lat":43.1330556,"lon":-76.2361111},{"id":2989777,"name":"kirk","country":"us","lat":42.6047222,"lon":-75.6416667},{"id":2991624,"name":"schepps corners","country":"us","lat":43.1152778,"lon":-76.0036111},{"id":2990167,"name":"maple view","country":"us","lat":43.4572222,"lon":-76.1455556},{"id":2990471,"name":"mud hill","country":"us","lat":43.3902778,"lon":-75.9275},{"id":2990528,"name":"new boston","country":"us","lat":42.6727778,"lon":-75.9322222},{"id":2990787,"name":"nubia","country":"us","lat":42.5858333,"lon":-76.2897222},{"id":2991970,"name":"southwood","country":"us","lat":42.9961111,"lon":-76.1091667},{"id":2991777,"name":"skaneateles falls","country":"us","lat":42.9930556,"lon":-76.4563889},{"id":2991524,"name":"russ mills","country":"us","lat":43.3672222,"lon":-76.2413889},{"id":2988386,"name":"doris park","country":"us","lat":43.2441667,"lon":-76.0252778},{"id":2988833,"name":"florence","country":"us","lat":43.4383333,"lon":-75.7497222},{"id":2992251,"name":"toad harbor","country":"us","lat":43.2413889,"lon":-76.0752778},{"id":2991177,"name":"pompey center","country":"us","lat":42.9230556,"lon":-75.9508333},{"id":2988718,"name":"erieville","country":"us","lat":42.8516667,"lon":-75.7558333},{"id":2991146,"name":"pleasant point crossing","country":"us","lat":43.4986111,"lon":-76.3347222},{"id":2992660,"name":"west lee","country":"us","lat":43.3094444,"lon":-75.55},{"id":2991040,"name":"pennellville","country":"us","lat":43.2825,"lon":-76.2708333},{"id":2990479,"name":"munns","country":"us","lat":42.9811111,"lon":-75.5780556},{"id":2991236,"name":"pratts","country":"us","lat":42.9213889,"lon":-75.5905556},{"id":2987911,"name":"central square","country":"us","lat":43.2866667,"lon":-76.1463889},{"id":2989861,"name":"lakeland","country":"us","lat":43.0902778,"lon":-76.2408333},{"id":2992446,"name":"virgil","country":"us","lat":42.5105556,"lon":-76.1947222},{"id":2988472,"name":"east boston","country":"us","lat":43.0833333,"lon":-75.8177778},{"id":2991458,"name":"rodger corner","country":"us","lat":43.1619444,"lon":-76.1583333},{"id":2991567,"name":"salem corner","country":"us","lat":42.9544444,"lon":-75.9580556},{"id":2990203,"name":"martisco","country":"us","lat":43.0172222,"lon":-76.335},{"id":2987599,"name":"bowen corners","country":"us","lat":43.3066667,"lon":-76.2516667},{"id":2988363,"name":"dibbletown","country":"us","lat":43.2802778,"lon":-75.7105556},{"id":2989528,"name":"howland corners","country":"us","lat":42.5397222,"lon":-76.4541667},{"id":2987326,"name":"baldwinsville","country":"us","lat":43.1586111,"lon":-76.3330556},{"id":2987248,"name":"arthur","country":"us","lat":43.495,"lon":-76.2483333},{"id":2987125,"name":"agnes corners","country":"us","lat":43.1758333,"lon":-75.6066667},{"id":2991764,"name":"siloam","country":"us","lat":42.9847222,"lon":-75.6416667},{"id":2989529,"name":"howlett hill","country":"us","lat":43.0158333,"lon":-76.2861111},{"id":2991102,"name":"pine crest","country":"us","lat":43.2388889,"lon":-75.6230556},{"id":2990190,"name":"mariposa","country":"us","lat":42.7075,"lon":-75.8105556},{"id":2992367,"name":"upperville","country":"us","lat":42.7002778,"lon":-75.6155556},{"id":2988523,"name":"east homer","country":"us","lat":42.6661111,"lon":-76.1019444},{"id":2991021,"name":"pecksport","country":"us","lat":42.8625,"lon":-75.5677778},{"id":2988813,"name":"fitts corners","country":"us","lat":42.5636111,"lon":-76.3236111},{"id":2987976,"name":"chipman corners","country":"us","lat":42.6327778,"lon":-76.3755556},{"id":2987770,"name":"cagwin corners","country":"us","lat":43.1497222,"lon":-75.5758333},{"id":2987844,"name":"cascade","country":"us","lat":42.7552778,"lon":-76.4736111},{"id":2989668,"name":"jewell","country":"us","lat":43.2244444,"lon":-75.8069444},{"id":2990548,"name":"new hope","country":"us","lat":42.7980556,"lon":-76.3475},{"id":2991184,"name":"poolville","country":"us","lat":42.7755556,"lon":-75.5069444},{"id":2988581,"name":"east scott","country":"us","lat":42.7219444,"lon":-76.1947222},{"id":2992340,"name":"union","country":"us","lat":42.8677778,"lon":-75.8875},{"id":2992305,"name":"tully center","country":"us","lat":42.7988889,"lon":-76.1225},{"id":2990901,"name":"oswego bitter","country":"us","lat":43.0611111,"lon":-76.3638889},{"id":2987147,"name":"alene","country":"us","lat":43.0122222,"lon":-75.7372222},{"id":2988623,"name":"eaton","country":"us","lat":42.8497222,"lon":-75.6122222},{"id":2992835,"name":"windcrest park","country":"us","lat":43.0377778,"lon":-76.2958333},{"id":2990401,"name":"montville","country":"us","lat":42.7144444,"lon":-76.4036111},{"id":2990968,"name":"parish center","country":"us","lat":43.4019444,"lon":-76.0686111},{"id":2989742,"name":"kenwood","country":"us","lat":43.0580556,"lon":-75.6125},{"id":2989382,"name":"heath grove","country":"us","lat":42.885,"lon":-76.2933333},{"id":2992185,"name":"taylor valley","country":"us","lat":42.5930556,"lon":-75.9527778},{"id":2988776,"name":"fernwood","country":"us","lat":43.4952778,"lon":-76.1508333},{"id":2991235,"name":"prattham","country":"us","lat":43.4561111,"lon":-76.1802778},{"id":2987716,"name":"buellville","country":"us","lat":42.9866667,"lon":-75.95},{"id":2990662,"name":"north constantia","country":"us","lat":43.3425,"lon":-75.9972222},{"id":2992180,"name":"taunton","country":"us","lat":43.0305556,"lon":-76.2091667},{"id":2989939,"name":"lewis corners","country":"us","lat":43.3644444,"lon":-76.4713889},{"id":2990621,"name":"north amboy","country":"us","lat":43.4036111,"lon":-75.8866667},{"id":2991283,"name":"quality hill","country":"us","lat":43.0669444,"lon":-75.7752778},{"id":2988853,"name":"forest beach","country":"us","lat":43.2205556,"lon":-76.0919444},{"id":2992033,"name":"stanley manor","country":"us","lat":43.0397222,"lon":-76.2575},{"id":2988637,"name":"edgewater","country":"us","lat":42.7677778,"lon":-76.4813889},{"id":2990910,"name":"otselic center","country":"us","lat":42.7011111,"lon":-75.7461111},{"id":2988558,"name":"east palermo","country":"us","lat":43.3511111,"lon":-76.2333333},{"id":2991043,"name":"perkins corner","country":"us","lat":42.8963889,"lon":-75.8808333},{"id":2989797,"name":"knoxboro","country":"us","lat":42.9863889,"lon":-75.5175},{"id":2989011,"name":"gee brook","country":"us","lat":42.5091667,"lon":-75.9186111},{"id":2990727,"name":"north pitcher","country":"us","lat":42.6225,"lon":-75.82},{"id":2992418,"name":"vernon","country":"us","lat":43.0794444,"lon":-75.5397222},{"id":2990083,"name":"lycoming","country":"us","lat":43.4986111,"lon":-76.3861111},{"id":2992368,"name":"upson corners","country":"us","lat":43.3616667,"lon":-76.2286111},{"id":2990032,"name":"long branch","country":"us","lat":43.1180556,"lon":-76.2436111},{"id":2989185,"name":"greenway corners","country":"us","lat":43.1702778,"lon":-75.5261111},{"id":2989116,"name":"granby center","country":"us","lat":43.3266667,"lon":-76.4663889},{"id":2990490,"name":"mycenae","country":"us","lat":43.0488889,"lon":-75.9308333},{"id":2991105,"name":"pine hollow","country":"us","lat":42.6694444,"lon":-76.4786111},{"id":2989521,"name":"howardville","country":"us","lat":43.4627778,"lon":-76.0530556},{"id":2991679,"name":"seneca hill","country":"us","lat":43.4008333,"lon":-76.4705556},{"id":2992393,"name":"van buren","country":"us","lat":43.1136111,"lon":-76.3025},{"id":2988814,"name":"five chimneys corner","country":"us","lat":43.0333333,"lon":-75.6194444},{"id":2989962,"name":"lincklaen center","country":"us","lat":42.7069444,"lon":-75.8488889},{"id":2987284,"name":"austin","country":"us","lat":42.8108333,"lon":-76.4711111},{"id":2987958,"name":"cherryplain","country":"us","lat":42.6294444,"lon":-76.3608333},{"id":2992232,"name":"three rivers","country":"us","lat":43.2008333,"lon":-76.2783333},{"id":2990509,"name":"navarino","country":"us","lat":42.9275,"lon":-76.2741667},{"id":2987583,"name":"borodino","country":"us","lat":42.8588889,"lon":-76.3383333},{"id":2990159,"name":"maple flats","country":"us","lat":43.2702778,"lon":-75.8552778},{"id":2988137,"name":"coonrod","country":"us","lat":43.2483333,"lon":-75.5236111},{"id":2987279,"name":"augusta","country":"us","lat":42.9747222,"lon":-75.5016667},{"id":2990794,"name":"oak orchard","country":"us","lat":43.2058333,"lon":-76.2127778},{"id":2989101,"name":"goosetree","country":"us","lat":42.6547222,"lon":-76.475},{"id":2988454,"name":"earlville","country":"us","lat":42.7397222,"lon":-75.5455556},{"id":2990720,"name":"north norwich","country":"us","lat":42.6169444,"lon":-75.5272222},{"id":2988638,"name":"edgewater beach","country":"us","lat":43.2186111,"lon":-75.7305556},{"id":2991058,"name":"peterboro","country":"us","lat":42.9672222,"lon":-75.6883333},{"id":2992540,"name":"weaver corner","country":"us","lat":43.1227778,"lon":-75.9280556},{"id":2990098,"name":"lysander new community","country":"us","lat":43.1677778,"lon":-76.3016667},{"id":2989815,"name":"lafayette","country":"us","lat":42.8922222,"lon":-76.1055556},{"id":2991166,"name":"point rock","country":"us","lat":43.3805556,"lon":-75.5475},{"id":2990293,"name":"messenger bay","country":"us","lat":43.1575,"lon":-75.8016667},{"id":2991729,"name":"sherrill","country":"us","lat":43.0736111,"lon":-75.5986111},{"id":2987591,"name":"bouckville","country":"us","lat":42.8891667,"lon":-75.5516667},{"id":2990470,"name":"moyers corners","country":"us","lat":43.1802778,"lon":-76.2619444},{"id":2990859,"name":"onondaga castle","country":"us","lat":42.9705556,"lon":-76.1413889},{"id":2989684,"name":"jones corners","country":"us","lat":43.4586111,"lon":-76.3836111},{"id":2988502,"name":"east freetown","country":"us","lat":42.5519444,"lon":-75.9875},{"id":2992817,"name":"willow glen","country":"us","lat":42.9633333,"lon":-76.4363889},{"id":2987436,"name":"belgium","country":"us","lat":43.1763889,"lon":-76.275},{"id":2988785,"name":"fillmore corner","country":"us","lat":42.9911111,"lon":-76.0180556},{"id":2988598,"name":"east verona","country":"us","lat":43.2180556,"lon":-75.5491667},{"id":2991993,"name":"split rock","country":"us","lat":43.0241667,"lon":-76.2236111},{"id":2989716,"name":"keeney","country":"us","lat":42.785,"lon":-75.9652778},{"id":2989688,"name":"jordan","country":"us","lat":43.0652778,"lon":-76.4733333},{"id":2992496,"name":"warners","country":"us","lat":43.0852778,"lon":-76.3294444},{"id":2988412,"name":"dugway","country":"us","lat":43.4613889,"lon":-76.0819444},{"id":2990064,"name":"lower cincinnatus","country":"us","lat":42.5325,"lon":-75.8986111},{"id":2992381,"name":"valentines beach","country":"us","lat":43.1938889,"lon":-76.0352778},{"id":2989545,"name":"humaston","country":"us","lat":43.2611111,"lon":-75.5961111},{"id":2987989,"name":"cicero","country":"us","lat":43.1755556,"lon":-76.1197222},{"id":2987691,"name":"brown center","country":"us","lat":43.1694444,"lon":-76.0388889},{"id":2989301,"name":"happy valley","country":"us","lat":43.4405556,"lon":-75.975},{"id":2990871,"name":"oran","country":"us","lat":42.9780556,"lon":-75.9333333},{"id":2989924,"name":"lenox","country":"us","lat":43.0583333,"lon":-75.7047222},{"id":2991333,"name":"red mill","country":"us","lat":43.4183333,"lon":-76.1430556},{"id":2991648,"name":"scott","country":"us","lat":42.7294444,"lon":-76.2436111},{"id":2988332,"name":"delphi falls","country":"us","lat":42.8763889,"lon":-75.9138889},{"id":2990714,"name":"north manlius","country":"us","lat":43.0997222,"lon":-75.9775},{"id":2989683,"name":"jones beach","country":"us","lat":42.9047222,"lon":-76.3944444},{"id":2988622,"name":"eastwood","country":"us","lat":43.0661111,"lon":-76.105},{"id":2990991,"name":"partello corners","country":"us","lat":42.7975,"lon":-76.3663889},{"id":2990177,"name":"marcellus","country":"us","lat":42.9827778,"lon":-76.3408333},{"id":2991834,"name":"solvay","country":"us","lat":43.0580556,"lon":-76.2077778},{"id":2990139,"name":"mandana","country":"us","lat":42.8655556,"lon":-76.4038889},{"id":2991131,"name":"plainville","country":"us","lat":43.1591667,"lon":-76.4475},{"id":2987463,"name":"bennetts corners","country":"us","lat":43.0433333,"lon":-75.6036111},{"id":2987335,"name":"baltimore","country":"us","lat":42.7352778,"lon":-76.1261111},{"id":2991078,"name":"phoenix","country":"us","lat":43.2311111,"lon":-76.3011111},{"id":2991472,"name":"roosevelt corners","country":"us","lat":43.3044444,"lon":-76.2408333},{"id":2989211,"name":"grotto","country":"us","lat":42.5594444,"lon":-76.41},{"id":2990921,"name":"owasco hill","country":"us","lat":42.7275,"lon":-76.465},{"id":2989227,"name":"gulf bridge","country":"us","lat":43.2902778,"lon":-76.065},{"id":2987785,"name":"camden","country":"us","lat":43.3344444,"lon":-75.7483333},{"id":2990033,"name":"long bridge","country":"us","lat":42.9802778,"lon":-76.4463889},{"id":2989686,"name":"jones point","country":"us","lat":43.1083333,"lon":-76.4630556},{"id":2987137,"name":"albion center","country":"us","lat":43.4886111,"lon":-76.0419444},{"id":2988974,"name":"galena","country":"us","lat":42.6130556,"lon":-75.5311111},{"id":2988726,"name":"euclid","country":"us","lat":43.1863889,"lon":-76.2175},{"id":2988710,"name":"empeyville","country":"us","lat":43.3966667,"lon":-75.6852778},{"id":2989210,"name":"groton city","country":"us","lat":42.615,"lon":-76.2855556},{"id":2990433,"name":"morse mill","country":"us","lat":42.7269444,"lon":-76.3594444},{"id":2990249,"name":"mclean","country":"us","lat":42.5519444,"lon":-76.2913889},{"id":2987304,"name":"baileys settlement","country":"us","lat":42.8869444,"lon":-76.1563889},{"id":2987636,"name":"brewerton","country":"us","lat":43.2380556,"lon":-76.1411111},{"id":2992286,"name":"tripoli","country":"us","lat":42.7388889,"lon":-75.9627778},{"id":2989262,"name":"halls corner","country":"us","lat":42.64,"lon":-76.2825},{"id":2989863,"name":"lakeport","country":"us","lat":43.1452778,"lon":-75.8722222},{"id":2987516,"name":"bingley","country":"us","lat":42.9616667,"lon":-75.8311111},{"id":2992802,"name":"williams corners","country":"us","lat":42.8927778,"lon":-75.6733333},{"id":2991509,"name":"rowan corners","country":"us","lat":42.9844444,"lon":-75.8169444},{"id":2988975,"name":"galeville","country":"us","lat":43.09,"lon":-76.1733333},{"id":2987824,"name":"carley mills","country":"us","lat":43.3786111,"lon":-76.1216667},{"id":2991654,"name":"scriba","country":"us","lat":43.4652778,"lon":-76.4308333},{"id":2990048,"name":"lords corners","country":"us","lat":42.9102778,"lon":-76.2216667},{"id":2991927,"name":"south onondaga","country":"us","lat":42.9302778,"lon":-76.2130556},{"id":2989925,"name":"lenox basin","country":"us","lat":43.0902778,"lon":-75.7116667},{"id":2990988,"name":"parson farms","country":"us","lat":43.0366667,"lon":-76.2805556},{"id":2990909,"name":"otselic","country":"us","lat":42.7225,"lon":-75.7202778},{"id":2991974,"name":"spafford valley","country":"us","lat":42.8230556,"lon":-76.2405556},{"id":2987407,"name":"beaver meadow","country":"us","lat":42.6594444,"lon":-75.6805556},{"id":2990514,"name":"nelson","country":"us","lat":42.9172222,"lon":-75.7772222},{"id":2988535,"name":"east lansing","country":"us","lat":42.5683333,"lon":-76.4697222},{"id":2991723,"name":"sherburne four corners","country":"us","lat":42.6480556,"lon":-75.5469444},{"id":2987411,"name":"becks grove","country":"us","lat":43.2552778,"lon":-75.6041667},{"id":2990855,"name":"oneida lake beach west","country":"us","lat":43.1575,"lon":-75.8458333},{"id":2990632,"name":"north belle isle","country":"us","lat":43.0836111,"lon":-76.2522222},{"id":2992860,"name":"woodard","country":"us","lat":43.1413889,"lon":-76.1944444},{"id":2991641,"name":"sconondoa","country":"us","lat":43.0958333,"lon":-75.6238889},{"id":2988042,"name":"clockville","country":"us","lat":43.0416667,"lon":-75.745},{"id":2992346,"name":"union settlement","country":"us","lat":43.3202778,"lon":-76.0436111},{"id":2988565,"name":"east pharsalia","country":"us","lat":42.5580556,"lon":-75.7175},{"id":2989212,"name":"grout mill","country":"us","lat":42.7233333,"lon":-76.2588889},{"id":2991280,"name":"quaker settlement","country":"us","lat":42.755,"lon":-75.8394444},{"id":2992437,"name":"vienna","country":"us","lat":43.2394444,"lon":-75.7027778},{"id":2990598,"name":"nicholsville","country":"us","lat":43.2730556,"lon":-75.9641667},{"id":2989088,"name":"globe hotel corners","country":"us","lat":42.7883333,"lon":-76.3808333},{"id":2991112,"name":"pine woods","country":"us","lat":42.8869444,"lon":-75.5794444},{"id":2991675,"name":"sempronius","country":"us","lat":42.7294444,"lon":-76.3155556},{"id":2989484,"name":"homer","country":"us","lat":42.6369444,"lon":-76.1791667},{"id":2991234,"name":"pratt corners","country":"us","lat":42.6875,"lon":-76.1691667},{"id":2989010,"name":"gayville","country":"us","lat":43.3058333,"lon":-76.0138889},{"id":2990432,"name":"morse","country":"us","lat":43.37,"lon":-76.1341667},{"id":2987482,"name":"bernhards bay","country":"us","lat":43.2444444,"lon":-75.9338889},{"id":2990012,"name":"locke","country":"us","lat":42.6605556,"lon":-76.4311111},{"id":2991778,"name":"skaneateles junction","country":"us","lat":43.0111111,"lon":-76.4577778},{"id":2989635,"name":"jacks reef","country":"us","lat":43.0991667,"lon":-76.4244444},{"id":2989444,"name":"hillsboro","country":"us","lat":43.3272222,"lon":-75.8297222},{"id":2991705,"name":"sheds","country":"us","lat":42.8111111,"lon":-75.8305556},{"id":2990044,"name":"loomis corner","country":"us","lat":43.3511111,"lon":-76.2822222},{"id":2991720,"name":"shepard settlement","country":"us","lat":42.9952778,"lon":-76.3836111},{"id":2992161,"name":"sylvan beach","country":"us","lat":43.1963889,"lon":-75.7308333},{"id":2987727,"name":"bundy crossing","country":"us","lat":43.3830556,"lon":-76.4455556},{"id":2992806,"name":"williamstown","country":"us","lat":43.4238889,"lon":-75.8902778},{"id":2991963,"name":"southeast owasco","country":"us","lat":42.7583333,"lon":-76.4597222},{"id":2990956,"name":"panther lake","country":"us","lat":43.3261111,"lon":-75.9008333},{"id":2989367,"name":"hawley corners","country":"us","lat":42.5397222,"lon":-75.5088889},{"id":2991779,"name":"skanondaga heights","country":"us","lat":42.8755556,"lon":-76.4094444},{"id":2987819,"name":"cardiff","country":"us","lat":42.8897222,"lon":-76.1436111},{"id":2990087,"name":"lyncourt","country":"us","lat":43.0813889,"lon":-76.1261111},{"id":2987183,"name":"amboy","country":"us","lat":43.0694444,"lon":-76.2727778},{"id":2989355,"name":"hatchs corners","country":"us","lat":43.1780556,"lon":-75.5077778},{"id":2990223,"name":"maybury mills","country":"us","lat":42.6008333,"lon":-76.0661111},{"id":2992166,"name":"taberg","country":"us","lat":43.3036111,"lon":-75.6172222},{"id":2991683,"name":"sentinel heights","country":"us","lat":42.95,"lon":-76.1152778},{"id":2991562,"name":"saintsville","country":"us","lat":43.0819444,"lon":-75.9638889},{"id":2992416,"name":"vermilion","country":"us","lat":43.4169444,"lon":-76.2780556},{"id":2988931,"name":"freetown corners","country":"us","lat":42.5219444,"lon":-76.0363889},{"id":2991784,"name":"skytop","country":"us","lat":43.0202778,"lon":-76.1236111},{"id":2992304,"name":"tully","country":"us","lat":42.7980556,"lon":-76.1097222},{"id":2991409,"name":"rippleton","country":"us","lat":42.9119444,"lon":-75.8686111},{"id":2987184,"name":"amboy center","country":"us","lat":43.3688889,"lon":-75.9422222},{"id":2991941,"name":"south scriba","country":"us","lat":43.4288889,"lon":-76.3825},{"id":2987536,"name":"blakeslee","country":"us","lat":43.0069444,"lon":-75.815},{"id":2988697,"name":"elpis","country":"us","lat":43.2836111,"lon":-75.8225},{"id":2990754,"name":"north volney","country":"us","lat":43.4133333,"lon":-76.3272222},{"id":2992144,"name":"suttons corner","country":"us","lat":43.3241667,"lon":-76.2880556},{"id":2990474,"name":"mud settlement","country":"us","lat":43.2836111,"lon":-76.1141667},{"id":2987868,"name":"caughdenoy","country":"us","lat":43.2725,"lon":-76.2075},{"id":2990848,"name":"omro","country":"us","lat":42.7838889,"lon":-76.4322222},{"id":2991056,"name":"peruton","country":"us","lat":42.5483333,"lon":-76.3541667},{"id":2989235,"name":"guyler hill","country":"us","lat":42.7130556,"lon":-75.9208333},{"id":2989988,"name":"little france","country":"us","lat":43.3477778,"lon":-76.0969444},{"id":2988253,"name":"cummings crossing","country":"us","lat":42.7738889,"lon":-76.1197222},{"id":2988021,"name":"cleveland","country":"us","lat":43.2402778,"lon":-75.8841667},{"id":2988655,"name":"elbridge","country":"us","lat":43.0344444,"lon":-76.4483333},{"id":2992760,"name":"whig hill","country":"us","lat":43.2936111,"lon":-76.0761111},{"id":2988981,"name":"gamble mill","country":"us","lat":42.8569444,"lon":-76.2525},{"id":2987533,"name":"blackmans corners","country":"us","lat":43.1588889,"lon":-75.5477778},{"id":2987669,"name":"bromley","country":"us","lat":42.7825,"lon":-76.1833333},{"id":2988396,"name":"drakes corner","country":"us","lat":43.3766667,"lon":-76.3427778},{"id":2991776,"name":"skaneateles","country":"us","lat":42.9469444,"lon":-76.4294444},{"id":2987180,"name":"amber","country":"us","lat":42.8872222,"lon":-76.2969444},{"id":2987107,"name":"abell corners","country":"us","lat":42.8983333,"lon":-75.8286111},{"id":2991479,"name":"rose hill","country":"us","lat":42.9072222,"lon":-76.3427778},{"id":2988191,"name":"cowles settlement","country":"us","lat":42.7880556,"lon":-75.9261111},{"id":2990162,"name":"maple hill","country":"us","lat":43.4527778,"lon":-75.8538889},{"id":2990000,"name":"liverpool","country":"us","lat":43.1063889,"lon":-76.2180556},{"id":2992803,"name":"williams grove","country":"us","lat":42.8480556,"lon":-76.2536111},{"id":2992562,"name":"wellwood","country":"us","lat":43.4133333,"lon":-76.2508333},{"id":2989864,"name":"lakeside","country":"us","lat":43.105,"lon":-76.2530556},{"id":2988334,"name":"demster","country":"us","lat":43.4961111,"lon":-76.3172222},{"id":2989906,"name":"lebanon","country":"us","lat":42.7813889,"lon":-75.6480556},{"id":2991685,"name":"seventh day hollow","country":"us","lat":42.6841667,"lon":-75.7622222},{"id":2992724,"name":"westerlea","country":"us","lat":43.0477778,"lon":-76.2752778},{"id":2992838,"name":"winding ways","country":"us","lat":42.8888889,"lon":-76.4108333},{"id":2989693,"name":"juddville","country":"us","lat":42.8811111,"lon":-75.8330556},{"id":2987635,"name":"brewers corner","country":"us","lat":43.1113889,"lon":-75.5344444},{"id":2987385,"name":"bay shores","country":"us","lat":42.8622222,"lon":-76.2744444},{"id":2987990,"name":"cicero center","country":"us","lat":43.1788889,"lon":-76.0411111},{"id":2989209,"name":"groton","country":"us","lat":42.5877778,"lon":-76.3672222},{"id":2992164,"name":"syracuse","country":"us","lat":43.0480556,"lon":-76.1477778},{"id":2991157,"name":"plymouth","country":"us","lat":42.6169444,"lon":-75.6027778},{"id":2992194,"name":"terpening corners","country":"us","lat":42.5383333,"lon":-76.4930556},{"id":2989823,"name":"lafayette corners","country":"us","lat":42.5933333,"lon":-76.2875},{"id":2988094,"name":"colosse","country":"us","lat":43.4202778,"lon":-76.1591667},{"id":2992423,"name":"verona beach","country":"us","lat":43.1908333,"lon":-75.7294444},{"id":2988167,"name":"cortland","country":"us","lat":42.6011111,"lon":-76.1808333},{"id":2989804,"name":"kraus landing","country":"us","lat":43.1894444,"lon":-76.0238889},{"id":2990239,"name":"mcgraw","country":"us","lat":42.5961111,"lon":-76.0936111},{"id":2990276,"name":"memphis","country":"us","lat":43.0827778,"lon":-76.3775},{"id":2987806,"name":"canastota","country":"us","lat":43.0794444,"lon":-75.7511111},{"id":2988012,"name":"clay","country":"us","lat":43.1858333,"lon":-76.1727778},{"id":2990849,"name":"onativia","country":"us","lat":42.8894444,"lon":-76.0883333},{"id":2988457,"name":"east amboy","country":"us","lat":43.3702778,"lon":-75.9108333},{"id":2989039,"name":"gilbert mills","country":"us","lat":43.3147222,"lon":-76.3094444},{"id":2991876,"name":"south cortland","country":"us","lat":42.5647222,"lon":-76.2225},{"id":2991377,"name":"rice grove","country":"us","lat":42.8513889,"lon":-76.2566667},{"id":2990596,"name":"nichols corners","country":"us","lat":42.9452778,"lon":-76.2258333},{"id":2991375,"name":"rhode island","country":"us","lat":42.6788889,"lon":-75.8},{"id":2987216,"name":"apulia","country":"us","lat":42.8238889,"lon":-76.0538889},{"id":2987252,"name":"asbury","country":"us","lat":42.5266667,"lon":-76.4922222},{"id":2990088,"name":"lyndon","country":"us","lat":43.0291667,"lon":-76.0544444},{"id":2992617,"name":"west eaton","country":"us","lat":42.8544444,"lon":-75.6563889},{"id":2991173,"name":"polkville","country":"us","lat":42.5155556,"lon":-75.5086111},{"id":2988303,"name":"de witt","country":"us","lat":43.0386111,"lon":-76.0733333},{"id":2991696,"name":"shamrock","country":"us","lat":42.9008333,"lon":-76.3619444},{"id":2987644,"name":"bridgeport","country":"us","lat":43.1552778,"lon":-75.9697222},{"id":2987262,"name":"assembly park","country":"us","lat":42.7797222,"lon":-76.1305556},{"id":2988771,"name":"fenner","country":"us","lat":42.9694444,"lon":-75.7872222},{"id":2988305,"name":"dewitt","country":"us","lat":43.035,"lon":-76.0658333},{"id":2991832,"name":"solon","country":"us","lat":42.5969444,"lon":-76.0172222},{"id":2988959,"name":"fulton","country":"us","lat":43.3227778,"lon":-76.4175},{"id":2988083,"name":"collingwood","country":"us","lat":42.8675,"lon":-76.0833333},{"id":2991057,"name":"peruville","country":"us","lat":42.5502778,"lon":-76.3716667},{"id":2992080,"name":"stockbridge","country":"us","lat":42.9911111,"lon":-75.5997222},{"id":2991122,"name":"pitcher hill","country":"us","lat":43.1152778,"lon":-76.1461111},{"id":2988200,"name":"crains mills","country":"us","lat":42.7094444,"lon":-76.0058333},{"id":2988624,"name":"eaton corners","country":"us","lat":43.1375,"lon":-75.8977778},{"id":2988779,"name":"fey mill","country":"us","lat":43.4452778,"lon":-75.545},{"id":2991237,"name":"pratts hollow","country":"us","lat":42.9227778,"lon":-75.6030556},{"id":2989592,"name":"ingalls crossing","country":"us","lat":43.3047222,"lon":-76.3488889},{"id":2992422,"name":"verona","country":"us","lat":43.1380556,"lon":-75.5711111},{"id":2991944,"name":"south spafford","country":"us","lat":42.7794444,"lon":-76.2183333},{"id":2990740,"name":"north scriba","country":"us","lat":43.4886111,"lon":-76.3852778},{"id":2987484,"name":"berwyn","country":"us","lat":42.8661111,"lon":-76.0411111},{"id":2988915,"name":"franklin park","country":"us","lat":43.0825,"lon":-76.0752778},{"id":2991051,"name":"perryville","country":"us","lat":43.0069444,"lon":-75.7997222},{"id":2990654,"name":"north chittenango","country":"us","lat":43.0811111,"lon":-75.8730556},{"id":2989455,"name":"hinmansville","country":"us","lat":43.2477778,"lon":-76.3527778},{"id":2992615,"name":"west dryden","country":"us","lat":42.5169444,"lon":-76.4147222},{"id":2988326,"name":"degroff","country":"us","lat":42.8836111,"lon":-76.4994444},{"id":2990208,"name":"marysville","country":"us","lat":42.9838889,"lon":-76.4494444},{"id":2987556,"name":"blossvale","country":"us","lat":43.2797222,"lon":-75.6438889},{"id":2989995,"name":"little utica","country":"us","lat":43.2161111,"lon":-76.4019444},{"id":2990780,"name":"norwich","country":"us","lat":42.5311111,"lon":-75.5238889},{"id":2990852,"name":"oneida castle","country":"us","lat":43.0825,"lon":-75.6338889},{"id":2987952,"name":"cheningo","country":"us","lat":42.6597222,"lon":-75.9988889},{"id":2989013,"name":"gees corner","country":"us","lat":43.1358333,"lon":-75.8277778},{"id":2988125,"name":"constantia","country":"us","lat":43.2477778,"lon":-76.0005556},{"id":2989258,"name":"halfway","country":"us","lat":43.0252778,"lon":-76.3922222},{"id":2988451,"name":"eagle village","country":"us","lat":43.0130556,"lon":-75.9430556},{"id":2990178,"name":"marcellus falls","country":"us","lat":43.005,"lon":-76.3383333},{"id":2987546,"name":"blodgett mills","country":"us","lat":42.5683333,"lon":-76.1261111},{"id":2988413,"name":"dumbarton","country":"us","lat":43.1622222,"lon":-75.6619444},{"id":2992743,"name":"westview manor","country":"us","lat":43.0438889,"lon":-76.2694444},{"id":2988966,"name":"fyler settlement","country":"us","lat":43.0952778,"lon":-75.9213889},{"id":2991933,"name":"south plymouth","country":"us","lat":42.5813889,"lon":-75.5647222},{"id":2992182,"name":"taylor center","country":"us","lat":42.6138889,"lon":-75.9252778},{"id":2990034,"name":"long crossing","country":"us","lat":43.2241667,"lon":-75.7766667},{"id":2992778,"name":"whitelaw","country":"us","lat":43.1322222,"lon":-75.7911111},{"id":2992219,"name":"thompsons corner","country":"us","lat":43.2883333,"lon":-75.7683333},{"id":2989380,"name":"head corners","country":"us","lat":42.5247222,"lon":-76.4730556},{"id":2989353,"name":"hastings center","country":"us","lat":43.3169444,"lon":-76.1547222},{"id":2990650,"name":"north cazenovia","country":"us","lat":42.9919444,"lon":-75.8705556},{"id":2987858,"name":"catfish corners","country":"us","lat":43.37,"lon":-76.2072222},{"id":2992227,"name":"thornton heights","country":"us","lat":42.88,"lon":-76.4086111},{"id":2990602,"name":"niles","country":"us","lat":42.8375,"lon":-76.4138889},{"id":2990920,"name":"owasco","country":"us","lat":42.855,"lon":-76.4655556},{"id":2990483,"name":"munsons corners","country":"us","lat":42.5822222,"lon":-76.2094444},{"id":2989612,"name":"ironsides","country":"us","lat":42.9208333,"lon":-76.2136111},{"id":2989591,"name":"indian village","country":"us","lat":42.9438889,"lon":-76.1627778},{"id":2990062,"name":"lowell","country":"us","lat":43.1386111,"lon":-75.5011111},{"id":2987980,"name":"chittenango falls","country":"us","lat":42.9783333,"lon":-75.8372222},{"id":2989111,"name":"gracie","country":"us","lat":42.5655556,"lon":-76.2494444},{"id":2992869,"name":"woodland","country":"us","lat":42.8669444,"lon":-76.3661111},{"id":2990051,"name":"loring crossing","country":"us","lat":42.6258333,"lon":-76.1458333},{"id":2990629,"name":"north bay","country":"us","lat":43.23,"lon":-75.7486111},{"id":2990146,"name":"manlius","country":"us","lat":43.0019444,"lon":-75.9772222},{"id":2988220,"name":"cribbs corner","country":"us","lat":43.3772222,"lon":-76.27},{"id":2992224,"name":"thorn hill","country":"us","lat":42.8977778,"lon":-76.3416667},{"id":2990097,"name":"lysander","country":"us","lat":43.2063889,"lon":-76.4594444},{"id":2992072,"name":"stiles","country":"us","lat":43.1138889,"lon":-76.2769444},{"id":2991018,"name":"peat corners","country":"us","lat":43.3383333,"lon":-76.2302778},{"id":2990556,"name":"new london","country":"us","lat":43.2052778,"lon":-75.5880556},{"id":2990455,"name":"mount pleasant","country":"us","lat":43.3869444,"lon":-76.3783333},{"id":2992829,"name":"wilson corners","country":"us","lat":42.7347222,"lon":-76.3936111},{"id":2990478,"name":"mungers corners","country":"us","lat":43.3969444,"lon":-76.2569444},{"id":2991082,"name":"pierceville","country":"us","lat":42.85,"lon":-75.6372222},{"id":2991123,"name":"pitcher springs","country":"us","lat":42.5988889,"lon":-75.8208333},{"id":2988574,"name":"east river","country":"us","lat":42.6477778,"lon":-76.1144444},{"id":2988801,"name":"fish creek landing","country":"us","lat":43.2208333,"lon":-75.7002778},{"id":2989352,"name":"hastings","country":"us","lat":43.3738889,"lon":-76.1527778},{"id":2990868,"name":"oot park","country":"us","lat":43.0644444,"lon":-76.0305556},{"id":2988802,"name":"fish creek station","country":"us","lat":43.1961111,"lon":-75.7133333},{"id":2992123,"name":"summer hill","country":"us","lat":42.6388889,"lon":-76.3261111},{"id":2988433,"name":"dutcherville","country":"us","lat":43.2888889,"lon":-75.9575},{"id":2990726,"name":"north pharsalia","country":"us","lat":42.6083333,"lon":-75.7019444},{"id":2989424,"name":"higginsville","country":"us","lat":43.1769444,"lon":-75.6472222},{"id":2990967,"name":"parish","country":"us","lat":43.4061111,"lon":-76.1261111},{"id":2987339,"name":"baptist corners","country":"us","lat":42.9036111,"lon":-76.4686111},{"id":2989513,"name":"hortontown","country":"us","lat":43.1886111,"lon":-76.3847222},{"id":2988126,"name":"constantia center","country":"us","lat":43.2805556,"lon":-75.9222222},{"id":2990708,"name":"north lansing","country":"us","lat":42.6111111,"lon":-76.4977778},{"id":2991923,"name":"south new haven","country":"us","lat":43.4563889,"lon":-76.3538889},{"id":2989705,"name":"kasoag","country":"us","lat":43.4613889,"lon":-75.9238889},{"id":2991972,"name":"spafford","country":"us","lat":42.8044444,"lon":-76.2652778},{"id":2989097,"name":"goodrich corners","country":"us","lat":43.1486111,"lon":-75.5283333},{"id":2991176,"name":"pompey","country":"us","lat":42.8988889,"lon":-76.0163889},{"id":2990906,"name":"otisco valley","country":"us","lat":42.8286111,"lon":-76.2322222},{"id":2992741,"name":"westvale","country":"us","lat":43.0475,"lon":-76.2208333},{"id":2990949,"name":"palermo","country":"us","lat":43.365,"lon":-76.2827778},{"id":2989691,"name":"joshua","country":"us","lat":42.9158333,"lon":-76.2433333},{"id":2987979,"name":"chittenango","country":"us","lat":43.045,"lon":-75.8669444},{"id":2990045,"name":"loomis hill","country":"us","lat":43.0108333,"lon":-76.2336111},{"id":2989583,"name":"indian cove","country":"us","lat":42.7716667,"lon":-76.4680556},{"id":2990879,"name":"orchard village","country":"us","lat":43.0427778,"lon":-76.2813889},{"id":2987572,"name":"bonney","country":"us","lat":42.7213889,"lon":-75.6713889},{"id":2987991,"name":"cincinnatus","country":"us","lat":42.5422222,"lon":-75.8961111},{"id":2988101,"name":"como","country":"us","lat":42.6733333,"lon":-76.2772222},{"id":2987584,"name":"borodino landing","country":"us","lat":42.8569444,"lon":-76.3533333},{"id":2992022,"name":"stacy basin","country":"us","lat":43.1944444,"lon":-75.6225},{"id":2992489,"name":"wampsville","country":"us","lat":43.0752778,"lon":-75.7072222},{"id":2989191,"name":"gregory landing","country":"us","lat":42.8102778,"lon":-76.3127778},{"id":2988399,"name":"dresserville","country":"us","lat":42.7036111,"lon":-76.3280556},{"id":2988927,"name":"freeman mill","country":"us","lat":43.4608333,"lon":-75.5788889},{"id":2988641,"name":"edgewood garden","country":"us","lat":43.0869444,"lon":-76.2688889},{"id":2991928,"name":"south otselic","country":"us","lat":42.6466667,"lon":-75.7816667},{"id":2990856,"name":"oneida valley","country":"us","lat":43.1544444,"lon":-75.7216667},{"id":2989961,"name":"lincklaen","country":"us","lat":42.6755556,"lon":-75.8772222},{"id":2992424,"name":"verona mills","country":"us","lat":43.1972222,"lon":-75.5591667},{"id":2991121,"name":"pitcher","country":"us","lat":42.5808333,"lon":-75.8652778},{"id":2990510,"name":"nedrow","country":"us","lat":42.975,"lon":-76.1416667},{"id":2988766,"name":"fayetteville","country":"us","lat":43.0297222,"lon":-76.0047222},{"id":2992670,"name":"west monroe","country":"us","lat":43.2808333,"lon":-76.0669444},{"id":2987788,"name":"camillus","country":"us","lat":43.0391667,"lon":-76.3044444},{"id":2992574,"name":"west amboy","country":"us","lat":43.3844444,"lon":-75.9858333},{"id":2989779,"name":"kirkville","country":"us","lat":43.075,"lon":-75.9522222},{"id":2988742,"name":"fairmount","country":"us","lat":43.0472222,"lon":-76.2388889},{"id":2992226,"name":"thornton grove","country":"us","lat":42.8838889,"lon":-76.4088889},{"id":2991852,"name":"south bay","country":"us","lat":43.1566667,"lon":-75.7486111},{"id":2987542,"name":"blennes corner","country":"us","lat":43.3113889,"lon":-75.6813889},{"id":2992028,"name":"stanbro","country":"us","lat":42.6680556,"lon":-75.6936111},{"id":2989911,"name":"lee","country":"us","lat":43.2783333,"lon":-75.5719444},{"id":2991066,"name":"pharsalia","country":"us","lat":42.5827778,"lon":-75.7813889},{"id":2989723,"name":"kelloggsville","country":"us","lat":42.7869444,"lon":-76.3658333},{"id":2987842,"name":"carterville","country":"us","lat":43.3394444,"lon":-75.8930556},{"id":2990860,"name":"onondaga hill","country":"us","lat":43.0047222,"lon":-76.1836111},{"id":2990572,"name":"new woodstock","country":"us","lat":42.8483333,"lon":-75.8547222},{"id":2992451,"name":"volney","country":"us","lat":43.3427778,"lon":-76.3580556},{"id":2989912,"name":"lee center","country":"us","lat":43.3033333,"lon":-75.5183333},{"id":2987498,"name":"big bay","country":"us","lat":43.2461111,"lon":-76.1205556},{"id":2991241,"name":"preble","country":"us","lat":42.7352778,"lon":-76.1486111},{"id":2991588,"name":"sandy bay","country":"us","lat":43.2052778,"lon":-76.0836111},{"id":2990361,"name":"minetto","country":"us","lat":43.3980556,"lon":-76.4777778},{"id":2989271,"name":"hamilton","country":"us","lat":42.8269444,"lon":-75.545},{"id":2988425,"name":"durhamville","country":"us","lat":43.1205556,"lon":-75.6713889},{"id":2989113,"name":"graftons square","country":"us","lat":43.4425,"lon":-76.1511111},{"id":2992298,"name":"truxton","country":"us","lat":42.7119444,"lon":-76.0288889},{"id":2988070,"name":"cold springs","country":"us","lat":43.1327778,"lon":-76.2572222},{"id":2991563,"name":"sala","country":"us","lat":43.4358333,"lon":-76.3313889},{"id":2992631,"name":"west genesee terrace","country":"us","lat":43.0477778,"lon":-76.2608333},{"id":2987890,"name":"cedarvale","country":"us","lat":42.9658333,"lon":-76.2497222},{"id":2990445,"name":"mottville","country":"us","lat":42.9736111,"lon":-76.4427778},{"id":2991584,"name":"sand ridge","country":"us","lat":43.2558333,"lon":-76.2305556},{"id":2989644,"name":"jamesville","country":"us","lat":42.9919444,"lon":-76.0719444},{"id":2987328,"name":"ballina","country":"us","lat":42.8977778,"lon":-75.8475},{"id":2990547,"name":"new haven","country":"us","lat":43.4797222,"lon":-76.3155556},{"id":2991170,"name":"pokeville","country":"us","lat":42.59,"lon":-76.1338889},{"id":2990125,"name":"mallory","country":"us","lat":43.3236111,"lon":-76.1169444},{"id":2990234,"name":"mcconnellsville","country":"us","lat":43.2730556,"lon":-75.6944444},{"id":2991244,"name":"preston","country":"us","lat":42.5338889,"lon":-75.6236111}]});