callback({"markets":[{"id":2437288,"name":"kukushki","country":"ru","lat":57.866667,"lon":51.65},{"id":2542018,"name":"tympal","country":"ru","lat":58.176186,"lon":51.913615},{"id":2430028,"name":"kosonogi","country":"ru","lat":58.316667,"lon":51.566667},{"id":2365606,"name":"azmanovo","country":"ru","lat":58.06974,"lon":51.911282},{"id":2376794,"name":"bolshiye vogultsy","country":"ru","lat":58.053122,"lon":51.637072},{"id":2453854,"name":"malyy venizh","country":"ru","lat":57.880284,"lon":52.497167},{"id":2563174,"name":"yelovo","country":"ru","lat":57.77047,"lon":52.399056},{"id":2565022,"name":"yukamenskoye","country":"ru","lat":57.886542,"lon":52.241574},{"id":2464698,"name":"nagorskoye","country":"ru","lat":57.889964,"lon":51.748776},{"id":2424913,"name":"kochukovo","country":"ru","lat":57.952507,"lon":52.044347},{"id":2365889,"name":"babkino","country":"ru","lat":57.754511,"lon":51.68664},{"id":2412756,"name":"kanakhintsy","country":"ru","lat":57.670843,"lon":51.596174},{"id":2370841,"name":"berdyshi","country":"ru","lat":58.051796,"lon":51.979489},{"id":2458912,"name":"mikhiyenki","country":"ru","lat":58.276742,"lon":51.677655},{"id":2561322,"name":"yarovyye","country":"ru","lat":58.404576,"lon":51.698884},{"id":2384161,"name":"chatchagurt","country":"ru","lat":58.029786,"lon":51.900829},{"id":2546227,"name":"ust-lekomskaya","country":"ru","lat":58.313314,"lon":52.057099},{"id":2389574,"name":"deby","country":"ru","lat":57.825688,"lon":52.493131},{"id":2540835,"name":"tulegovo","country":"ru","lat":58.416667,"lon":51.833333},{"id":2376278,"name":"bolshiye glabany","country":"ru","lat":57.916667,"lon":51.616667},{"id":2413894,"name":"karavayevskaya","country":"ru","lat":58.361467,"lon":52.168361},{"id":2370484,"name":"belyanovo","country":"ru","lat":57.982113,"lon":52.095747},{"id":2561411,"name":"yar","country":"ru","lat":58.24898,"lon":52.102576},{"id":2490782,"name":"pochinok nizhneukamskiy","country":"ru","lat":58.100574,"lon":51.893175},{"id":2397418,"name":"fokino","country":"ru","lat":58.088459,"lon":51.856155},{"id":2490763,"name":"pochinok-kachinskiy","country":"ru","lat":58.211437,"lon":51.937207},{"id":2362831,"name":"antonovtsy","country":"ru","lat":57.651651,"lon":51.511192},{"id":2445192,"name":"lipovo","country":"ru","lat":58.0,"lon":51.6},{"id":2564863,"name":"yudchino","country":"ru","lat":58.242797,"lon":51.957333},{"id":2453805,"name":"malyy tanan","country":"ru","lat":57.65,"lon":51.683333},{"id":2367735,"name":"barmintsy","country":"ru","lat":58.198112,"lon":51.665374},{"id":2378542,"name":"bolshoy zhuvam","country":"ru","lat":57.821597,"lon":52.33391},{"id":2533852,"name":"tashevo","country":"ru","lat":58.04031,"lon":51.85615},{"id":2367368,"name":"baranniki","country":"ru","lat":58.25,"lon":51.566667},{"id":2553026,"name":"verkhosadintsy","country":"ru","lat":57.95,"lon":51.9},{"id":2382640,"name":"butino","country":"ru","lat":57.883333,"lon":51.733333},{"id":2406285,"name":"ignatyevtsy","country":"ru","lat":57.533333,"lon":51.65},{"id":2573570,"name":"zyino","country":"ru","lat":58.192442,"lon":51.788854},{"id":2416618,"name":"keldyki","country":"ru","lat":57.966371,"lon":52.002966},{"id":2383521,"name":"chabyrovskaya","country":"ru","lat":58.26236,"lon":52.26536},{"id":2430312,"name":"kostromka","country":"ru","lat":58.352368,"lon":51.998238},{"id":2515758,"name":"shipkany","country":"ru","lat":58.173238,"lon":51.595103},{"id":2390990,"name":"dizmino","country":"ru","lat":58.216727,"lon":52.146133},{"id":2389573,"name":"deby","country":"ru","lat":57.766667,"lon":51.716667},{"id":2571957,"name":"zilay","country":"ru","lat":57.929426,"lon":52.102152},{"id":2470333,"name":"nizhnyaya pazhma","country":"ru","lat":57.96066,"lon":52.163174},{"id":2505007,"name":"russkiy survay","country":"ru","lat":57.833328,"lon":51.518645},{"id":2447634,"name":"lumpa","country":"ru","lat":58.259868,"lon":51.813033},{"id":2555807,"name":"volodino","country":"ru","lat":58.267989,"lon":51.864277},{"id":2376223,"name":"bolshiye bulatovtsy","country":"ru","lat":57.596824,"lon":51.634355},{"id":2508247,"name":"sardyk","country":"ru","lat":57.639175,"lon":51.530042},{"id":2546543,"name":"ust-syumsi","country":"ru","lat":57.516621,"lon":51.804183},{"id":2454014,"name":"mamonovo","country":"ru","lat":57.883333,"lon":51.883333},{"id":2565300,"name":"yunysenki","country":"ru","lat":58.076542,"lon":51.872212},{"id":2556841,"name":"vortsy","country":"ru","lat":58.103939,"lon":52.151516},{"id":2542396,"name":"tyuriki","country":"ru","lat":58.157206,"lon":51.780258},{"id":2542761,"name":"udino","country":"ru","lat":58.045753,"lon":51.900525},{"id":2538850,"name":"trishino","country":"ru","lat":57.958551,"lon":51.950265},{"id":2368681,"name":"baydalino","country":"ru","lat":58.165156,"lon":52.222736},{"id":2564345,"name":"yeshmakovo","country":"ru","lat":57.889395,"lon":52.175369},{"id":2375952,"name":"bolshe-malagovskaya","country":"ru","lat":58.397899,"lon":52.17067},{"id":2551625,"name":"verkhniye uni","country":"ru","lat":57.810956,"lon":52.095682},{"id":2468334,"name":"nizevo","country":"ru","lat":58.456467,"lon":51.574012},{"id":2484334,"name":"panshonki","country":"ru","lat":57.924398,"lon":51.52972},{"id":2366170,"name":"bagzi","country":"ru","lat":57.866667,"lon":51.716667},{"id":2443059,"name":"lekovay","country":"ru","lat":58.356645,"lon":52.224202},{"id":2498561,"name":"pudem","country":"ru","lat":58.304399,"lon":52.167539},{"id":2460816,"name":"mokrushata","country":"ru","lat":57.783914,"lon":51.892882},{"id":2527332,"name":"staryy kachkashur","country":"ru","lat":57.771301,"lon":52.487956},{"id":2442030,"name":"laptevshino","country":"ru","lat":57.5,"lon":52.183333},{"id":2386694,"name":"chetveriki","country":"ru","lat":57.683333,"lon":51.583333},{"id":2439639,"name":"kushmanskaya","country":"ru","lat":58.229244,"lon":52.328378},{"id":2444588,"name":"lezino","country":"ru","lat":58.147783,"lon":52.273761},{"id":2376127,"name":"bolshe-votskiye","country":"ru","lat":57.566667,"lon":51.916667},{"id":2388283,"name":"churikha","country":"ru","lat":57.816667,"lon":52.15},{"id":2570132,"name":"zhaba","country":"ru","lat":58.1775,"lon":52.354722},{"id":2439464,"name":"kurya","country":"ru","lat":57.709826,"lon":52.07033},{"id":2512291,"name":"shafeyeva","country":"ru","lat":57.837878,"lon":52.139289},{"id":2548885,"name":"vasilyevskoye","country":"ru","lat":57.721305,"lon":52.299714},{"id":2366009,"name":"bachumovo","country":"ru","lat":58.276552,"lon":51.91769},{"id":2564827,"name":"yuberki","country":"ru","lat":58.274542,"lon":51.97718},{"id":2428567,"name":"kormishon","country":"ru","lat":58.163335,"lon":51.504902},{"id":2476031,"name":"novoye kychino","country":"ru","lat":57.734809,"lon":52.45918},{"id":2389811,"name":"demaki","country":"ru","lat":58.430946,"lon":51.678266},{"id":2429157,"name":"korovkintsy","country":"ru","lat":57.670255,"lon":52.355588},{"id":2506366,"name":"sada","country":"ru","lat":58.286478,"lon":51.823579},{"id":2440999,"name":"kychinovskaya","country":"ru","lat":58.058982,"lon":52.179879},{"id":2378370,"name":"bolshoy seleg","country":"ru","lat":57.659595,"lon":51.925088},{"id":2532262,"name":"syurny","country":"ru","lat":58.116667,"lon":51.766667},{"id":2453169,"name":"malyye klyuchi","country":"ru","lat":58.052131,"lon":52.39535},{"id":2552995,"name":"verkholemye","country":"ru","lat":57.792864,"lon":51.860781},{"id":2391998,"name":"doma 1109 km","country":"ru","lat":58.3007,"lon":51.8377},{"id":2559954,"name":"yagoshurskiy","country":"ru","lat":58.383333,"lon":52.233333},{"id":2373524,"name":"bobyli","country":"ru","lat":58.376375,"lon":51.741007},{"id":2541020,"name":"tumskaya","country":"ru","lat":58.31047,"lon":52.318447},{"id":2519008,"name":"sizovo","country":"ru","lat":58.185138,"lon":51.946405},{"id":2425100,"name":"kokmanskiy","country":"ru","lat":57.574094,"lon":52.372647},{"id":2358662,"name":"afonintsy","country":"ru","lat":57.583333,"lon":51.85},{"id":2462130,"name":"moshni","country":"ru","lat":58.336297,"lon":51.631113},{"id":2383999,"name":"charushi","country":"ru","lat":57.933354,"lon":51.568337},{"id":2395797,"name":"ertem","country":"ru","lat":57.887833,"lon":52.059205},{"id":2516942,"name":"shtiny","country":"ru","lat":57.85,"lon":51.6},{"id":2512450,"name":"shakhrovo","country":"ru","lat":57.709729,"lon":52.323504},{"id":2573533,"name":"zyankino","country":"ru","lat":57.834,"lon":51.944999},{"id":2517178,"name":"shulegovskaya","country":"ru","lat":58.407389,"lon":52.054761},{"id":2463042,"name":"mulyany","country":"ru","lat":57.892602,"lon":51.593297},{"id":2419609,"name":"khomyaki","country":"ru","lat":57.769026,"lon":51.609519},{"id":2440541,"name":"kuzminskaya","country":"ru","lat":58.372464,"lon":52.094029},{"id":2483737,"name":"palagay","country":"ru","lat":57.952707,"lon":52.360388},{"id":2504842,"name":"russkaya sada","country":"ru","lat":58.285104,"lon":51.804986},{"id":2389168,"name":"danki","country":"ru","lat":57.6,"lon":51.566667},{"id":2357881,"name":"abashevo","country":"ru","lat":57.990682,"lon":52.136846},{"id":2512708,"name":"shamardan","country":"ru","lat":58.015783,"lon":52.143416},{"id":2388377,"name":"churovtsy","country":"ru","lat":57.933333,"lon":51.783333},{"id":2461991,"name":"moseyevo","country":"ru","lat":58.190051,"lon":52.25002},{"id":2547143,"name":"ut","country":"ru","lat":57.700363,"lon":51.759964},{"id":2429733,"name":"koshkali","country":"ru","lat":58.1,"lon":51.65},{"id":2540792,"name":"tuktash","country":"ru","lat":57.793526,"lon":52.496191},{"id":2542778,"name":"udmurtskiye klyuchi","country":"ru","lat":58.041542,"lon":52.464929},{"id":2390982,"name":"diyenki","country":"ru","lat":58.342904,"lon":51.633945},{"id":2541687,"name":"tutayeva zarya","country":"ru","lat":57.92159,"lon":52.407645},{"id":2417901,"name":"kharitonovtsy","country":"ru","lat":58.062266,"lon":51.829125},{"id":2446377,"name":"lopatino","country":"ru","lat":57.85,"lon":51.933333},{"id":2448956,"name":"lyum","country":"ru","lat":58.250988,"lon":52.464764},{"id":2568633,"name":"zasekovo","country":"ru","lat":57.853236,"lon":52.431881},{"id":2490137,"name":"pleso","country":"ru","lat":58.412318,"lon":51.522748},{"id":2364177,"name":"artyk","country":"ru","lat":57.726662,"lon":52.359185},{"id":2477554,"name":"novyy put","country":"ru","lat":58.154411,"lon":51.742638},{"id":2518588,"name":"sintsy","country":"ru","lat":57.583333,"lon":51.5},{"id":2567146,"name":"zakharovtsy","country":"ru","lat":57.533333,"lon":51.666667},{"id":2531889,"name":"sychi","country":"ru","lat":58.433333,"lon":51.8},{"id":2424049,"name":"klyuchi tatarskiye","country":"ru","lat":57.983124,"lon":52.254744},{"id":2532782,"name":"talitsa","country":"ru","lat":58.016025,"lon":51.511177},{"id":2368641,"name":"bayaran","country":"ru","lat":58.289229,"lon":52.32959},{"id":2473665,"name":"novolekomskiy","country":"ru","lat":58.197863,"lon":51.721783},{"id":2389931,"name":"demidovtsy","country":"ru","lat":57.75,"lon":52.266667},{"id":2426506,"name":"komarovo","country":"ru","lat":58.270253,"lon":52.374907},{"id":2470379,"name":"nizhnyaya sada","country":"ru","lat":58.295684,"lon":51.821035},{"id":2438766,"name":"kureyka","country":"ru","lat":58.384787,"lon":51.570722},{"id":2401671,"name":"gord-yar","country":"ru","lat":58.20906,"lon":52.420578},{"id":2488723,"name":"petrunenki","country":"ru","lat":58.139362,"lon":51.506855},{"id":2391999,"name":"doma 1113 km","country":"ru","lat":58.2889,"lon":51.9374},{"id":2494405,"name":"poptsy","country":"ru","lat":57.683333,"lon":51.7},{"id":2367498,"name":"barany","country":"ru","lat":57.630922,"lon":52.248286},{"id":2490829,"name":"pochinok yelovskiy","country":"ru","lat":58.144467,"lon":51.911743},{"id":2377766,"name":"bolshoye simonovo","country":"ru","lat":57.797202,"lon":51.954333},{"id":2545253,"name":"ushaki","country":"ru","lat":58.384574,"lon":51.723938},{"id":2565945,"name":"yusovo","country":"ru","lat":58.325039,"lon":51.693079},{"id":2453368,"name":"malyye shabaly","country":"ru","lat":57.837461,"lon":51.722018},{"id":2378327,"name":"bolshoy polom","country":"ru","lat":57.741734,"lon":51.961784},{"id":2500561,"name":"ramentsy","country":"ru","lat":57.70602,"lon":51.90621},{"id":2401456,"name":"gorbashi","country":"ru","lat":58.312538,"lon":52.468111},{"id":2376254,"name":"bolshiye chuvashi","country":"ru","lat":57.678375,"lon":51.971447},{"id":2493190,"name":"polomskaya","country":"ru","lat":58.35,"lon":52.05},{"id":2444256,"name":"levanovo","country":"ru","lat":58.296194,"lon":51.587034},{"id":2367077,"name":"baly","country":"ru","lat":58.0724,"lon":52.309097},{"id":2428796,"name":"korobyata","country":"ru","lat":57.65,"lon":52.3},{"id":2449966,"name":"makushi","country":"ru","lat":57.95,"lon":51.716667},{"id":2453049,"name":"malyye bulatovtsy","country":"ru","lat":57.566667,"lon":51.616667},{"id":2381422,"name":"bukhta","country":"ru","lat":57.700552,"lon":51.985124},{"id":2542775,"name":"udmurtskaya sada","country":"ru","lat":58.244436,"lon":51.78754},{"id":2368389,"name":"batashi","country":"ru","lat":58.35,"lon":51.5},{"id":2439830,"name":"kutayenki","country":"ru","lat":58.097415,"lon":51.782628},{"id":2546226,"name":"ust-lekma","country":"ru","lat":57.848778,"lon":52.102179},{"id":2383120,"name":"byki","country":"ru","lat":57.55,"lon":51.7},{"id":2404995,"name":"gulekovo","country":"ru","lat":57.999283,"lon":52.447825},{"id":2414288,"name":"karkashur","country":"ru","lat":57.766667,"lon":52.183333},{"id":2502058,"name":"repintsy","country":"ru","lat":58.37048,"lon":51.501445},{"id":2517825,"name":"sibirskiy","country":"ru","lat":58.216667,"lon":51.85},{"id":2514992,"name":"shestoperovo","country":"ru","lat":58.077991,"lon":51.940725},{"id":2553935,"name":"vezheyevo","country":"ru","lat":57.881503,"lon":52.251961},{"id":2555226,"name":"vogay","country":"ru","lat":57.9,"lon":51.65},{"id":2464820,"name":"nakhrino","country":"ru","lat":57.755512,"lon":52.476544},{"id":2445943,"name":"logoshur","country":"ru","lat":58.074703,"lon":52.067618},{"id":2505400,"name":"ryakintsy","country":"ru","lat":58.441807,"lon":51.616015},{"id":2377407,"name":"bolshoye lukoshino","country":"ru","lat":57.616667,"lon":52.033333},{"id":2516592,"name":"shobokovo","country":"ru","lat":58.258213,"lon":51.987505},{"id":2435330,"name":"krivtsy","country":"ru","lat":58.466667,"lon":51.666667},{"id":2553118,"name":"verkhovyatskoye","country":"ru","lat":58.333333,"lon":52.466667},{"id":2449387,"name":"makarovshchina","country":"ru","lat":58.467049,"lon":51.728999},{"id":2392463,"name":"doronino","country":"ru","lat":57.827334,"lon":52.070051},{"id":2408915,"name":"istoshur","country":"ru","lat":57.930605,"lon":51.994469},{"id":2396736,"name":"feklistovskaya","country":"ru","lat":58.383333,"lon":52.066667},{"id":2407915,"name":"inosvety","country":"ru","lat":57.733333,"lon":51.55},{"id":2383983,"name":"charlanovo","country":"ru","lat":58.079564,"lon":51.931372},{"id":2481630,"name":"osipintsy","country":"ru","lat":57.67783,"lon":52.215944},{"id":2360610,"name":"alesandrovtsy","country":"ru","lat":57.75,"lon":51.866667},{"id":2542579,"name":"uchastok cheptsa","country":"ru","lat":58.392552,"lon":51.624263},{"id":2378326,"name":"bolshoy polom","country":"ru","lat":58.366667,"lon":51.6},{"id":2531892,"name":"sychi","country":"ru","lat":57.612201,"lon":51.878576},{"id":2376866,"name":"bolshoy apevay","country":"ru","lat":58.40097,"lon":51.988494},{"id":2533746,"name":"tarsaki","country":"ru","lat":57.825393,"lon":52.000001},{"id":2467489,"name":"nikolayevo","country":"ru","lat":58.401682,"lon":51.754595},{"id":2544475,"name":"uray","country":"ru","lat":57.798796,"lon":51.567129},{"id":2396089,"name":"falenki","country":"ru","lat":58.361272,"lon":51.594613},{"id":2413787,"name":"karatay","country":"ru","lat":57.983333,"lon":51.5},{"id":2505191,"name":"ryaba","country":"ru","lat":58.0949,"lon":51.768},{"id":2380138,"name":"bozino","country":"ru","lat":58.396111,"lon":52.089167},{"id":2531793,"name":"syanino","country":"ru","lat":58.122744,"lon":52.402653},{"id":2366701,"name":"balakhni","country":"ru","lat":58.049762,"lon":51.683067},{"id":2413698,"name":"karasevo","country":"ru","lat":58.158842,"lon":52.37116},{"id":2385333,"name":"cherkadtsy","country":"ru","lat":58.161521,"lon":51.894474},{"id":2482188,"name":"ostrovskoye","country":"ru","lat":58.45,"lon":51.633333},{"id":2459006,"name":"mikshi","country":"ru","lat":58.142368,"lon":51.606547},{"id":2557674,"name":"vozzheya","country":"ru","lat":57.633333,"lon":51.533333},{"id":2412477,"name":"kamki","country":"ru","lat":57.811692,"lon":52.215388},{"id":2391297,"name":"dobrin","country":"ru","lat":58.1,"lon":52.05},{"id":2546229,"name":"ust-lemskiy","country":"ru","lat":58.044846,"lon":52.200299},{"id":2531690,"name":"svyatitsa","country":"ru","lat":58.196786,"lon":51.584706},{"id":2416079,"name":"kazakovo","country":"ru","lat":58.305329,"lon":52.263763},{"id":2557673,"name":"vozzhay","country":"ru","lat":58.379219,"lon":51.507829},{"id":2490743,"name":"pochinochnaya","country":"ru","lat":57.954438,"lon":52.267384},{"id":2438981,"name":"kurka","country":"ru","lat":58.079214,"lon":52.457385},{"id":2436675,"name":"kuchino","country":"ru","lat":58.22229,"lon":52.02112},{"id":2538532,"name":"trekhi","country":"ru","lat":58.183333,"lon":51.516667},{"id":2543145,"name":"ukan","country":"ru","lat":58.164005,"lon":52.046318},{"id":2394861,"name":"dyubyata","country":"ru","lat":57.7,"lon":51.883333},{"id":2571567,"name":"zhuki","country":"ru","lat":57.861749,"lon":52.314078},{"id":2392000,"name":"doma 1116 km","country":"ru","lat":58.2881,"lon":51.9547},{"id":2552522,"name":"verkhnyaya kuzma","country":"ru","lat":58.101048,"lon":52.378193},{"id":2438984,"name":"kurkan","country":"ru","lat":57.915179,"lon":52.305239},{"id":2445958,"name":"logovo","country":"ru","lat":57.65,"lon":52.233333},{"id":2541132,"name":"tupalud","country":"ru","lat":58.19102,"lon":51.96865},{"id":2452991,"name":"malyy dasos","country":"ru","lat":57.876209,"lon":52.403827},{"id":2522049,"name":"solshur","country":"ru","lat":57.916667,"lon":52.2},{"id":2499868,"name":"pyshket","country":"ru","lat":57.900532,"lon":51.953757},{"id":2501215,"name":"ray","country":"ru","lat":57.75,"lon":52.166667},{"id":2547762,"name":"valamazskiy","country":"ru","lat":57.546351,"lon":52.09517},{"id":2565875,"name":"yur","country":"ru","lat":58.13668,"lon":51.876948},{"id":2366047,"name":"badera","country":"ru","lat":57.888418,"lon":52.393008},{"id":2394345,"name":"dusykovo","country":"ru","lat":58.074894,"lon":52.026332},{"id":2541725,"name":"tutuyevo","country":"ru","lat":57.803361,"lon":52.380375},{"id":2541585,"name":"turuntsy","country":"ru","lat":58.011029,"lon":51.7007},{"id":2483279,"name":"ozerskaya","country":"ru","lat":58.248001,"lon":52.201244},{"id":2487963,"name":"pesten","country":"ru","lat":58.033333,"lon":51.516667},{"id":2463540,"name":"musikhi","country":"ru","lat":57.73168,"lon":51.664828},{"id":2444258,"name":"levany","country":"ru","lat":58.391979,"lon":51.503581},{"id":2413343,"name":"karachi","country":"ru","lat":57.666667,"lon":51.766667},{"id":2453987,"name":"mamleyevo","country":"ru","lat":57.933333,"lon":52.216667},{"id":2542787,"name":"udmurtskiy syrvay","country":"ru","lat":57.823085,"lon":51.589523},{"id":2497759,"name":"promeledy","country":"ru","lat":57.916667,"lon":51.633333},{"id":2553504,"name":"veselki","country":"ru","lat":58.384671,"lon":51.754628},{"id":2448233,"name":"lyalino","country":"ru","lat":57.828507,"lon":52.223327},{"id":2476416,"name":"novoye yelovo","country":"ru","lat":58.0,"lon":52.1}]});