callback({"markets":[{"id":966210,"name":"repaix","country":"fr","lat":48.607933,"lon":6.831843},{"id":981588,"name":"vilsberg","country":"fr","lat":48.786808,"lon":7.254458},{"id":747542,"name":"heusweiler","country":"de","lat":49.35,"lon":6.933333},{"id":745283,"name":"hargarten","country":"de","lat":49.45,"lon":6.733333},{"id":919815,"name":"bathelemont","country":"fr","lat":48.691807,"lon":6.525423},{"id":937469,"name":"grening","country":"fr","lat":48.972946,"lon":6.840683},{"id":778319,"name":"schonbach","country":"de","lat":49.2,"lon":7.016667},{"id":751072,"name":"jabach","country":"de","lat":49.4,"lon":6.9},{"id":940046,"name":"kerbach","country":"fr","lat":49.166273,"lon":6.96744},{"id":931940,"name":"domevre-sur-vezouze","country":"fr","lat":48.561226,"lon":6.806473},{"id":978689,"name":"vahl","country":"fr","lat":48.914386,"lon":6.788627},{"id":772556,"name":"quirnbach","country":"de","lat":49.466667,"lon":7.416667},{"id":749422,"name":"homburg","country":"de","lat":49.316667,"lon":7.333333},{"id":982141,"name":"waldhausen","country":"fr","lat":49.143694,"lon":7.465591},{"id":791964,"name":"wustweiler","country":"de","lat":49.4,"lon":7.033333},{"id":727422,"name":"bethingen","country":"de","lat":49.466667,"lon":6.533333},{"id":938211,"name":"harreberg","country":"fr","lat":48.664379,"lon":7.171305},{"id":940546,"name":"kohlhutt","country":"fr","lat":48.941377,"lon":7.38924},{"id":956967,"name":"metzing","country":"fr","lat":49.105605,"lon":6.958226},{"id":933786,"name":"falck","country":"fr","lat":49.231336,"lon":6.63497},{"id":960162,"name":"neufmoulins","country":"fr","lat":48.681219,"lon":6.966573},{"id":931652,"name":"desseling","country":"fr","lat":48.783508,"lon":6.845657},{"id":975737,"name":"sionviller","country":"fr","lat":48.633712,"lon":6.532339},{"id":726468,"name":"beckingen","country":"de","lat":49.4,"lon":6.7},{"id":978553,"name":"urmatt","country":"fr","lat":48.527474,"lon":7.322249},{"id":774329,"name":"riedelberg","country":"de","lat":49.183333,"lon":7.45},{"id":982213,"name":"wasselonne","country":"fr","lat":48.637226,"lon":7.447306},{"id":776075,"name":"russhutte","country":"de","lat":49.266667,"lon":6.983333},{"id":974928,"name":"schwenheim","country":"fr","lat":48.713044,"lon":7.412231},{"id":723781,"name":"altheim","country":"de","lat":49.166667,"lon":7.316667},{"id":937718,"name":"guebestroff","country":"fr","lat":48.831902,"lon":6.719464},{"id":976438,"name":"suisse","country":"fr","lat":48.966478,"lon":6.579467},{"id":744269,"name":"habach","country":"de","lat":49.383333,"lon":6.95},{"id":786209,"name":"urweiler","country":"de","lat":49.483333,"lon":7.183333},{"id":976053,"name":"sotzeling","country":"fr","lat":48.862348,"lon":6.635663},{"id":935791,"name":"furchhausen","country":"fr","lat":48.718182,"lon":7.438779},{"id":743265,"name":"grossrosseln","country":"de","lat":49.2,"lon":6.85},{"id":966905,"name":"rohrbach-les-bitche","country":"fr","lat":49.045161,"lon":7.265876},{"id":933163,"name":"eschbourg","country":"fr","lat":48.813438,"lon":7.296355},{"id":953793,"name":"lorentzen","country":"fr","lat":48.952819,"lon":7.173243},{"id":925104,"name":"cappel","country":"fr","lat":49.073998,"lon":6.849668},{"id":961009,"name":"obergailbach","country":"fr","lat":49.117262,"lon":7.218556},{"id":954750,"name":"maizieres-les-vic","country":"fr","lat":48.719852,"lon":6.777596},{"id":916813,"name":"alsting","country":"fr","lat":49.18152,"lon":6.993968},{"id":966447,"name":"richeling","country":"fr","lat":49.028763,"lon":6.962127},{"id":927423,"name":"chateau-rouge","country":"fr","lat":49.280119,"lon":6.596546},{"id":921277,"name":"betting","country":"fr","lat":49.125261,"lon":6.816181},{"id":726388,"name":"beaumarais","country":"de","lat":49.3,"lon":6.716667},{"id":964231,"name":"porcelette","country":"fr","lat":49.155377,"lon":6.658101},{"id":937648,"name":"gros-rederching","country":"fr","lat":49.067866,"lon":7.218892},{"id":779756,"name":"sengscheid","country":"de","lat":49.25,"lon":7.1},{"id":974922,"name":"schwartzbach","country":"fr","lat":48.502863,"lon":7.285051},{"id":766698,"name":"niederwurzbach","country":"de","lat":49.25,"lon":7.2},{"id":937789,"name":"guerstling","country":"fr","lat":49.326659,"lon":6.577244},{"id":937797,"name":"guessling","country":"fr","lat":49.023878,"lon":6.657418},{"id":755998,"name":"kramershauschen","country":"de","lat":49.25,"lon":7.0},{"id":982545,"name":"zollingen","country":"fr","lat":48.910865,"lon":7.07699},{"id":937775,"name":"guermange","country":"fr","lat":48.795323,"lon":6.811644},{"id":939216,"name":"imbsheim","country":"fr","lat":48.802025,"lon":7.453393},{"id":775942,"name":"rummelbach","country":"de","lat":49.433333,"lon":6.9},{"id":976973,"name":"teterchen","country":"fr","lat":49.230985,"lon":6.560433},{"id":938217,"name":"harskirchen","country":"fr","lat":48.933849,"lon":7.037091},{"id":960024,"name":"nebing","country":"fr","lat":48.904247,"lon":6.808548},{"id":787741,"name":"waldmohr","country":"de","lat":49.383333,"lon":7.333333},{"id":736629,"name":"eppelborn","country":"de","lat":49.4,"lon":6.966667},{"id":982295,"name":"wildenguth","country":"fr","lat":48.940164,"lon":7.443324},{"id":940499,"name":"keskastel","country":"fr","lat":48.967244,"lon":7.042716},{"id":924503,"name":"bust","country":"fr","lat":48.828699,"lon":7.23632},{"id":978819,"name":"val-et-chatillon","country":"fr","lat":48.558104,"lon":6.965326},{"id":966454,"name":"riche","country":"fr","lat":48.889421,"lon":6.627875},{"id":736005,"name":"ellerhof","country":"de","lat":49.45,"lon":6.666667},{"id":933169,"name":"eschwiller","country":"fr","lat":48.860122,"lon":7.115241},{"id":982049,"name":"voyer","country":"fr","lat":48.652459,"lon":7.075858},{"id":960421,"name":"niederhost","country":"fr","lat":49.066667,"lon":6.883333},{"id":939959,"name":"juvrecourt","country":"fr","lat":48.743882,"lon":6.561936},{"id":774536,"name":"rimlingen","country":"de","lat":49.483333,"lon":6.733333},{"id":938881,"name":"hombourg-bas","country":"fr","lat":49.129862,"lon":6.790339},{"id":726487,"name":"bedersdorf","country":"de","lat":49.3,"lon":6.633333},{"id":953013,"name":"liederschiedt","country":"fr","lat":49.122137,"lon":7.496706},{"id":936813,"name":"gosselming","country":"fr","lat":48.791673,"lon":7.00113},{"id":776683,"name":"sankt wendel","country":"de","lat":49.466667,"lon":7.166667},{"id":976376,"name":"still","country":"fr","lat":48.549796,"lon":7.402742},{"id":977876,"name":"traenheim","country":"fr","lat":48.594689,"lon":7.464965},{"id":931752,"name":"diesen","country":"fr","lat":49.178002,"lon":6.680348},{"id":920747,"name":"benamenil","country":"fr","lat":48.570968,"lon":6.668016},{"id":735619,"name":"eimersdorf","country":"de","lat":49.383333,"lon":6.65},{"id":938546,"name":"henamenil","country":"fr","lat":48.67084,"lon":6.558868},{"id":940524,"name":"kleingoeft","country":"fr","lat":48.690466,"lon":7.44305},{"id":933913,"name":"faulquemont","country":"fr","lat":49.047107,"lon":6.603136},{"id":918941,"name":"avricourt","country":"fr","lat":48.653003,"lon":6.809279},{"id":974930,"name":"schweyen","country":"fr","lat":49.159214,"lon":7.389245},{"id":936756,"name":"gondrexon","country":"fr","lat":48.605224,"lon":6.771224},{"id":761236,"name":"marpingen","country":"de","lat":49.45,"lon":7.05},{"id":938658,"name":"hermelange","country":"fr","lat":48.679227,"lon":7.013797},{"id":938539,"name":"hemilly","country":"fr","lat":49.062078,"lon":6.501598},{"id":760846,"name":"mangelhausen","country":"de","lat":49.366667,"lon":6.983333},{"id":730324,"name":"bruchmuhlbach-miesau","country":"de","lat":49.383333,"lon":7.433333},{"id":933591,"name":"etting","country":"fr","lat":49.030652,"lon":7.179278},{"id":736124,"name":"elschbach","country":"de","lat":49.416667,"lon":7.433333},{"id":956948,"name":"metairies","country":"fr","lat":48.638955,"lon":7.030499},{"id":755954,"name":"krahenberg","country":"de","lat":49.333333,"lon":7.466667},{"id":762550,"name":"mittelbach","country":"de","lat":49.216667,"lon":7.333333},{"id":937958,"name":"guntzviller","country":"fr","lat":48.709725,"lon":7.160458},{"id":965835,"name":"raon-les-leau","country":"fr","lat":48.512763,"lon":7.099365},{"id":923196,"name":"boussewiller","country":"fr","lat":49.120819,"lon":7.465833},{"id":737863,"name":"fenne","country":"de","lat":49.25,"lon":6.883333},{"id":964415,"name":"postroff","country":"fr","lat":48.850892,"lon":7.078178},{"id":937755,"name":"guenviller","country":"fr","lat":49.106923,"lon":6.800773},{"id":769460,"name":"offweilerhof","country":"de","lat":49.216667,"lon":7.416667},{"id":742319,"name":"griesborn","country":"de","lat":49.3,"lon":6.8},{"id":778110,"name":"schnappach","country":"de","lat":49.3,"lon":7.083333},{"id":779672,"name":"sellerbach","country":"de","lat":49.3,"lon":6.9},{"id":755090,"name":"kohlhof","country":"de","lat":49.316667,"lon":7.25},{"id":737850,"name":"felsberg","country":"de","lat":49.3,"lon":6.7},{"id":773490,"name":"rehweiler","country":"de","lat":49.483333,"lon":7.433333},{"id":761553,"name":"mechern","country":"de","lat":49.416667,"lon":6.633333},{"id":940376,"name":"kerprich-les-dieuze","country":"fr","lat":48.822751,"lon":6.703101},{"id":959675,"name":"mulcey","country":"fr","lat":48.801597,"lon":6.663351},{"id":967225,"name":"rosteig","country":"fr","lat":48.932083,"lon":7.339415},{"id":938505,"name":"heining-les-bouzonville","country":"fr","lat":49.310708,"lon":6.589771},{"id":924061,"name":"brouderdorff","country":"fr","lat":48.698282,"lon":7.098463},{"id":916265,"name":"abreschviller","country":"fr","lat":48.63647,"lon":7.094662},{"id":966456,"name":"richeval","country":"fr","lat":48.635727,"lon":6.911155},{"id":776567,"name":"sankt arnual","country":"de","lat":49.216667,"lon":7.0},{"id":938109,"name":"hampont","country":"fr","lat":48.835858,"lon":6.579329},{"id":935467,"name":"fremonville","country":"fr","lat":48.595482,"lon":6.88836},{"id":730003,"name":"brenschelbach","country":"de","lat":49.15,"lon":7.333333},{"id":976078,"name":"soucht","country":"fr","lat":48.958876,"lon":7.334875},{"id":789143,"name":"wemmetsweiler","country":"de","lat":49.366667,"lon":7.083333},{"id":727768,"name":"biesingen","country":"de","lat":49.216667,"lon":7.2},{"id":726394,"name":"bebelsheim","country":"de","lat":49.166667,"lon":7.166667},{"id":727472,"name":"bettstadt","country":"de","lat":49.383333,"lon":6.816667},{"id":962142,"name":"parux","country":"fr","lat":48.538163,"lon":6.921775},{"id":754858,"name":"knausholz","country":"de","lat":49.3,"lon":6.85},{"id":965867,"name":"ratzwiller","country":"fr","lat":48.955353,"lon":7.240415},{"id":931470,"name":"dannelbourg","country":"fr","lat":48.742237,"lon":7.23509},{"id":778351,"name":"schonbruch","country":"de","lat":49.316667,"lon":6.716667},{"id":961613,"name":"otterstahl","country":"fr","lat":48.752606,"lon":7.35164},{"id":967215,"name":"rossbruck","country":"fr","lat":49.158634,"lon":6.849847},{"id":778865,"name":"schwalbach","country":"de","lat":49.3,"lon":6.816667},{"id":791000,"name":"wittersheim","country":"de","lat":49.183333,"lon":7.166667},{"id":738666,"name":"fraulautern","country":"de","lat":49.333333,"lon":6.766667},{"id":933097,"name":"ernestwiller","country":"fr","lat":49.067679,"lon":6.965722},{"id":745640,"name":"hassel","country":"de","lat":49.266667,"lon":7.166667},{"id":778054,"name":"schmittweiler","country":"de","lat":49.416667,"lon":7.333333},{"id":753640,"name":"kleinbundenbach","country":"de","lat":49.316667,"lon":7.433333},{"id":957020,"name":"meyerhof","country":"fr","lat":48.5,"lon":7.383333},{"id":769512,"name":"ohmbach","country":"de","lat":49.45,"lon":7.35},{"id":733257,"name":"dietschweiler","country":"de","lat":49.433333,"lon":7.433333},{"id":963006,"name":"phalsbourg","country":"fr","lat":48.767516,"lon":7.256946},{"id":931726,"name":"diedendorf","country":"fr","lat":48.880427,"lon":7.043213},{"id":749377,"name":"holzmuhle","country":"de","lat":49.3,"lon":6.75},{"id":959662,"name":"muhlbach-sur-bruche","country":"fr","lat":48.514595,"lon":7.298532},{"id":943977,"name":"landange","country":"fr","lat":48.671295,"lon":6.958226},{"id":767208,"name":"numborn","country":"de","lat":49.35,"lon":6.966667},{"id":917197,"name":"angomont","country":"fr","lat":48.516042,"lon":6.946599},{"id":966185,"name":"rening","country":"fr","lat":48.953523,"lon":6.855103},{"id":937829,"name":"guiderkirch","country":"fr","lat":49.104793,"lon":7.272864},{"id":773666,"name":"reimsbach","country":"de","lat":49.45,"lon":6.766667},{"id":764106,"name":"nanzdiezweiler","country":"de","lat":49.45,"lon":7.45},{"id":937497,"name":"gresswiller","country":"fr","lat":48.535945,"lon":7.42654},{"id":931787,"name":"dimbsthal","country":"fr","lat":48.672877,"lon":7.358706},{"id":751044,"name":"ittersdorf","country":"de","lat":49.3,"lon":6.65},{"id":740171,"name":"geislautern","country":"de","lat":49.233333,"lon":6.833333},{"id":935408,"name":"frauenberg","country":"fr","lat":49.137009,"lon":7.123197},{"id":754366,"name":"kleinsteinhausen","country":"de","lat":49.2,"lon":7.466667},{"id":770836,"name":"peppenkum-utweiler","country":"de","lat":49.133333,"lon":7.283333},{"id":982543,"name":"zittersheim","country":"fr","lat":48.898931,"lon":7.346739},{"id":728374,"name":"bliesdalheim","country":"de","lat":49.166667,"lon":7.233333},{"id":938706,"name":"hertzing","country":"fr","lat":48.687201,"lon":6.950985},{"id":921042,"name":"berthelming","country":"fr","lat":48.816185,"lon":7.00598},{"id":768200,"name":"oberlinxweiler","country":"de","lat":49.45,"lon":7.15},{"id":936817,"name":"gottesheim","country":"fr","lat":48.774305,"lon":7.480824},{"id":961105,"name":"ogeviller","country":"fr","lat":48.54767,"lon":6.724157},{"id":960439,"name":"niedervisse","country":"fr","lat":49.166678,"lon":6.567083},{"id":939084,"name":"hunkirch","country":"fr","lat":48.940898,"lon":6.959645},{"id":922980,"name":"bourgaltroff","country":"fr","lat":48.869126,"lon":6.760018},{"id":955749,"name":"marthille","country":"fr","lat":48.924136,"lon":6.560019},{"id":956425,"name":"melck","country":"fr","lat":48.964361,"lon":7.449165},{"id":748217,"name":"hochen","country":"de","lat":49.383333,"lon":7.266667},{"id":966334,"name":"reyersviller","country":"fr","lat":49.040299,"lon":7.393549},{"id":966364,"name":"rhodes","country":"fr","lat":48.759246,"lon":6.895316},{"id":730354,"name":"brucken","country":"de","lat":49.433333,"lon":7.366667},{"id":953460,"name":"lochwiller","country":"fr","lat":48.696107,"lon":7.414383},{"id":929615,"name":"conthil","country":"fr","lat":48.892659,"lon":6.661821},{"id":725864,"name":"bambergerhof","country":"de","lat":49.416667,"lon":7.283333},{"id":957543,"name":"molsheim","country":"fr","lat":48.541528,"lon":7.492303},{"id":938468,"name":"hazembourg","country":"fr","lat":48.966654,"lon":6.932753},{"id":982173,"name":"wangenbourg","country":"fr","lat":48.623,"lon":7.306873},{"id":929021,"name":"cocheren","country":"fr","lat":49.146041,"lon":6.855798},{"id":953669,"name":"longeville-les-saint-avold","country":"fr","lat":49.118112,"lon":6.64165},{"id":979132,"name":"varsberg","country":"fr","lat":49.171037,"lon":6.62966},{"id":933730,"name":"eywiller","country":"fr","lat":48.8708,"lon":7.132718},{"id":774865,"name":"roden","country":"de","lat":49.333333,"lon":6.75},{"id":965808,"name":"rangen","country":"fr","lat":48.665855,"lon":7.475252},{"id":739469,"name":"furweiler","country":"de","lat":49.383333,"lon":6.583333},{"id":921452,"name":"biberkirch","country":"fr","lat":48.665057,"lon":7.112711},{"id":919108,"name":"baerendorf","country":"fr","lat":48.838927,"lon":7.085368},{"id":723990,"name":"altstadt","country":"de","lat":49.316667,"lon":7.283333},{"id":742662,"name":"grossbundenbach","country":"de","lat":49.3,"lon":7.416667},{"id":740546,"name":"gersbergerhof","country":"de","lat":49.283333,"lon":7.4},{"id":961620,"name":"ottwiller","country":"fr","lat":48.864248,"lon":7.229314},{"id":786961,"name":"volklingen","country":"de","lat":49.25,"lon":6.85},{"id":938875,"name":"holvingen","country":"fr","lat":49.009653,"lon":6.965289},{"id":758300,"name":"leidingen","country":"de","lat":49.3,"lon":6.616667},{"id":739112,"name":"friedrichweiler","country":"de","lat":49.233333,"lon":6.75},{"id":751070,"name":"ixheim","country":"de","lat":49.233333,"lon":7.366667},{"id":740878,"name":"gisingen","country":"de","lat":49.333333,"lon":6.65},{"id":982265,"name":"westhoffen","country":"fr","lat":48.603895,"lon":7.441476},{"id":724747,"name":"aschbacherhof","country":"de","lat":49.233333,"lon":6.916667},{"id":780291,"name":"silwingen","country":"de","lat":49.416667,"lon":6.566667},{"id":775720,"name":"rubenheim","country":"de","lat":49.166667,"lon":7.2},{"id":723682,"name":"altenwald","country":"de","lat":49.316667,"lon":7.083333},{"id":921689,"name":"bisten-en-lorraine","country":"fr","lat":49.162943,"lon":6.59875},{"id":976399,"name":"styring","country":"fr","lat":49.2,"lon":6.933333},{"id":787947,"name":"walpershofen","country":"de","lat":49.316667,"lon":6.916667},{"id":960047,"name":"nelling","country":"fr","lat":48.966139,"lon":6.866705},{"id":979438,"name":"vaxy","country":"fr","lat":48.859018,"lon":6.530488},{"id":960225,"name":"neunkirchen","country":"fr","lat":49.354972,"lon":6.554559},{"id":982145,"name":"waldolwisheim","country":"fr","lat":48.732872,"lon":7.437461},{"id":730323,"name":"bruchmuhlbach","country":"de","lat":49.383333,"lon":7.466667},{"id":976656,"name":"tanconville","country":"fr","lat":48.604128,"lon":6.934425},{"id":763084,"name":"mondorf","country":"de","lat":49.416667,"lon":6.6},{"id":939281,"name":"ippling","country":"fr","lat":49.106412,"lon":7.002376},{"id":960233,"name":"neuschmelz","country":"fr","lat":48.987177,"lon":7.486583},{"id":728776,"name":"bohmen","country":"de","lat":49.416667,"lon":6.9},{"id":935179,"name":"fouligny","country":"fr","lat":49.093881,"lon":6.503597},{"id":774525,"name":"rilchingen","country":"de","lat":49.133333,"lon":7.05},{"id":754935,"name":"knorscheid","country":"de","lat":49.4,"lon":6.866667},{"id":751116,"name":"jagersburg","country":"de","lat":49.366667,"lon":7.316667},{"id":938064,"name":"halloville","country":"fr","lat":48.555927,"lon":6.861764},{"id":982289,"name":"wiesviller","country":"fr","lat":49.079156,"lon":7.164657},{"id":791239,"name":"wolfersheim","country":"de","lat":49.183333,"lon":7.233333},{"id":923332,"name":"bouzonville","country":"fr","lat":49.292249,"lon":6.535309},{"id":960226,"name":"neunkirch-les-sarreguemines","country":"fr","lat":49.118902,"lon":7.099818},{"id":750790,"name":"ingweiler","country":"de","lat":49.266667,"lon":7.316667},{"id":773538,"name":"reichenbrunn","country":"de","lat":49.25,"lon":7.133333},{"id":930150,"name":"coume","country":"fr","lat":49.198746,"lon":6.571771},{"id":970871,"name":"saint-jean-kourtzerode","country":"fr","lat":48.754979,"lon":7.188149},{"id":753308,"name":"kirrberg","country":"de","lat":49.3,"lon":7.366667},{"id":976354,"name":"steinbourg","country":"fr","lat":48.769895,"lon":7.413637},{"id":933056,"name":"erchingen","country":"fr","lat":49.111744,"lon":7.261989},{"id":979018,"name":"vannecourt","country":"fr","lat":48.881995,"lon":6.549158},{"id":974415,"name":"sarreinsberg","country":"fr","lat":48.974602,"lon":7.37982},{"id":920897,"name":"berig-vintrange","country":"fr","lat":48.970005,"lon":6.698337},{"id":920372,"name":"bebing","country":"fr","lat":48.710672,"lon":6.996752},{"id":753293,"name":"kirkel","country":"de","lat":49.283333,"lon":7.233333},{"id":730278,"name":"brotdorf","country":"de","lat":49.466667,"lon":6.666667},{"id":921107,"name":"berviller","country":"fr","lat":49.270842,"lon":6.647199},{"id":916282,"name":"achain","country":"fr","lat":48.914021,"lon":6.592788},{"id":743833,"name":"gudingen","country":"de","lat":49.2,"lon":7.033333},{"id":745518,"name":"haschbach","country":"de","lat":49.466667,"lon":7.4},{"id":944097,"name":"laneuveville-les-lorquin","country":"fr","lat":48.65227,"lon":6.999106},{"id":757525,"name":"langenfelderhof","country":"de","lat":49.466667,"lon":7.2},{"id":960490,"name":"nitting","country":"fr","lat":48.670896,"lon":7.03048},{"id":933008,"name":"epping","country":"fr","lat":49.112474,"lon":7.317677},{"id":917029,"name":"ancerviller","country":"fr","lat":48.530753,"lon":6.828673},{"id":790763,"name":"winterbach","country":"de","lat":49.466667,"lon":7.1},{"id":952813,"name":"ley","country":"fr","lat":48.734279,"lon":6.657887},{"id":780793,"name":"sotzweiler","country":"de","lat":49.466667,"lon":7.0},{"id":977567,"name":"torcheville","country":"fr","lat":48.909329,"lon":6.851751},{"id":766522,"name":"niedersaubach","country":"de","lat":49.433333,"lon":6.916667},{"id":791628,"name":"worschweiler","country":"de","lat":49.283333,"lon":7.316667},{"id":944151,"name":"langatte","country":"fr","lat":48.757675,"lon":6.977262},{"id":981338,"name":"viller","country":"fr","lat":48.984841,"lon":6.643035},{"id":967339,"name":"rouhling","country":"fr","lat":49.134504,"lon":6.994291},{"id":781579,"name":"steinbach","country":"de","lat":49.466667,"lon":6.95},{"id":959338,"name":"mouacourt","country":"fr","lat":48.6774,"lon":6.626574},{"id":723796,"name":"althornbach","country":"de","lat":49.2,"lon":7.366667},{"id":965972,"name":"rech","country":"fr","lat":48.983398,"lon":7.017401},{"id":980244,"name":"vibersviller","country":"fr","lat":48.914799,"lon":6.945753},{"id":964174,"name":"pontpierre","country":"fr","lat":49.042708,"lon":6.643198},{"id":733441,"name":"dittweiler","country":"de","lat":49.433333,"lon":7.333333},{"id":928051,"name":"chenevieres","country":"fr","lat":48.518106,"lon":6.630228},{"id":938891,"name":"hommert","country":"fr","lat":48.677922,"lon":7.17792},{"id":935173,"name":"foulcrey","country":"fr","lat":48.637576,"lon":6.85737},{"id":951956,"name":"lesse","country":"fr","lat":48.962961,"lon":6.506932},{"id":960123,"name":"netzenbach","country":"fr","lat":48.513387,"lon":7.267718},{"id":926797,"name":"chanteheux","country":"fr","lat":48.599385,"lon":6.528595},{"id":936697,"name":"gogney","country":"fr","lat":48.613352,"lon":6.856786},{"id":787527,"name":"wahnwegen","country":"de","lat":49.483333,"lon":7.383333},{"id":772187,"name":"primsweiler","country":"de","lat":49.4,"lon":6.85},{"id":725836,"name":"ballweiler","country":"de","lat":49.2,"lon":7.216667},{"id":955098,"name":"many","country":"fr","lat":49.001461,"lon":6.519605},{"id":974768,"name":"saverne","country":"fr","lat":48.740039,"lon":7.365086},{"id":957550,"name":"momestroff","country":"fr","lat":49.162939,"lon":6.532903},{"id":916830,"name":"altrippe","country":"fr","lat":49.029381,"lon":6.821249},{"id":928357,"name":"chicourt","country":"fr","lat":48.917633,"lon":6.503743},{"id":935680,"name":"frohmuhl","country":"fr","lat":48.910591,"lon":7.279292},{"id":787870,"name":"wallerfangen","country":"de","lat":49.333333,"lon":6.716667},{"id":982539,"name":"zimming","country":"fr","lat":49.123552,"lon":6.586422},{"id":966120,"name":"remering-les-hargarten","country":"fr","lat":49.261911,"lon":6.627727},{"id":961010,"name":"oberhaslach","country":"fr","lat":48.550236,"lon":7.3319},{"id":970744,"name":"saint-jean-de-bassel","country":"fr","lat":48.804207,"lon":6.989843},{"id":938709,"name":"herveviller","country":"fr","lat":48.557903,"lon":6.753414},{"id":750749,"name":"in der sabelskaul","country":"de","lat":49.233333,"lon":6.7},{"id":740918,"name":"glan-munchweiler","country":"de","lat":49.466667,"lon":7.433333},{"id":916835,"name":"altviller","country":"fr","lat":49.072954,"lon":6.732081},{"id":939969,"name":"kalhausen","country":"fr","lat":49.021186,"lon":7.153557},{"id":770249,"name":"ottenhausen","country":"de","lat":49.233333,"lon":6.9},{"id":937722,"name":"guebling","country":"fr","lat":48.863558,"lon":6.744726},{"id":916413,"name":"aidling","country":"fr","lat":49.299543,"lon":6.559876},{"id":774657,"name":"rissenthal","country":"de","lat":49.466667,"lon":6.75},{"id":931463,"name":"dangolsheim","country":"fr","lat":48.570997,"lon":7.464684},{"id":966854,"name":"rodalbe","country":"fr","lat":48.90784,"lon":6.699244},{"id":960148,"name":"neufgrange","country":"fr","lat":49.076016,"lon":7.058056},{"id":953409,"name":"lixheim","country":"fr","lat":48.774552,"lon":7.138815},{"id":982252,"name":"welferding","country":"fr","lat":49.113009,"lon":7.04043},{"id":789962,"name":"wiebelskirchen","country":"de","lat":49.366667,"lon":7.183333},{"id":953832,"name":"lorquin","country":"fr","lat":48.669722,"lon":6.995786},{"id":938055,"name":"hallering","country":"fr","lat":49.120157,"lon":6.553076},{"id":754171,"name":"kleinottweiler","country":"de","lat":49.35,"lon":7.283333},{"id":979176,"name":"vathimenil","country":"fr","lat":48.505861,"lon":6.623885},{"id":930768,"name":"creutzwald","country":"fr","lat":49.199657,"lon":6.689863},{"id":927428,"name":"chateau-salins","country":"fr","lat":48.823949,"lon":6.503475},{"id":778989,"name":"schwarzenholz","country":"de","lat":49.333333,"lon":6.866667},{"id":962850,"name":"pettonville","country":"fr","lat":48.530234,"lon":6.741342},{"id":765419,"name":"neumunster","country":"de","lat":49.4,"lon":7.166667},{"id":787420,"name":"wadgassen","country":"de","lat":49.266667,"lon":6.783333},{"id":982323,"name":"wingen","country":"fr","lat":48.919593,"lon":7.369888},{"id":776618,"name":"sankt johann","country":"de","lat":49.233333,"lon":7.016667},{"id":938006,"name":"haboudange","country":"fr","lat":48.890875,"lon":6.611426},{"id":953414,"name":"lixing-les-saint-avold","country":"fr","lat":49.03747,"lon":6.753679},{"id":932708,"name":"eincheville","country":"fr","lat":48.983703,"lon":6.607389},{"id":944502,"name":"la petite-pierre","country":"fr","lat":48.862211,"lon":7.319478},{"id":982156,"name":"walscheid","country":"fr","lat":48.652453,"lon":7.148557},{"id":931657,"name":"destry","country":"fr","lat":48.944024,"lon":6.585965},{"id":958941,"name":"montreux","country":"fr","lat":48.536015,"lon":6.883282},{"id":757394,"name":"landsweiler-reden","country":"de","lat":49.35,"lon":7.133333},{"id":979763,"name":"vergaville","country":"fr","lat":48.836791,"lon":6.744152},{"id":965255,"name":"puttlingen","country":"fr","lat":49.05,"lon":6.933333},{"id":916329,"name":"adelange","country":"fr","lat":49.008552,"lon":6.61383},{"id":974914,"name":"schoenbourg","country":"fr","lat":48.832959,"lon":7.267545},{"id":775303,"name":"rosenkopf","country":"de","lat":49.35,"lon":7.433333},{"id":974414,"name":"sarreguemines","country":"fr","lat":49.113579,"lon":7.072387},{"id":959154,"name":"morhange","country":"fr","lat":48.922993,"lon":6.641786},{"id":742232,"name":"gresaubach","country":"de","lat":49.45,"lon":6.9},{"id":774639,"name":"ripplingen","country":"de","lat":49.45,"lon":6.6},{"id":921466,"name":"bidestroff","country":"fr","lat":48.849472,"lon":6.786911},{"id":769695,"name":"ommersheim","country":"de","lat":49.216667,"lon":7.15},{"id":752166,"name":"karlsbrunn","country":"de","lat":49.166667,"lon":6.816667},{"id":957665,"name":"moncourt","country":"fr","lat":48.717612,"lon":6.634416},{"id":918118,"name":"assenoncourt","country":"fr","lat":48.771389,"lon":6.796836},{"id":784756,"name":"uberlosheim","country":"de","lat":49.483333,"lon":6.866667},{"id":982246,"name":"weislingen","country":"fr","lat":48.915292,"lon":7.251523},{"id":731722,"name":"clarenthal","country":"de","lat":49.216667,"lon":6.883333},{"id":743565,"name":"grube maybach","country":"de","lat":49.316667,"lon":7.066667},{"id":942709,"name":"lagarde","country":"fr","lat":48.691688,"lon":6.701765},{"id":739463,"name":"furth","country":"de","lat":49.416667,"lon":7.233333},{"id":728386,"name":"bliesranbach","country":"de","lat":49.166667,"lon":7.083333},{"id":961030,"name":"obersoultzbach","country":"fr","lat":48.851514,"lon":7.449945},{"id":784776,"name":"uchtelfangen","country":"de","lat":49.383333,"lon":7.016667},{"id":920915,"name":"bermering","country":"fr","lat":48.932527,"lon":6.709124},{"id":919662,"name":"barst-marienthal","country":"fr","lat":49.069772,"lon":6.832109},{"id":776954,"name":"schafbrucke","country":"de","lat":49.216667,"lon":7.05},{"id":961073,"name":"odratzheim","country":"fr","lat":48.600623,"lon":7.486827},{"id":741711,"name":"gottbillshutte","country":"de","lat":49.483333,"lon":6.85},{"id":978822,"name":"valette","country":"fr","lat":49.051069,"lon":6.842641},{"id":982318,"name":"wimmenau","country":"fr","lat":48.911551,"lon":7.420927},{"id":972006,"name":"saint-martin","country":"fr","lat":48.567638,"lon":6.752828},{"id":982521,"name":"zehnacker","country":"fr","lat":48.670044,"lon":7.450527},{"id":916632,"name":"albestroff","country":"fr","lat":48.933626,"lon":6.854588},{"id":765819,"name":"neuweiler","country":"de","lat":49.283333,"lon":7.066667},{"id":758027,"name":"lauterbach","country":"de","lat":49.183333,"lon":6.733333},{"id":938934,"name":"hoste-haut","country":"fr","lat":49.068431,"lon":6.884429},{"id":979558,"name":"velving","country":"fr","lat":49.242109,"lon":6.533264},{"id":978686,"name":"vahl-ebersing","country":"fr","lat":49.04881,"lon":6.753154},{"id":938291,"name":"haut-clocher","country":"fr","lat":48.758953,"lon":6.996179},{"id":978892,"name":"valleryshal","country":"fr","lat":48.675937,"lon":7.126427},{"id":945729,"name":"laudorf","country":"fr","lat":49.082897,"lon":6.637618},{"id":934549,"name":"flexbourg","country":"fr","lat":48.571222,"lon":7.429682},{"id":770345,"name":"ottweiler","country":"de","lat":49.383333,"lon":7.166667},{"id":732785,"name":"derlen","country":"de","lat":49.283333,"lon":6.833333},{"id":953411,"name":"lixinge","country":"fr","lat":49.154561,"lon":6.9926},{"id":741713,"name":"gottelborn","country":"de","lat":49.35,"lon":7.033333},{"id":934469,"name":"fleisheim","country":"fr","lat":48.787921,"lon":7.160429},{"id":924349,"name":"burbach","country":"fr","lat":48.899433,"lon":7.112364},{"id":734522,"name":"duppenweiler","country":"de","lat":49.416667,"lon":6.766667},{"id":776524,"name":"sand","country":"de","lat":49.416667,"lon":7.383333},{"id":760793,"name":"malstatt-burbach","country":"de","lat":49.25,"lon":6.966667},{"id":959787,"name":"mutzig","country":"fr","lat":48.538888,"lon":7.454186},{"id":970942,"name":"saint-jean","country":"fr","lat":48.769977,"lon":7.361627},{"id":965838,"name":"raon-sur-plaine","country":"fr","lat":48.510807,"lon":7.096288},{"id":738825,"name":"fremersdorf","country":"de","lat":49.4,"lon":6.65},{"id":730571,"name":"bubingen","country":"de","lat":49.166667,"lon":7.033333},{"id":766517,"name":"niedersalbach","country":"de","lat":49.333333,"lon":6.9},{"id":939132,"name":"ibigny","country":"fr","lat":48.642797,"lon":6.89928},{"id":938523,"name":"hellering-les-fenetrange","country":"fr","lat":48.810219,"lon":7.06619},{"id":965979,"name":"reclonville","country":"fr","lat":48.541213,"lon":6.72679},{"id":919346,"name":"bambiderstroff","country":"fr","lat":49.102078,"lon":6.592373},{"id":782926,"name":"sulzbach","country":"de","lat":49.3,"lon":7.066667},{"id":728360,"name":"blickweiler","country":"de","lat":49.216667,"lon":7.25},{"id":748121,"name":"hirtel","country":"de","lat":49.35,"lon":6.916667},{"id":923214,"name":"boustroff","country":"fr","lat":49.000206,"lon":6.624375},{"id":931724,"name":"diebling","country":"fr","lat":49.109182,"lon":6.940345},{"id":953230,"name":"lindre-haute","country":"fr","lat":48.813282,"lon":6.749056},{"id":752318,"name":"kashofen","country":"de","lat":49.333333,"lon":7.416667},{"id":732659,"name":"dellfeld","country":"de","lat":49.233333,"lon":7.483333},{"id":938073,"name":"hambach","country":"fr","lat":49.062628,"lon":7.042457},{"id":920459,"name":"behren-les-forbach","country":"fr","lat":49.166397,"lon":6.943363},{"id":935331,"name":"francaltroff","country":"fr","lat":48.962869,"lon":6.798695},{"id":956958,"name":"metting","country":"fr","lat":48.812647,"lon":7.212407},{"id":774106,"name":"reuschbach","country":"de","lat":49.483333,"lon":7.483333},{"id":981867,"name":"voellerdingen","country":"fr","lat":48.959977,"lon":7.141184},{"id":979722,"name":"verdenal","country":"fr","lat":48.585152,"lon":6.81026},{"id":920785,"name":"bening","country":"fr","lat":49.137158,"lon":6.829751},{"id":966083,"name":"reinhardsmunster","country":"fr","lat":48.677383,"lon":7.318116},{"id":937690,"name":"grundviller","country":"fr","lat":49.045274,"lon":6.97129},{"id":956212,"name":"maxstadt","country":"fr","lat":49.043882,"lon":6.792966},{"id":746950,"name":"herbitzheim","country":"de","lat":49.166667,"lon":7.216667},{"id":753586,"name":"kleinblittersdorf","country":"de","lat":49.15,"lon":7.033333},{"id":931946,"name":"domfessel","country":"fr","lat":48.952046,"lon":7.152835},{"id":966994,"name":"romelfing","country":"fr","lat":48.831909,"lon":7.025707},{"id":738081,"name":"fischbach-camphausen","country":"de","lat":49.3,"lon":7.033333},{"id":954338,"name":"lutzelbourg","country":"fr","lat":48.731782,"lon":7.253689},{"id":765100,"name":"neuhausel","country":"de","lat":49.283333,"lon":7.216667},{"id":761291,"name":"martinshohe","country":"de","lat":49.366667,"lon":7.483333},{"id":761988,"name":"merchingen","country":"de","lat":49.433333,"lon":6.683333},{"id":930878,"name":"croismare","country":"fr","lat":48.598664,"lon":6.570371},{"id":963381,"name":"plaine-de-walsch","country":"fr","lat":48.690088,"lon":7.114725},{"id":921917,"name":"bliesbauchen","country":"fr","lat":49.115171,"lon":7.183555},{"id":726419,"name":"bechhofen","country":"de","lat":49.35,"lon":7.4},{"id":758972,"name":"liebsthal","country":"de","lat":49.483333,"lon":7.4},{"id":746359,"name":"heiligenwald","country":"de","lat":49.35,"lon":7.1},{"id":760219,"name":"lummerschied","country":"de","lat":49.35,"lon":7.0},{"id":756550,"name":"krughutte","country":"de","lat":49.216667,"lon":6.9},{"id":938821,"name":"hinsbourg","country":"fr","lat":48.906787,"lon":7.289306},{"id":760983,"name":"marhof","country":"de","lat":49.216667,"lon":6.7},{"id":916284,"name":"achen","country":"fr","lat":49.042589,"lon":7.185176},{"id":982393,"name":"wuiss","country":"fr","lat":48.851961,"lon":6.650899},{"id":941507,"name":"lachambre","country":"fr","lat":49.080331,"lon":6.746118},{"id":962796,"name":"petitmont","country":"fr","lat":48.557177,"lon":6.957231},{"id":962868,"name":"pevange","country":"fr","lat":48.908404,"lon":6.619433},{"id":765458,"name":"neunkirchen","country":"de","lat":49.35,"lon":7.183333},{"id":934984,"name":"forbach","country":"fr","lat":49.185575,"lon":6.891406},{"id":935458,"name":"fremenil","country":"fr","lat":48.565577,"lon":6.712751},{"id":927915,"name":"chazelles-sur-albe","country":"fr","lat":48.589827,"lon":6.778625},{"id":938589,"name":"herange","country":"fr","lat":48.775324,"lon":7.168053},{"id":931737,"name":"diemeringen","country":"fr","lat":48.939681,"lon":7.185555},{"id":772547,"name":"quierschied","country":"de","lat":49.316667,"lon":7.05},{"id":959782,"name":"mutterhausen","country":"fr","lat":48.98116,"lon":7.449605},{"id":766924,"name":"nohn","country":"de","lat":49.483333,"lon":6.55},{"id":757393,"name":"landsweiler","country":"de","lat":49.383333,"lon":6.916667},{"id":958222,"name":"montdidier","country":"fr","lat":48.929584,"lon":6.81668},{"id":727716,"name":"bierbach","country":"de","lat":49.266667,"lon":7.283333},{"id":935645,"name":"fribourg","country":"fr","lat":48.767697,"lon":6.855842},{"id":921461,"name":"bickenholtz","country":"fr","lat":48.804238,"lon":7.165005},{"id":916838,"name":"altweiler","country":"fr","lat":48.9302,"lon":6.9828},{"id":938209,"name":"harprich","country":"fr","lat":48.962016,"lon":6.654926},{"id":780962,"name":"spiesen","country":"de","lat":49.316667,"lon":7.15},{"id":921091,"name":"bertring","country":"fr","lat":48.972921,"lon":6.728442},{"id":938231,"name":"hasseling","country":"fr","lat":49.180533,"lon":6.998264},{"id":747801,"name":"hingersberg","country":"de","lat":49.366667,"lon":7.1},{"id":938147,"name":"hanviller","country":"fr","lat":49.1027,"lon":7.459113},{"id":779614,"name":"seiterswald","country":"de","lat":49.366667,"lon":7.0},{"id":788312,"name":"wattweiler","country":"de","lat":49.233333,"lon":7.316667},{"id":978942,"name":"valmunster","country":"fr","lat":49.239484,"lon":6.506255},{"id":974929,"name":"schwerdorff","country":"fr","lat":49.366569,"lon":6.573647},{"id":939067,"name":"hultehouse","country":"fr","lat":48.718956,"lon":7.260244},{"id":745922,"name":"haustadt","country":"de","lat":49.416667,"lon":6.733333},{"id":981811,"name":"vittersbourg","country":"fr","lat":48.949777,"lon":6.930085},{"id":934332,"name":"filstroff","country":"fr","lat":49.324118,"lon":6.541813},{"id":728636,"name":"bockweiler","country":"de","lat":49.183333,"lon":7.3},{"id":774547,"name":"rimschweiler","country":"de","lat":49.216667,"lon":7.383333},{"id":761488,"name":"mauschbach","country":"de","lat":49.183333,"lon":7.4},{"id":920907,"name":"berling","country":"fr","lat":48.800147,"lon":7.240283},{"id":770665,"name":"paulengrund","country":"de","lat":49.416667,"lon":7.35},{"id":723582,"name":"altenkirchen","country":"de","lat":49.45,"lon":7.316667},{"id":723730,"name":"altforweiler","country":"de","lat":49.266667,"lon":6.7},{"id":760689,"name":"mainzweiler","country":"de","lat":49.416667,"lon":7.116667},{"id":740476,"name":"gerlfangen","country":"de","lat":49.383333,"lon":6.6},{"id":735540,"name":"eidenborn","country":"de","lat":49.383333,"lon":6.9},{"id":771275,"name":"piesbach","country":"de","lat":49.383333,"lon":6.8},{"id":952855,"name":"lezey","country":"fr","lat":48.752339,"lon":6.628326},{"id":944063,"name":"landroff","country":"fr","lat":48.968201,"lon":6.612736},{"id":924236,"name":"buchsweiler","country":"fr","lat":48.82534,"lon":7.483333},{"id":960833,"name":"nousseviller-les-bitche","country":"fr","lat":49.10248,"lon":7.374836},{"id":737091,"name":"eschringen","country":"de","lat":49.183333,"lon":7.1},{"id":962998,"name":"pfalzweyer","country":"fr","lat":48.806565,"lon":7.259794},{"id":745514,"name":"hasborn","country":"de","lat":49.483333,"lon":6.983333},{"id":924390,"name":"buriville","country":"fr","lat":48.539202,"lon":6.707552},{"id":938732,"name":"hesse","country":"fr","lat":48.695624,"lon":7.043828},{"id":962816,"name":"petit-rederching","country":"fr","lat":49.057758,"lon":7.305095},{"id":982140,"name":"waldhambach","country":"fr","lat":48.926967,"lon":7.217219},{"id":970186,"name":"saint-georges","country":"fr","lat":48.65771,"lon":6.930225},{"id":960436,"name":"niedersoultzbach","country":"fr","lat":48.849686,"lon":7.467293},{"id":938192,"name":"hargarten","country":"fr","lat":49.224291,"lon":6.609421},{"id":956776,"name":"merten","country":"fr","lat":49.249098,"lon":6.666323},{"id":744280,"name":"habenichts","country":"de","lat":49.433333,"lon":7.1},{"id":961005,"name":"oberdorff","country":"fr","lat":49.274269,"lon":6.593948},{"id":919609,"name":"baronville","country":"fr","lat":48.933887,"lon":6.609115},{"id":777253,"name":"schellenbach","country":"de","lat":49.433333,"lon":6.966667},{"id":773800,"name":"reiskirchen","country":"de","lat":49.35,"lon":7.316667},{"id":931303,"name":"dabo","country":"fr","lat":48.653713,"lon":7.236364},{"id":975691,"name":"siltzheim","country":"fr","lat":49.063212,"lon":7.090739},{"id":729239,"name":"borsborn","country":"de","lat":49.433333,"lon":7.4},{"id":931664,"name":"dettwiller","country":"fr","lat":48.754048,"lon":7.46633},{"id":937545,"name":"griesbach-le-bastberg","country":"fr","lat":48.814755,"lon":7.436407},{"id":781301,"name":"stambach","country":"de","lat":49.25,"lon":7.466667},{"id":923587,"name":"breidenbach","country":"fr","lat":49.136076,"lon":7.42365},{"id":980097,"name":"vescheim","country":"fr","lat":48.79558,"lon":7.227459},{"id":924095,"name":"brouviller","country":"fr","lat":48.76452,"lon":7.158327},{"id":956492,"name":"menchhoffen","country":"fr","lat":48.860498,"lon":7.499693},{"id":916854,"name":"alzing","country":"fr","lat":49.278023,"lon":6.554074},{"id":733243,"name":"dietrichingen","country":"de","lat":49.183333,"lon":7.416667},{"id":739097,"name":"friedrichsthal","country":"de","lat":49.316667,"lon":7.1},{"id":923578,"name":"brehain","country":"fr","lat":48.910569,"lon":6.53929},{"id":769795,"name":"ormesheim","country":"de","lat":49.2,"lon":7.15},{"id":923143,"name":"bourscheid","country":"fr","lat":48.770533,"lon":7.190705},{"id":982338,"name":"wisches","country":"fr","lat":48.510184,"lon":7.266918},{"id":931762,"name":"dieuze","country":"fr","lat":48.81194,"lon":6.720206},{"id":780163,"name":"siersburg","country":"de","lat":49.366667,"lon":6.65},{"id":974915,"name":"schoenecken","country":"fr","lat":49.219888,"lon":6.926374},{"id":766192,"name":"niederhausen","country":"de","lat":49.3,"lon":7.466667},{"id":734167,"name":"dreisbach","country":"de","lat":49.483333,"lon":6.566667},{"id":764109,"name":"nanzweiler","country":"de","lat":49.45,"lon":7.433333},{"id":769737,"name":"oppen","country":"de","lat":49.45,"lon":6.783333},{"id":975062,"name":"seingbouse","country":"fr","lat":49.117241,"lon":6.83024},{"id":975723,"name":"singrist","country":"fr","lat":48.669984,"lon":7.389043},{"id":788350,"name":"websweiler","country":"de","lat":49.383333,"lon":7.283333},{"id":961076,"name":"oeting","country":"fr","lat":49.172174,"lon":6.9125},{"id":932072,"name":"donnelay","country":"fr","lat":48.752938,"lon":6.682216},{"id":779413,"name":"seelbach","country":"de","lat":49.233333,"lon":7.183333},{"id":961449,"name":"ormersviller","country":"fr","lat":49.134803,"lon":7.325032},{"id":940514,"name":"kirchheim","country":"fr","lat":48.610123,"lon":7.495935},{"id":953918,"name":"loudrefing","country":"fr","lat":48.852574,"lon":6.879558},{"id":920770,"name":"benestroff","country":"fr","lat":48.905388,"lon":6.759462},{"id":961615,"name":"otterswiller","country":"fr","lat":48.724655,"lon":7.377371},{"id":758015,"name":"lautenbach","country":"de","lat":49.416667,"lon":7.266667},{"id":751047,"name":"itzbach","country":"de","lat":49.35,"lon":6.666667},{"id":923608,"name":"bremenil","country":"fr","lat":48.523877,"lon":6.919288},{"id":758420,"name":"leitersweiler","country":"de","lat":49.483333,"lon":7.216667},{"id":727573,"name":"bexbach","country":"de","lat":49.333333,"lon":7.266667},{"id":740581,"name":"gersweiler","country":"de","lat":49.233333,"lon":6.933333},{"id":937395,"name":"graufthal","country":"fr","lat":48.819191,"lon":7.281005},{"id":766138,"name":"niedergailbach","country":"de","lat":49.133333,"lon":7.2},{"id":726499,"name":"beeden","country":"de","lat":49.3,"lon":7.316667},{"id":774485,"name":"riesweiler","country":"de","lat":49.133333,"lon":7.3},{"id":931715,"name":"diane-capelle","country":"fr","lat":48.728114,"lon":6.933372},{"id":733038,"name":"diefflen","country":"de","lat":49.366667,"lon":6.75},{"id":965254,"name":"puttigny","country":"fr","lat":48.85203,"lon":6.544188},{"id":734536,"name":"duren","country":"de","lat":49.3,"lon":6.666667},{"id":937904,"name":"guinglange","country":"fr","lat":49.074305,"lon":6.522932},{"id":966291,"name":"reutenbourg","country":"fr","lat":48.684542,"lon":7.406676},{"id":762087,"name":"merzig","country":"de","lat":49.45,"lon":6.633333},{"id":977140,"name":"thiebaumenil","country":"fr","lat":48.580079,"lon":6.621519},{"id":937790,"name":"guerting","country":"fr","lat":49.187581,"lon":6.619276},{"id":939219,"name":"imling","country":"fr","lat":48.719439,"lon":7.025488},{"id":977002,"name":"thal-marmoutier","country":"fr","lat":48.701963,"lon":7.35123},{"id":981319,"name":"villers-sur-nied","country":"fr","lat":48.919669,"lon":6.536518},{"id":932435,"name":"durstel","country":"fr","lat":48.890718,"lon":7.198998},{"id":959290,"name":"morville-les-vic","country":"fr","lat":48.81539,"lon":6.547436},{"id":770418,"name":"pachten","country":"de","lat":49.35,"lon":6.716667},{"id":723580,"name":"altenkessel","country":"de","lat":49.25,"lon":6.916667},{"id":786281,"name":"utweiler","country":"de","lat":49.116667,"lon":7.3},{"id":953000,"name":"lichtenberg","country":"fr","lat":48.922143,"lon":7.481986},{"id":921920,"name":"blies-ebersing","country":"fr","lat":49.12329,"lon":7.143745},{"id":769091,"name":"oberwurzbach","country":"de","lat":49.25,"lon":7.15},{"id":981865,"name":"voelfling-les-bouzonville","country":"fr","lat":49.293577,"lon":6.606771},{"id":776608,"name":"sankt ingbert","country":"de","lat":49.283333,"lon":7.116667},{"id":933598,"name":"etzling","country":"fr","lat":49.178561,"lon":6.96138},{"id":772297,"name":"prumburg","country":"de","lat":49.416667,"lon":6.966667},{"id":736280,"name":"emmersweiler","country":"de","lat":49.183333,"lon":6.85},{"id":982270,"name":"weyer","country":"fr","lat":48.855428,"lon":7.158763},{"id":981724,"name":"virming","country":"fr","lat":48.945984,"lon":6.753442},{"id":789066,"name":"wellingen","country":"de","lat":49.45,"lon":6.516667},{"id":773464,"name":"rehlingen-siersburg","country":"de","lat":49.366667,"lon":6.683333},{"id":982535,"name":"zilling","country":"fr","lat":48.784453,"lon":7.211485},{"id":924281,"name":"buhl-lorraine","country":"fr","lat":48.721839,"lon":7.082594},{"id":960836,"name":"nousseviller-saint-nabor","country":"fr","lat":49.121201,"lon":6.966439},{"id":982423,"name":"xures","country":"fr","lat":48.689816,"lon":6.65674},{"id":962754,"name":"petite-rosselle","country":"fr","lat":49.212414,"lon":6.849698},{"id":758063,"name":"lautzkirchen","country":"de","lat":49.25,"lon":7.25},{"id":927445,"name":"chateau-voue","country":"fr","lat":48.851668,"lon":6.624943},{"id":938559,"name":"hengwiller","country":"fr","lat":48.666426,"lon":7.334255},{"id":747727,"name":"hilschbach","country":"de","lat":49.316667,"lon":6.95},{"id":973971,"name":"salenthal","country":"fr","lat":48.667129,"lon":7.369609},{"id":921398,"name":"bezange","country":"fr","lat":48.730481,"lon":6.612596},{"id":918017,"name":"arzchviller","country":"fr","lat":48.718706,"lon":7.160921},{"id":723380,"name":"altbreitenfelderhof","country":"de","lat":49.383333,"lon":7.3},{"id":748300,"name":"hochsten","country":"de","lat":49.466667,"lon":6.933333},{"id":771183,"name":"pflugscheid","country":"de","lat":49.3,"lon":6.933333},{"id":921647,"name":"birkenwald","country":"fr","lat":48.658345,"lon":7.342226},{"id":954343,"name":"luvigny","country":"fr","lat":48.500741,"lon":7.069509},{"id":977139,"name":"thicourt","country":"fr","lat":48.988718,"lon":6.553689},{"id":938822,"name":"hinsingen","country":"fr","lat":48.953489,"lon":6.993006},{"id":778749,"name":"schuren","country":"de","lat":49.3,"lon":7.116667},{"id":978333,"name":"tromborn","country":"fr","lat":49.256877,"lon":6.586187},{"id":736929,"name":"ernstweiler","country":"de","lat":49.25,"lon":7.35},{"id":935635,"name":"freyming","country":"fr","lat":49.14002,"lon":6.802235},{"id":938060,"name":"halling","country":"fr","lat":49.154312,"lon":6.511631},{"id":916824,"name":"althorn","country":"fr","lat":48.961611,"lon":7.398781},{"id":954013,"name":"loutzviller","country":"fr","lat":49.1473,"lon":7.382543},{"id":729900,"name":"breitfurt","country":"de","lat":49.2,"lon":7.25},{"id":938945,"name":"hottviller","country":"fr","lat":49.079195,"lon":7.363002},{"id":938883,"name":"hombourg-haut","country":"fr","lat":49.123586,"lon":6.773968},{"id":927977,"name":"chemery","country":"fr","lat":49.00266,"lon":6.581579},{"id":777227,"name":"scheidterberg","country":"de","lat":49.233333,"lon":7.066667},{"id":978878,"name":"vallerange","country":"fr","lat":48.950259,"lon":6.686153},{"id":976721,"name":"tarquimpol","country":"fr","lat":48.784534,"lon":6.759791},{"id":921690,"name":"bistroff","country":"fr","lat":48.992075,"lon":6.714809},{"id":918075,"name":"aspach","country":"fr","lat":48.65479,"lon":6.960092},{"id":938809,"name":"hilsprich","country":"fr","lat":49.013659,"lon":6.915619},{"id":974417,"name":"sarreinsming","country":"fr","lat":49.089655,"lon":7.109575},{"id":764564,"name":"neualtheim","country":"de","lat":49.166667,"lon":7.283333},{"id":932340,"name":"drulingen","country":"fr","lat":48.868339,"lon":7.18761},{"id":938157,"name":"haraucourt-sur-seille","country":"fr","lat":48.799058,"lon":6.604936},{"id":978292,"name":"tritteling","country":"fr","lat":49.07793,"lon":6.6196},{"id":760117,"name":"ludwigslust","country":"de","lat":49.25,"lon":7.45},{"id":962690,"name":"petersbach","country":"fr","lat":48.869326,"lon":7.268116},{"id":961618,"name":"ottonville","country":"fr","lat":49.218802,"lon":6.522773},{"id":782118,"name":"stockbornerhof","country":"de","lat":49.283333,"lon":7.483333},{"id":944225,"name":"laning","country":"fr","lat":49.035103,"lon":6.774107},{"id":920866,"name":"bergbieten","country":"fr","lat":48.576254,"lon":7.459491},{"id":959236,"name":"morsbach","country":"fr","lat":49.170863,"lon":6.879579},{"id":954477,"name":"maennolsheim","country":"fr","lat":48.699671,"lon":7.462319},{"id":745203,"name":"hanweiler","country":"de","lat":49.116667,"lon":7.05},{"id":781933,"name":"stennweiler","country":"de","lat":49.383333,"lon":7.116667},{"id":767682,"name":"oberesch","country":"de","lat":49.4,"lon":6.566667},{"id":924519,"name":"butten","country":"fr","lat":48.969764,"lon":7.220444},{"id":955672,"name":"marsal","country":"fr","lat":48.788382,"lon":6.6097},{"id":791877,"name":"wurzelbach","country":"de","lat":49.45,"lon":7.133333},{"id":967161,"name":"rosenwiller","country":"fr","lat":48.504991,"lon":7.438912},{"id":747172,"name":"herrensohr","country":"de","lat":49.266667,"lon":7.016667},{"id":978941,"name":"valmont","country":"fr","lat":49.083827,"lon":6.699423},{"id":752756,"name":"kerlingen","country":"de","lat":49.316667,"lon":6.65},{"id":920865,"name":"berg","country":"fr","lat":48.895855,"lon":7.155463},{"id":757117,"name":"labach","country":"de","lat":49.366667,"lon":6.866667},{"id":731847,"name":"contwig","country":"de","lat":49.25,"lon":7.433333},{"id":974412,"name":"sarrebourg","country":"fr","lat":48.734217,"lon":7.056016},{"id":977023,"name":"theding","country":"fr","lat":49.129411,"lon":6.893152},{"id":982155,"name":"walschbronn","country":"fr","lat":49.148969,"lon":7.48162},{"id":976875,"name":"tenteling","country":"fr","lat":49.124247,"lon":6.936924},{"id":764083,"name":"nalbach","country":"de","lat":49.383333,"lon":6.783333},{"id":748220,"name":"hocherberg","country":"de","lat":49.35,"lon":7.266667},{"id":938805,"name":"hilbesheim","country":"fr","lat":48.776654,"lon":7.096585},{"id":976974,"name":"teting-sur-nied","country":"fr","lat":49.055959,"lon":6.667174},{"id":778406,"name":"schonenberg-kubelberg","country":"de","lat":49.4,"lon":7.366667},{"id":934422,"name":"flastroff","country":"fr","lat":49.366205,"lon":6.531116},{"id":738541,"name":"frankenholz","country":"de","lat":49.383333,"lon":7.25},{"id":736542,"name":"ensdorf","country":"de","lat":49.3,"lon":6.783333},{"id":956728,"name":"merlebach","country":"fr","lat":49.146129,"lon":6.816244},{"id":974919,"name":"schorbach","country":"fr","lat":49.079006,"lon":7.408849},{"id":978613,"name":"uttwiller","country":"fr","lat":48.846702,"lon":7.488886},{"id":934641,"name":"folckling","country":"fr","lat":49.147201,"lon":6.895},{"id":952544,"name":"le val-de-gueblange","country":"fr","lat":48.981592,"lon":6.958697},{"id":787484,"name":"wahlen","country":"de","lat":49.483333,"lon":6.783333},{"id":957614,"name":"moncel-les-luneville","country":"fr","lat":48.573988,"lon":6.527271},{"id":766406,"name":"niederneunkirchen","country":"de","lat":49.35,"lon":7.166667},{"id":785047,"name":"unner","country":"de","lat":49.183333,"lon":7.016667},{"id":981919,"name":"volksberg","country":"fr","lat":48.946817,"lon":7.298946},{"id":737626,"name":"falscheid","country":"de","lat":49.383333,"lon":6.883333},{"id":940530,"name":"knoersheim","country":"fr","lat":48.680633,"lon":7.460958},{"id":952939,"name":"lhor","country":"fr","lat":48.889678,"lon":6.872738},{"id":774698,"name":"ritterstrasse","country":"de","lat":49.266667,"lon":6.916667},{"id":977000,"name":"thal-drulingen","country":"fr","lat":48.909772,"lon":7.146036},{"id":759285,"name":"linslerhof","country":"de","lat":49.25,"lon":6.733333},{"id":954647,"name":"mainvillers","country":"fr","lat":49.019464,"lon":6.541986},{"id":979251,"name":"vaudreching","country":"fr","lat":49.283728,"lon":6.52572},{"id":921770,"name":"blamont","country":"fr","lat":48.589404,"lon":6.843859},{"id":787960,"name":"walshausen","country":"de","lat":49.216667,"lon":7.483333},{"id":750297,"name":"hutschenhausen","country":"de","lat":49.416667,"lon":7.483333},{"id":938238,"name":"hattmatt","country":"fr","lat":48.791216,"lon":7.422508},{"id":931994,"name":"domnom-les-dieuze","country":"fr","lat":48.859956,"lon":6.823426},{"id":945092,"name":"laronxe","country":"fr","lat":48.539589,"lon":6.603331},{"id":961032,"name":"oberstinzel","country":"fr","lat":48.793596,"lon":7.033328},{"id":961460,"name":"ormingen","country":"fr","lat":48.998986,"lon":7.127441},{"id":936818,"name":"gotzenbruck","country":"fr","lat":48.977778,"lon":7.3796},{"id":953367,"name":"littenheim","country":"fr","lat":48.727997,"lon":7.488428},{"id":783750,"name":"tholey","country":"de","lat":49.483333,"lon":7.066667},{"id":966114,"name":"remelfing","country":"fr","lat":49.088378,"lon":7.088531},{"id":747625,"name":"hilbringen","country":"de","lat":49.433333,"lon":6.616667},{"id":777230,"name":"scheidt","country":"de","lat":49.25,"lon":7.05},{"id":728369,"name":"bliesbergrhof","country":"de","lat":49.3,"lon":7.3},{"id":776187,"name":"saarlouis","country":"de","lat":49.316667,"lon":6.75},{"id":939976,"name":"kappelkinger","country":"fr","lat":48.97159,"lon":6.910318},{"id":781677,"name":"steinertshaus","country":"de","lat":49.366667,"lon":7.016667},{"id":763292,"name":"morsbach","country":"de","lat":49.3,"lon":7.4},{"id":960438,"name":"niederstinzel","country":"fr","lat":48.862053,"lon":7.030265},{"id":978417,"name":"tuffenbach","country":"fr","lat":48.903449,"lon":7.248902},{"id":737096,"name":"eschweilerhof","country":"de","lat":49.3,"lon":7.2},{"id":966468,"name":"riedheim","country":"fr","lat":48.808841,"lon":7.477077},{"id":727677,"name":"biedershausen","country":"de","lat":49.316667,"lon":7.483333},{"id":921494,"name":"bienville-la-petite","country":"fr","lat":48.638224,"lon":6.510526},{"id":921692,"name":"bitche","country":"fr","lat":49.050087,"lon":7.426716},{"id":976393,"name":"struth","country":"fr","lat":48.893103,"lon":7.254392},{"id":764739,"name":"neudorf","country":"de","lat":49.266667,"lon":6.933333},{"id":758082,"name":"lebach","country":"de","lat":49.4,"lon":6.916667},{"id":739406,"name":"furpach","country":"de","lat":49.316667,"lon":7.216667},{"id":940375,"name":"kerprich","country":"fr","lat":48.739247,"lon":6.959453},{"id":972066,"name":"saint-maurice-aux-forges","country":"fr","lat":48.509105,"lon":6.848546},{"id":973121,"name":"saint-quirin","country":"fr","lat":48.609146,"lon":7.063462},{"id":938226,"name":"haselbourg","country":"fr","lat":48.683005,"lon":7.202196},{"id":955120,"name":"marange-zondrange","country":"fr","lat":49.108655,"lon":6.538923},{"id":744317,"name":"habkirchen","country":"de","lat":49.133333,"lon":7.133333},{"id":921671,"name":"bisping","country":"fr","lat":48.8,"lon":6.883333},{"id":960410,"name":"niderhoff","country":"fr","lat":48.637198,"lon":7.004484},{"id":931628,"name":"denting","country":"fr","lat":49.194126,"lon":6.533778},{"id":976321,"name":"spicheren","country":"fr","lat":49.192663,"lon":6.967269},{"id":742092,"name":"graulheck","country":"de","lat":49.366667,"lon":7.116667},{"id":748140,"name":"hirzweiler","country":"de","lat":49.4,"lon":7.083333},{"id":966122,"name":"remering","country":"fr","lat":49.034897,"lon":6.938746},{"id":932546,"name":"eckartswiller","country":"fr","lat":48.762077,"lon":7.353513},{"id":957850,"name":"monswiller","country":"fr","lat":48.754546,"lon":7.377711},{"id":982522,"name":"zeinheim","country":"fr","lat":48.671916,"lon":7.485046},{"id":960364,"name":"neuwiller-les-saverne","country":"fr","lat":48.822934,"lon":7.402879},{"id":967137,"name":"rorbach","country":"fr","lat":48.828192,"lon":6.842833},{"id":776191,"name":"saarwellingen","country":"de","lat":49.35,"lon":6.816667},{"id":725820,"name":"ballern","country":"de","lat":49.45,"lon":6.616667},{"id":733273,"name":"differten","country":"de","lat":49.233333,"lon":6.783333},{"id":965968,"name":"rechicourt-la-petite","country":"fr","lat":48.717741,"lon":6.579847},{"id":953854,"name":"lostroff","country":"fr","lat":48.859896,"lon":6.854928},{"id":928604,"name":"cirey","country":"fr","lat":48.580741,"lon":6.945789},{"id":931564,"name":"dedeling","country":"fr","lat":48.854178,"lon":6.618245},{"id":974909,"name":"schmittviller","country":"fr","lat":49.005069,"lon":7.181769},{"id":921675,"name":"bissert","country":"fr","lat":48.941056,"lon":7.025153},{"id":974424,"name":"sarrewerden","country":"fr","lat":48.92404,"lon":7.082113},{"id":766006,"name":"niederbexbach","country":"de","lat":49.333333,"lon":7.25},{"id":736607,"name":"enzheim","country":"de","lat":49.2,"lon":7.1},{"id":767705,"name":"oberfelsberg","country":"de","lat":49.3,"lon":6.683333},{"id":788505,"name":"wehrden","country":"de","lat":49.25,"lon":6.833333},{"id":922708,"name":"boucheporn","country":"fr","lat":49.141697,"lon":6.612144},{"id":764082,"name":"nalbacherbrucke","country":"de","lat":49.366667,"lon":6.783333},{"id":934345,"name":"finstingen","country":"fr","lat":48.848273,"lon":7.022092},{"id":919504,"name":"barchain","country":"fr","lat":48.704331,"lon":6.962199},{"id":925187,"name":"carling","country":"fr","lat":49.167613,"lon":6.715963},{"id":963307,"name":"pisdorf","country":"fr","lat":48.898904,"lon":7.072452},{"id":934484,"name":"fletrange","country":"fr","lat":49.062868,"lon":6.56012},{"id":734405,"name":"dudweiler","country":"de","lat":49.283333,"lon":7.033333},{"id":732484,"name":"dechen","country":"de","lat":49.333333,"lon":7.15},{"id":962129,"name":"parroy","country":"fr","lat":48.683901,"lon":6.602492},{"id":974396,"name":"sarraltroff","country":"fr","lat":48.770661,"lon":7.065864},{"id":974910,"name":"schneckenbusch","country":"fr","lat":48.705036,"lon":7.077233},{"id":917846,"name":"arracourt","country":"fr","lat":48.724727,"lon":6.535197},{"id":979469,"name":"veckerswiller","country":"fr","lat":48.841033,"lon":7.179889},{"id":746637,"name":"hellenhausen","country":"de","lat":49.366667,"lon":6.933333},{"id":974026,"name":"salival","country":"fr","lat":48.783333,"lon":6.566667},{"id":921073,"name":"bertrambois","country":"fr","lat":48.602428,"lon":6.987645},{"id":730786,"name":"budingen","country":"de","lat":49.45,"lon":6.55},{"id":921467,"name":"biding","country":"fr","lat":49.05875,"lon":6.787083},{"id":974395,"name":"sarralbe","country":"fr","lat":48.993655,"lon":7.025051},{"id":940516,"name":"kirrberg","country":"fr","lat":48.821731,"lon":7.066164},{"id":971474,"name":"saint-louis","country":"fr","lat":48.71531,"lon":7.185275},{"id":931266,"name":"cutting","country":"fr","lat":48.848115,"lon":6.835212},{"id":918680,"name":"autrepierre","country":"fr","lat":48.612077,"lon":6.801239},{"id":966016,"name":"reding","country":"fr","lat":48.751014,"lon":7.104554},{"id":737706,"name":"fechingen","country":"de","lat":49.2,"lon":7.066667},{"id":982390,"name":"woustviller","country":"fr","lat":49.076357,"lon":7.004867},{"id":958580,"name":"montigny","country":"fr","lat":48.515254,"lon":6.800588},{"id":953009,"name":"lidrezing","country":"fr","lat":48.883496,"lon":6.696994},{"id":761933,"name":"menningen","country":"de","lat":49.4,"lon":6.666667},{"id":960300,"name":"neuviller-les-badonviller","country":"fr","lat":48.517132,"lon":6.87394},{"id":783559,"name":"thalexweiler","country":"de","lat":49.45,"lon":6.966667},{"id":944008,"name":"landersheim","country":"fr","lat":48.689285,"lon":7.494071},{"id":954438,"name":"mackwiller","country":"fr","lat":48.925693,"lon":7.175777},{"id":776543,"name":"sangerhof","country":"de","lat":49.466667,"lon":7.383333},{"id":742330,"name":"gries","country":"de","lat":49.416667,"lon":7.4},{"id":938827,"name":"hirschland","country":"fr","lat":48.837342,"lon":7.113849},{"id":749423,"name":"homburg-nord","country":"de","lat":49.35,"lon":7.333333},{"id":762375,"name":"miesau","country":"de","lat":49.4,"lon":7.433333},{"id":790105,"name":"wiesbach","country":"de","lat":49.333333,"lon":7.45},{"id":778660,"name":"schrollbach","country":"de","lat":49.45,"lon":7.483333},{"id":948475,"name":"lening","country":"fr","lat":48.955869,"lon":6.810399},{"id":759365,"name":"lisdorf","country":"de","lat":49.3,"lon":6.766667},{"id":937719,"name":"gueblange","country":"fr","lat":48.775067,"lon":6.700534},{"id":974423,"name":"sarre-union","country":"fr","lat":48.940918,"lon":7.087938},{"id":932788,"name":"enchenberg","country":"fr","lat":49.012209,"lon":7.340492},{"id":955108,"name":"marainviller","country":"fr","lat":48.589743,"lon":6.59837},{"id":734515,"name":"dunzweiler","country":"de","lat":49.416667,"lon":7.3},{"id":939671,"name":"jolivet","country":"fr","lat":48.607166,"lon":6.506575},{"id":932124,"name":"dorviller","country":"fr","lat":49.075204,"lon":6.55878},{"id":957374,"name":"mittersheim","country":"fr","lat":48.860964,"lon":6.941879},{"id":961033,"name":"obervisse","country":"fr","lat":49.15149,"lon":6.584775},{"id":939937,"name":"juvelize","country":"fr","lat":48.761907,"lon":6.649571},{"id":965970,"name":"rechicourt","country":"fr","lat":48.664892,"lon":6.837693},{"id":966977,"name":"romansviller","country":"fr","lat":48.64488,"lon":7.407312},{"id":776453,"name":"sanddorf","country":"de","lat":49.35,"lon":7.366667},{"id":955425,"name":"marienau","country":"fr","lat":49.183938,"lon":6.869246},{"id":733383,"name":"dirmingen","country":"de","lat":49.416667,"lon":7.016667},{"id":789305,"name":"werbeln","country":"de","lat":49.25,"lon":6.8},{"id":746896,"name":"henselhofen","country":"de","lat":49.433333,"lon":6.95},{"id":952843,"name":"leyviller","country":"fr","lat":49.031129,"lon":6.834986},{"id":764152,"name":"nassweiler","country":"de","lat":49.15,"lon":6.833333},{"id":931765,"name":"diffembach-les-hellimer","country":"fr","lat":49.000389,"lon":6.83945},{"id":956405,"name":"meisenthal","country":"fr","lat":48.965372,"lon":7.353206},{"id":784749,"name":"uberherrn","country":"de","lat":49.25,"lon":6.7},{"id":760129,"name":"ludwigsthal","country":"de","lat":49.333333,"lon":7.216667},{"id":736751,"name":"erfweiler-ehlingen","country":"de","lat":49.2,"lon":7.183333},{"id":759233,"name":"lindscheid","country":"de","lat":49.483333,"lon":6.933333},{"id":966086,"name":"reipertsweiler","country":"fr","lat":48.932829,"lon":7.464954},{"id":789767,"name":"wetschhausen","country":"de","lat":49.416667,"lon":7.216667},{"id":962834,"name":"petit-tenquin","country":"fr","lat":48.988117,"lon":6.863054},{"id":735385,"name":"eichelscheiderhof","country":"de","lat":49.383333,"lon":7.383333},{"id":757463,"name":"langenbach","country":"de","lat":49.483333,"lon":7.316667},{"id":746027,"name":"heckendalheim","country":"de","lat":49.233333,"lon":7.133333},{"id":781400,"name":"staudt","country":"de","lat":49.466667,"lon":6.6},{"id":788475,"name":"wehingen","country":"de","lat":49.466667,"lon":6.5},{"id":939292,"name":"irmstett","country":"fr","lat":48.588558,"lon":7.477468},{"id":727458,"name":"bettingerbruck","country":"de","lat":49.433333,"lon":6.85},{"id":966576,"name":"rimlingen","country":"fr","lat":49.096104,"lon":7.261982},{"id":936592,"name":"givrycourt","country":"fr","lat":48.922334,"lon":6.917151},{"id":982379,"name":"wolflingen","country":"fr","lat":49.086791,"lon":7.180655},{"id":725232,"name":"aussen","country":"de","lat":49.45,"lon":6.85},{"id":934661,"name":"folschwiller","country":"fr","lat":49.070617,"lon":6.689483},{"id":964988,"name":"printzheim","country":"fr","lat":48.791216,"lon":7.478107},{"id":935653,"name":"friedolsheim","country":"fr","lat":48.705161,"lon":7.484739},{"id":953542,"name":"lohr","country":"fr","lat":48.857355,"lon":7.243939},{"id":780961,"name":"spiesen-elversberg","country":"de","lat":49.316667,"lon":7.133333},{"id":965883,"name":"rauwiller","country":"fr","lat":48.810411,"lon":7.110058},{"id":954427,"name":"macheren","country":"fr","lat":49.100447,"lon":6.773795},{"id":766370,"name":"niedermohr","country":"de","lat":49.466667,"lon":7.466667},{"id":957542,"name":"molring","country":"fr","lat":48.885174,"lon":6.817943},{"id":918133,"name":"asswiller","country":"fr","lat":48.880279,"lon":7.220444},{"id":785302,"name":"unterfelsberg","country":"de","lat":49.283333,"lon":6.7},{"id":940521,"name":"kirviller","country":"fr","lat":48.953394,"lon":6.98108},{"id":731338,"name":"buss","country":"de","lat":49.283333,"lon":6.8},{"id":779161,"name":"schwemlingen","country":"de","lat":49.466667,"lon":6.583333},{"id":931804,"name":"dinsheim","country":"fr","lat":48.542805,"lon":7.428295},{"id":788369,"name":"wecklingen","country":"de","lat":49.216667,"lon":7.216667},{"id":947934,"name":"lelling","country":"fr","lat":49.04059,"lon":6.707258},{"id":931333,"name":"dalem","country":"fr","lat":49.239348,"lon":6.610129},{"id":728383,"name":"blieskastel","country":"de","lat":49.233333,"lon":7.25},{"id":749342,"name":"holz","country":"de","lat":49.333333,"lon":6.983333},{"id":932693,"name":"eguelshardt","country":"fr","lat":49.019719,"lon":7.493983},{"id":766332,"name":"niederlinxweiler","country":"de","lat":49.433333,"lon":7.166667},{"id":746796,"name":"hemmersdorf","country":"de","lat":49.35,"lon":6.616667},{"id":965107,"name":"puberg","country":"fr","lat":48.912825,"lon":7.314998},{"id":955051,"name":"manonviller","country":"fr","lat":48.583261,"lon":6.651358},{"id":960165,"name":"neufvillage","country":"fr","lat":48.936366,"lon":6.782038},{"id":932112,"name":"dorlisheim","country":"fr","lat":48.525515,"lon":7.486211},{"id":921289,"name":"bettwiller","country":"fr","lat":49.078215,"lon":7.287286},{"id":730991,"name":"buren","country":"de","lat":49.366667,"lon":6.666667},{"id":792820,"name":"zweibrucken","country":"de","lat":49.25,"lon":7.366667},{"id":933101,"name":"ernolsheim- les - saverne","country":"fr","lat":48.792554,"lon":7.382396},{"id":961235,"name":"ommeray","country":"fr","lat":48.722592,"lon":6.685004},{"id":741307,"name":"goldbach","country":"de","lat":49.45,"lon":6.866667},{"id":938001,"name":"hablainville","country":"fr","lat":48.517035,"lon":6.726892},{"id":923729,"name":"brettnach","country":"fr","lat":49.257302,"lon":6.563136},{"id":929090,"name":"coincourt","country":"fr","lat":48.700911,"lon":6.60847},{"id":937716,"name":"guebenhouse","country":"fr","lat":49.074517,"lon":6.942456},{"id":980444,"name":"vieux-lixheim","country":"fr","lat":48.77724,"lon":7.130299},{"id":937955,"name":"gungwiller","country":"fr","lat":48.880905,"lon":7.15906},{"id":966113,"name":"remelfang","country":"fr","lat":49.268574,"lon":6.508092},{"id":955562,"name":"marmoutier","country":"fr","lat":48.689395,"lon":7.382572},{"id":755720,"name":"korprich","country":"de","lat":49.383333,"lon":6.833333},{"id":773885,"name":"remmesweiler","country":"de","lat":49.433333,"lon":7.116667},{"id":746215,"name":"heidelbingerhof","country":"de","lat":49.233333,"lon":7.416667},{"id":938868,"name":"holacourt","country":"fr","lat":48.972006,"lon":6.512963},{"id":770835,"name":"peppenkum","country":"de","lat":49.15,"lon":7.283333},{"id":726265,"name":"battweiler","country":"de","lat":49.283333,"lon":7.466667},{"id":978316,"name":"trois-fontaines","country":"fr","lat":48.671978,"lon":7.117612},{"id":774220,"name":"rheinstrasse","country":"de","lat":49.45,"lon":7.083333},{"id":936692,"name":"goerlingen","country":"fr","lat":48.795563,"lon":7.083573},{"id":954257,"name":"lupstein","country":"fr","lat":48.736693,"lon":7.486935},{"id":972208,"name":"saint-medard","country":"fr","lat":48.810394,"lon":6.634966},{"id":937661,"name":"grostenquin","country":"fr","lat":48.978968,"lon":6.742704},{"id":931956,"name":"domjevin","country":"fr","lat":48.575319,"lon":6.696602},{"id":968880,"name":"saint-clement","country":"fr","lat":48.531147,"lon":6.600937},{"id":939266,"name":"insviller","country":"fr","lat":48.888349,"lon":6.896724},{"id":728075,"name":"bischmisheim","country":"de","lat":49.216667,"lon":7.066667},{"id":916957,"name":"amenoncourt","country":"fr","lat":48.627704,"lon":6.789465},{"id":935400,"name":"fraquelfing","country":"fr","lat":48.639672,"lon":6.988196},{"id":739206,"name":"frohnhofen","country":"de","lat":49.45,"lon":7.3},{"id":738862,"name":"freudenbergerhof","country":"de","lat":49.266667,"lon":7.35},{"id":749827,"name":"hostenbach","country":"de","lat":49.266667,"lon":6.816667},{"id":933079,"name":"erkartswiller","country":"fr","lat":48.876951,"lon":7.359662},{"id":979149,"name":"vasperviller","country":"fr","lat":48.632321,"lon":7.070325},{"id":733292,"name":"dillingen","country":"de","lat":49.35,"lon":6.733333},{"id":733302,"name":"dilsburg","country":"de","lat":49.333333,"lon":6.933333},{"id":739434,"name":"furstenhausen","country":"de","lat":49.233333,"lon":6.866667},{"id":976308,"name":"sparsbach","country":"fr","lat":48.877161,"lon":7.416755},{"id":729819,"name":"breitenbach","country":"de","lat":49.433333,"lon":7.266667},{"id":961039,"name":"obreck","country":"fr","lat":48.84631,"lon":6.593711},{"id":932746,"name":"elvange","country":"fr","lat":49.059538,"lon":6.546049},{"id":929184,"name":"colmen","country":"fr","lat":49.353504,"lon":6.539725},{"id":953008,"name":"lidrequin","country":"fr","lat":48.881643,"lon":6.663664},{"id":973391,"name":"saint-sauveur","country":"fr","lat":48.533412,"lon":6.976229},{"id":727441,"name":"bettenhausen","country":"de","lat":49.466667,"lon":7.45},{"id":971470,"name":"saint-louis-les-bitche","country":"fr","lat":48.987001,"lon":7.356017},{"id":960662,"name":"nonhigny","country":"fr","lat":48.550894,"lon":6.879628},{"id":935301,"name":"fraimbois","country":"fr","lat":48.529307,"lon":6.541979},{"id":757261,"name":"lambsborn","country":"de","lat":49.366667,"lon":7.433333},{"id":978688,"name":"vahl-les-faulquemont","country":"fr","lat":49.026064,"lon":6.624722},{"id":938542,"name":"hemmering","country":"fr","lat":49.026759,"lon":6.675448},{"id":723317,"name":"alschbach","country":"de","lat":49.233333,"lon":7.233333},{"id":938229,"name":"haspelschiedt","country":"fr","lat":49.085901,"lon":7.484519},{"id":931897,"name":"dolving","country":"fr","lat":48.7761,"lon":7.019983},{"id":770988,"name":"pettersheim","country":"de","lat":49.466667,"lon":7.35},{"id":935626,"name":"freybouse","country":"fr","lat":49.005282,"lon":6.777465},{"id":746976,"name":"herchenbach","country":"de","lat":49.316667,"lon":6.9},{"id":750082,"name":"humes","country":"de","lat":49.383333,"lon":6.983333},{"id":789419,"name":"werschweiler","country":"de","lat":49.45,"lon":7.233333},{"id":750508,"name":"ihn","country":"de","lat":49.316667,"lon":6.6},{"id":776180,"name":"saarbrucken","country":"de","lat":49.233333,"lon":7.0},{"id":932195,"name":"dourd\u0027hal","country":"fr","lat":49.096709,"lon":6.661443},{"id":763006,"name":"molschbacherhof","country":"de","lat":49.233333,"lon":7.3},{"id":938018,"name":"haegen","country":"fr","lat":48.714054,"lon":7.338911},{"id":982157,"name":"waltembourg","country":"fr","lat":48.749451,"lon":7.197365},{"id":765975,"name":"niederauerbach","country":"de","lat":49.266667,"lon":7.4},{"id":935462,"name":"fremestroff","country":"fr","lat":49.016422,"lon":6.779969},{"id":924058,"name":"brouck","country":"fr","lat":49.130192,"lon":6.503584},{"id":751119,"name":"jagersfreude","country":"de","lat":49.266667,"lon":7.0},{"id":982306,"name":"willerwald","country":"fr","lat":49.02572,"lon":7.037646},{"id":930829,"name":"crion","country":"fr","lat":48.639953,"lon":6.526391},{"id":933857,"name":"farschviller","country":"fr","lat":49.094242,"lon":6.895343},{"id":776171,"name":"saal","country":"de","lat":49.466667,"lon":7.25},{"id":931572,"name":"dehlingen","country":"fr","lat":48.980896,"lon":7.191435},{"id":922967,"name":"bourdonnay","country":"fr","lat":48.719849,"lon":6.727991},{"id":978530,"name":"urbach","country":"fr","lat":49.099883,"lon":7.329743},{"id":755207,"name":"kolln","country":"de","lat":49.3,"lon":6.883333},{"id":932130,"name":"dossenheim-sur-zinsel","country":"fr","lat":48.80595,"lon":7.402855},{"id":723351,"name":"alsweiler","country":"de","lat":49.466667,"lon":7.066667},{"id":727804,"name":"bildstock","country":"de","lat":49.333333,"lon":7.1},{"id":982519,"name":"zarbeling","country":"fr","lat":48.891552,"lon":6.688789},{"id":939242,"name":"ingeweiler","country":"fr","lat":48.872181,"lon":7.478194},{"id":931335,"name":"dalhain","country":"fr","lat":48.888881,"lon":6.560657},{"id":917218,"name":"angviller-les-bisping","country":"fr","lat":48.817337,"lon":6.881071},{"id":959941,"name":"narbefontaine","country":"fr","lat":49.142353,"lon":6.546546},{"id":924156,"name":"brulange","country":"fr","lat":48.970035,"lon":6.553231},{"id":780374,"name":"sinnerthal","country":"de","lat":49.35,"lon":7.15},{"id":982382,"name":"wolschheim","country":"fr","lat":48.702263,"lon":7.450746},{"id":955516,"name":"marlenheim","country":"fr","lat":48.620985,"lon":7.494422},{"id":942670,"name":"lafrimbolle","country":"fr","lat":48.594569,"lon":7.018601},{"id":966055,"name":"reherrey","country":"fr","lat":48.50917,"lon":6.766825},{"id":772863,"name":"rammelfangen","country":"de","lat":49.333333,"lon":6.633333},{"id":750358,"name":"huttersdorf","country":"de","lat":49.416667,"lon":6.85},{"id":757064,"name":"kutzhof","country":"de","lat":49.35,"lon":6.983333},{"id":948470,"name":"lengelsheim","country":"fr","lat":49.108233,"lon":7.409816},{"id":957169,"name":"migneville","country":"fr","lat":48.532003,"lon":6.780008},{"id":960417,"name":"niederhaslach","country":"fr","lat":48.542418,"lon":7.342463},{"id":921875,"name":"blemerey","country":"fr","lat":48.581524,"lon":6.733247},{"id":765007,"name":"neuforweiler","country":"de","lat":49.283333,"lon":6.733333},{"id":750365,"name":"huttig-rassweiler","country":"de","lat":49.383333,"lon":7.066667},{"id":788748,"name":"weiler","country":"de","lat":49.45,"lon":6.566667},{"id":761990,"name":"merchweiler","country":"de","lat":49.35,"lon":7.05},{"id":775016,"name":"rohrbach","country":"de","lat":49.283333,"lon":7.166667},{"id":938162,"name":"harbouey","country":"fr","lat":48.56946,"lon":6.88564},{"id":727402,"name":"besseringen","country":"de","lat":49.483333,"lon":6.6},{"id":921921,"name":"bliesgersviller","country":"fr","lat":49.149538,"lon":7.082182},{"id":921782,"name":"blanche-eglise","country":"fr","lat":48.791712,"lon":6.667891},{"id":747613,"name":"hierscheid","country":"de","lat":49.4,"lon":6.983333},{"id":938237,"name":"hattigny","country":"fr","lat":48.631591,"lon":6.965366},{"id":929935,"name":"cosswiller","country":"fr","lat":48.632167,"lon":7.400351},{"id":751872,"name":"kalmesweiler","country":"de","lat":49.416667,"lon":6.95},{"id":772436,"name":"puttlingen","country":"de","lat":49.283333,"lon":6.883333},{"id":965707,"name":"rahling","country":"fr","lat":48.99162,"lon":7.215555},{"id":725362,"name":"bachem","country":"de","lat":49.483333,"lon":6.7},{"id":741946,"name":"grafinthal","country":"de","lat":49.166667,"lon":7.116667},{"id":733958,"name":"dorsdorf","country":"de","lat":49.466667,"lon":6.966667},{"id":921619,"name":"bining","country":"fr","lat":49.036473,"lon":7.252196},{"id":982245,"name":"weinbourg","country":"fr","lat":48.871566,"lon":7.439591},{"id":776569,"name":"sankt barbara","country":"de","lat":49.333333,"lon":6.683333},{"id":773768,"name":"reisbach","country":"de","lat":49.366667,"lon":6.883333},{"id":771307,"name":"pikard","country":"de","lat":49.3,"lon":6.733333},{"id":763797,"name":"munchwies","country":"de","lat":49.4,"lon":7.25},{"id":773969,"name":"rentrisch","country":"de","lat":49.266667,"lon":7.083333},{"id":966928,"name":"rolbing","country":"fr","lat":49.170692,"lon":7.440041},{"id":953229,"name":"lindre-basse","country":"fr","lat":48.80228,"lon":6.746971},{"id":982546,"name":"zommange","country":"fr","lat":48.824282,"lon":6.803925},{"id":952929,"name":"l\u0027hopital","country":"fr","lat":49.163927,"lon":6.729207},{"id":937448,"name":"grehange","country":"fr","lat":49.049523,"lon":6.580123},{"id":966589,"name":"rimsdorf","country":"fr","lat":48.928471,"lon":7.126958},{"id":777448,"name":"schiffweiler","country":"de","lat":49.366667,"lon":7.133333},{"id":936816,"name":"gottenhouse","country":"fr","lat":48.720291,"lon":7.361089},{"id":730556,"name":"bubach","country":"de","lat":49.416667,"lon":6.933333},{"id":916739,"name":"allenwiller","country":"fr","lat":48.65448,"lon":7.375472},{"id":957368,"name":"mittelbronn","country":"fr","lat":48.770378,"lon":7.223167},{"id":936141,"name":"gelucourt","country":"fr","lat":48.764869,"lon":6.725161},{"id":938126,"name":"hangviller","country":"fr","lat":48.809748,"lon":7.228443},{"id":974892,"name":"scharrachbergheim","country":"fr","lat":48.593125,"lon":7.495148},{"id":979436,"name":"vaxainville","country":"fr","lat":48.516153,"lon":6.751346},{"id":982421,"name":"xouaxange","country":"fr","lat":48.697681,"lon":6.995137},{"id":786959,"name":"volkingen-ludweiler","country":"de","lat":49.216667,"lon":6.816667},{"id":938861,"name":"hohengoeft","country":"fr","lat":48.661698,"lon":7.473612},{"id":733939,"name":"dorrenbach","country":"de","lat":49.433333,"lon":7.233333},{"id":733757,"name":"dorf","country":"de","lat":49.183333,"lon":6.8},{"id":974890,"name":"schalbach","country":"fr","lat":48.821047,"lon":7.174675},{"id":762300,"name":"michelbach","country":"de","lat":49.466667,"lon":6.833333},{"id":982405,"name":"xanrey","country":"fr","lat":48.749343,"lon":6.580264},{"id":938110,"name":"ham-sous-varsberg","country":"fr","lat":49.180308,"lon":6.646258},{"id":970904,"name":"saint-jean-rohrbach","country":"fr","lat":49.025446,"lon":6.884175},{"id":729690,"name":"brebach","country":"de","lat":49.216667,"lon":7.033333},{"id":938243,"name":"hatzviller","country":"fr","lat":48.670706,"lon":7.084209},{"id":936007,"name":"garrebourg","country":"fr","lat":48.709272,"lon":7.233816},{"id":740562,"name":"gersheim","country":"de","lat":49.15,"lon":7.2},{"id":960411,"name":"niderviller","country":"fr","lat":48.71363,"lon":7.105153},{"id":756512,"name":"krottelbach","country":"de","lat":49.466667,"lon":7.333333},{"id":746673,"name":"hellwies","country":"de","lat":49.433333,"lon":6.733333},{"id":932753,"name":"embermenil","country":"fr","lat":48.628925,"lon":6.694163},{"id":969656,"name":"sainte-pole","country":"fr","lat":48.510154,"lon":6.822148},{"id":982328,"name":"wintersbourg","country":"fr","lat":48.78583,"lon":7.189909},{"id":939265,"name":"insming","country":"fr","lat":48.95513,"lon":6.876038},{"id":938582,"name":"henridorff","country":"fr","lat":48.733399,"lon":7.210343},{"id":749502,"name":"hoof","country":"de","lat":49.483333,"lon":7.25},{"id":979485,"name":"veho","country":"fr","lat":48.59635,"lon":6.709397},{"id":939080,"name":"hundling","country":"fr","lat":49.108145,"lon":6.978086},{"id":727334,"name":"berschweiler","country":"de","lat":49.333333,"lon":6.966667},{"id":931884,"name":"dollenbach","country":"fr","lat":49.102524,"lon":7.359311},{"id":919895,"name":"bauzemont","country":"fr","lat":48.674658,"lon":6.528332},{"id":767374,"name":"oberauerbach","country":"de","lat":49.283333,"lon":7.416667},{"id":975627,"name":"siewiller","country":"fr","lat":48.842247,"lon":7.203294},{"id":968385,"name":"saint-avold","country":"fr","lat":49.102696,"lon":6.700636},{"id":944089,"name":"laneuveville-aux-bois","country":"fr","lat":48.612614,"lon":6.652484},{"id":954092,"name":"lubecourt","country":"fr","lat":48.84368,"lon":6.515951},{"id":937907,"name":"guinzeling","country":"fr","lat":48.879632,"lon":6.843901},{"id":727941,"name":"biringen","country":"de","lat":49.416667,"lon":6.55},{"id":937626,"name":"grosbliederstroff","country":"fr","lat":49.156119,"lon":7.024709},{"id":982380,"name":"wolfskirchen","country":"fr","lat":48.881261,"lon":7.073052},{"id":938526,"name":"hellimer","country":"fr","lat":48.997118,"lon":6.828937},{"id":974918,"name":"schopperten","country":"fr","lat":48.94825,"lon":7.050539},{"id":927307,"name":"chateau-brehain","country":"fr","lat":48.90366,"lon":6.523653},{"id":916325,"name":"adamswiller","country":"fr","lat":48.904695,"lon":7.203063},{"id":982360,"name":"wittring","country":"fr","lat":49.053146,"lon":7.151515},{"id":740327,"name":"gennweiler","country":"de","lat":49.366667,"lon":7.05},{"id":753234,"name":"kirchmohr","country":"de","lat":49.466667,"lon":7.483333},{"id":747264,"name":"herschweilder","country":"de","lat":49.483333,"lon":7.35},{"id":953951,"name":"loupershouse","country":"fr","lat":49.082284,"lon":6.913555},{"id":730391,"name":"bruckweierhof","country":"de","lat":49.316667,"lon":7.233333},{"id":787962,"name":"walsheim","country":"de","lat":49.15,"lon":7.233333},{"id":786164,"name":"urexweiler","country":"de","lat":49.416667,"lon":7.066667},{"id":750073,"name":"hulzweiler","country":"de","lat":49.333333,"lon":6.816667},{"id":764394,"name":"neipel","country":"de","lat":49.483333,"lon":6.916667},{"id":958104,"name":"montbronn","country":"fr","lat":48.993923,"lon":7.310577},{"id":947857,"name":"leintrey","country":"fr","lat":48.623887,"lon":6.738541},{"id":749829,"name":"hosterhof","country":"de","lat":49.383333,"lon":7.05},{"id":727790,"name":"bietzen","country":"de","lat":49.416667,"lon":6.65},{"id":975620,"name":"siersthal","country":"fr","lat":49.042133,"lon":7.349703},{"id":965682,"name":"racrange","country":"fr","lat":48.921894,"lon":6.674418},{"id":938540,"name":"heming","country":"fr","lat":48.694113,"lon":6.960379},{"id":773463,"name":"rehlingen","country":"de","lat":49.383333,"lon":6.683333},{"id":938610,"name":"herbitzheim","country":"fr","lat":49.014072,"lon":7.090224},{"id":959698,"name":"munster","country":"fr","lat":48.915963,"lon":6.90256},{"id":752098,"name":"kaplaneihof","country":"de","lat":49.266667,"lon":7.333333},{"id":980291,"name":"vic-sur-seille","country":"fr","lat":48.782044,"lon":6.530807},{"id":976203,"name":"soultz-les-bains","country":"fr","lat":48.57103,"lon":7.487294},{"id":728955,"name":"bombacherhof","country":"de","lat":49.266667,"lon":7.366667},{"id":982381,"name":"wolmunster","country":"fr","lat":49.122005,"lon":7.356368},{"id":746846,"name":"hengstbach","country":"de","lat":49.216667,"lon":7.316667},{"id":932800,"name":"engenthal","country":"fr","lat":48.633397,"lon":7.296531},{"id":739295,"name":"frutzweiler","country":"de","lat":49.45,"lon":7.383333},{"id":789057,"name":"wellesweiler","country":"de","lat":49.35,"lon":7.233333},{"id":938372,"name":"haute-vigneulles","country":"fr","lat":49.101916,"lon":6.55673},{"id":937748,"name":"guenestroff","country":"fr","lat":48.826689,"lon":6.703884},{"id":745122,"name":"hangard","country":"de","lat":49.383333,"lon":7.216667},{"id":933823,"name":"farebersviller","country":"fr","lat":49.11996,"lon":6.872012},{"id":921290,"name":"bettwiller","country":"fr","lat":48.884001,"lon":7.181047},{"id":944212,"name":"languimberg","country":"fr","lat":48.74634,"lon":6.859398},{"id":959633,"name":"moyenvic","country":"fr","lat":48.778607,"lon":6.562321},{"id":768621,"name":"obersalbach","country":"de","lat":49.35,"lon":6.9},{"id":919044,"name":"azoudange","country":"fr","lat":48.739669,"lon":6.811631},{"id":982147,"name":"waldwiese","country":"fr","lat":49.414446,"lon":6.527353},{"id":919447,"name":"barbas","country":"fr","lat":48.573567,"lon":6.846968},{"id":979221,"name":"vaucourt","country":"fr","lat":48.66838,"lon":6.691446},{"id":974920,"name":"schreckling","country":"fr","lat":49.283333,"lon":6.616667},{"id":916819,"name":"altenheim","country":"fr","lat":48.719088,"lon":7.464164},{"id":982174,"name":"wangen","country":"fr","lat":48.61814,"lon":7.465701},{"id":745824,"name":"hauptstuhl","country":"de","lat":49.4,"lon":7.483333},{"id":948118,"name":"lemberg","country":"fr","lat":49.002782,"lon":7.379761},{"id":773708,"name":"reinheim","country":"de","lat":49.133333,"lon":7.183333},{"id":735264,"name":"ehlingen","country":"de","lat":49.2,"lon":7.166667},{"id":765938,"name":"niedaltdorf","country":"de","lat":49.35,"lon":6.6},{"id":924367,"name":"bures","country":"fr","lat":48.695735,"lon":6.57783},{"id":977278,"name":"thonville","country":"fr","lat":48.983803,"lon":6.562183},{"id":921264,"name":"bettborn","country":"fr","lat":48.799213,"lon":7.018381},{"id":933124,"name":"erstroff","country":"fr","lat":48.979838,"lon":6.773426},{"id":728384,"name":"bliesmengen","country":"de","lat":49.15,"lon":7.116667},{"id":938492,"name":"heiligenberg","country":"fr","lat":48.53809,"lon":7.389704},{"id":981540,"name":"villing","country":"fr","lat":49.279988,"lon":6.630004},{"id":938584,"name":"henriville","country":"fr","lat":49.097202,"lon":6.854888},{"id":937581,"name":"grindorff","country":"fr","lat":49.384504,"lon":6.518639},{"id":943676,"name":"lambach","country":"fr","lat":49.034185,"lon":7.359329},{"id":931469,"name":"danne-et-quatre-vents","country":"fr","lat":48.766557,"lon":7.293895},{"id":724860,"name":"assweiler","country":"de","lat":49.216667,"lon":7.183333},{"id":919105,"name":"badonviller","country":"fr","lat":48.501644,"lon":6.891476},{"id":954339,"name":"lutzelhouse","country":"fr","lat":48.51963,"lon":7.286093},{"id":938889,"name":"hommarting","country":"fr","lat":48.737337,"lon":7.14414},{"id":957534,"name":"mollkirch","country":"fr","lat":48.507572,"lon":7.385207},{"id":966078,"name":"reillon","country":"fr","lat":48.597066,"lon":6.739786},{"id":980466,"name":"vieux-stiring","country":"fr","lat":49.216667,"lon":6.933333},{"id":917849,"name":"arraincourt","country":"fr","lat":48.973317,"lon":6.533831},{"id":788338,"name":"webenheim","country":"de","lat":49.233333,"lon":7.266667},{"id":919784,"name":"bassing","country":"fr","lat":48.868962,"lon":6.801586},{"id":936755,"name":"gondrexange","country":"fr","lat":48.68452,"lon":6.925652},{"id":920545,"name":"bellange","country":"fr","lat":48.901118,"lon":6.581048},{"id":759078,"name":"limbach","country":"de","lat":49.316667,"lon":7.266667},{"id":779877,"name":"seyweiler","country":"de","lat":49.15,"lon":7.266667},{"id":938859,"name":"hoff","country":"fr","lat":48.746924,"lon":7.054451},{"id":923159,"name":"bousbach","country":"fr","lat":49.14955,"lon":6.949523},{"id":982251,"name":"weiterswiller","country":"fr","lat":48.853863,"lon":7.413388}]});