callback({"markets":[{"id":1222574,"name":"luweklean","country":"id","lat":-3.566667,"lon":130.866667},{"id":1273157,"name":"sera","country":"id","lat":-4.133333,"lon":131.333333},{"id":1265458,"name":"rumadan","country":"id","lat":-3.738889,"lon":130.85},{"id":1303031,"name":"urung","country":"id","lat":-3.816667,"lon":130.733333},{"id":1182022,"name":"gotta","country":"id","lat":-4.008333,"lon":131.416667},{"id":1205559,"name":"keta","country":"id","lat":-3.741667,"lon":130.85},{"id":1229738,"name":"miren","country":"id","lat":-4.016667,"lon":131.416667},{"id":1206120,"name":"kianlaut","country":"id","lat":-3.675,"lon":130.841667},{"id":1134812,"name":"angar","country":"id","lat":-3.65,"lon":130.833333},{"id":1277961,"name":"sisi","country":"id","lat":-4.066667,"lon":131.316667},{"id":1238795,"name":"oesoen","country":"id","lat":-3.966667,"lon":131.416667},{"id":1203114,"name":"kefing","country":"id","lat":-3.866667,"lon":130.833333},{"id":1279259,"name":"soeroe","country":"id","lat":-3.766667,"lon":130.833333},{"id":1293880,"name":"tinarin","country":"id","lat":-4.0,"lon":131.416667},{"id":1219384,"name":"liang tasik","country":"id","lat":-3.75,"lon":130.8},{"id":1206115,"name":"kiandarat","country":"id","lat":-3.65,"lon":130.8},{"id":1132480,"name":"adar","country":"id","lat":-3.983333,"lon":131.416667},{"id":1229525,"name":"mida","country":"id","lat":-4.033333,"lon":131.383333},{"id":1206361,"name":"kilaba","country":"id","lat":-3.633333,"lon":130.85},{"id":1135306,"name":"arbau","country":"id","lat":-4.066667,"lon":131.266667},{"id":1133364,"name":"akatpadede","country":"id","lat":-3.816667,"lon":130.7},{"id":1134216,"name":"amarwatu","country":"id","lat":-4.083333,"lon":131.45},{"id":1212543,"name":"kwamor-besar","country":"id","lat":-3.85,"lon":130.8},{"id":1198083,"name":"karang","country":"id","lat":-3.883333,"lon":130.95},{"id":1271029,"name":"selagor","country":"id","lat":-3.683333,"lon":130.8},{"id":1168852,"name":"dai","country":"id","lat":-4.066667,"lon":131.433333},{"id":1144873,"name":"bas","country":"id","lat":-4.016667,"lon":131.433333},{"id":1239237,"name":"ondur","country":"id","lat":-4.0,"lon":131.383333},{"id":1148896,"name":"besaranggi","country":"id","lat":-3.983333,"lon":131.216667},{"id":1200059,"name":"katloka","country":"id","lat":-3.983333,"lon":131.383333},{"id":1304298,"name":"walang tengah","country":"id","lat":-3.6,"lon":130.85},{"id":1273396,"name":"serra","country":"id","lat":-4.15,"lon":131.383333},{"id":1135383,"name":"argam","country":"id","lat":-3.983333,"lon":131.2},{"id":1289682,"name":"tarui","country":"id","lat":-3.558333,"lon":130.866667},{"id":1133156,"name":"air kasar","country":"id","lat":-3.55,"lon":130.833333},{"id":1225881,"name":"margat","country":"id","lat":-3.95,"lon":131.216667},{"id":1206464,"name":"kimui","country":"id","lat":-3.55,"lon":130.85},{"id":1176831,"name":"gah","country":"id","lat":-3.55,"lon":130.783333},{"id":1270704,"name":"sekaru","country":"id","lat":-3.95,"lon":131.4},{"id":1227014,"name":"mattelin","country":"id","lat":-4.133333,"lon":131.383333},{"id":1272137,"name":"sempoer","country":"id","lat":-3.983333,"lon":131.366667},{"id":1212544,"name":"kwamor-kecil","country":"id","lat":-3.866667,"lon":130.816667},{"id":1135530,"name":"aruan","country":"id","lat":-3.683333,"lon":130.85},{"id":1206389,"name":"kilesir","country":"id","lat":-3.6,"lon":130.883333},{"id":1194825,"name":"kamar","country":"id","lat":-3.783333,"lon":130.6},{"id":1203520,"name":"keluar","country":"id","lat":-4.066667,"lon":131.308333},{"id":1265448,"name":"ruku ruku","country":"id","lat":-4.0,"lon":131.233333},{"id":1206400,"name":"kilivo","country":"id","lat":-3.633333,"lon":130.833333},{"id":1307527,"name":"wisalen","country":"id","lat":-4.066667,"lon":131.233333},{"id":1212573,"name":"kwaos","country":"id","lat":-3.8,"lon":130.816667},{"id":1234526,"name":"nekan","country":"id","lat":-3.705833,"lon":130.536667},{"id":1135465,"name":"arnanan","country":"id","lat":-3.833333,"lon":130.783333},{"id":1233150,"name":"namalen","country":"id","lat":-3.95,"lon":131.416667},{"id":1186064,"name":"illoning","country":"id","lat":-4.116667,"lon":131.366667},{"id":1134206,"name":"amar","country":"id","lat":-4.1,"lon":131.3},{"id":1307731,"name":"woloek","country":"id","lat":-3.766667,"lon":130.6},{"id":1169266,"name":"danama","country":"id","lat":-3.583333,"lon":130.883333},{"id":1150158,"name":"bitorik","country":"id","lat":-3.8,"lon":130.7},{"id":1206392,"name":"kilgah","country":"id","lat":-3.625,"lon":130.85},{"id":1183068,"name":"guna","country":"id","lat":-3.8,"lon":130.666667},{"id":1271028,"name":"selagor kota","country":"id","lat":-3.7,"lon":130.85},{"id":1182824,"name":"gulegule","country":"id","lat":-3.85,"lon":130.766667},{"id":1232358,"name":"mungasinis","country":"id","lat":-3.816667,"lon":130.716667},{"id":1134180,"name":"amanau","country":"id","lat":-3.716667,"lon":130.833333},{"id":1284500,"name":"taa","country":"id","lat":-3.747778,"lon":130.588889},{"id":1238714,"name":"oendoer","country":"id","lat":-3.766667,"lon":130.583333},{"id":1186089,"name":"ilur","country":"id","lat":-4.05,"lon":131.4},{"id":1180646,"name":"gisser","country":"id","lat":-3.883333,"lon":130.9},{"id":1228518,"name":"mentjala","country":"id","lat":-4.066667,"lon":131.283333},{"id":1266629,"name":"salanwo","country":"id","lat":-4.016667,"lon":131.233333},{"id":1132778,"name":"afang","country":"id","lat":-3.726111,"lon":130.572222},{"id":1135526,"name":"artafeia","country":"id","lat":-3.658333,"lon":130.833333},{"id":1220757,"name":"lokka","country":"id","lat":-4.083333,"lon":131.35}]});