callback({"markets":[{"id":1394798,"name":"bidar","country":"ir","lat":33.595402,"lon":59.57302},{"id":1423411,"name":"gurak","country":"ir","lat":34.287219,"lon":60.046626},{"id":1411817,"name":"do chahi-ye `olya","country":"ir","lat":33.802222,"lon":59.705556},{"id":1379850,"name":"ab-e garm","country":"ir","lat":33.5,"lon":59.6},{"id":1398998,"name":"chah-e zul","country":"ir","lat":34.075953,"lon":60.201575},{"id":1468015,"name":"qal`eh masumabad","country":"ir","lat":33.504404,"lon":60.464366},{"id":1460733,"name":"neykhun","country":"ir","lat":33.908333,"lon":59.685278},{"id":1398498,"name":"chah-e gachchi-ye pa\u0027in","country":"ir","lat":34.238792,"lon":59.540655},{"id":1476165,"name":"rud-e ahmad","country":"ir","lat":33.6,"lon":59.933333},{"id":1434310,"name":"kalateh-ye gholam reza","country":"ir","lat":33.5,"lon":59.816667},{"id":1456153,"name":"mohabad","country":"ir","lat":34.394722,"lon":59.606111},{"id":1398842,"name":"chah-e sar","country":"ir","lat":34.428281,"lon":59.600381},{"id":1473018,"name":"qoleh-ye shahneshin","country":"ir","lat":34.335556,"lon":59.654722},{"id":1484334,"name":"shahrak-e jadid-e kheltabad","country":"ir","lat":34.245141,"lon":59.644587},{"id":1428046,"name":"hoseynabad-e bala","country":"ir","lat":33.587222,"lon":59.934444},{"id":1412107,"name":"do nakhi","country":"ir","lat":34.077359,"lon":59.80657},{"id":1475642,"name":"robat-e kal-e jangi","country":"ir","lat":34.408333,"lon":59.642778},{"id":1483304,"name":"shaghalan","country":"ir","lat":33.733333,"lon":59.833333},{"id":1393739,"name":"behdadin","country":"ir","lat":34.201115,"lon":60.187353},{"id":1417048,"name":"gale sorkh","country":"ir","lat":34.073889,"lon":59.731111},{"id":1441398,"name":"khatibi","country":"ir","lat":33.573473,"lon":59.776927},{"id":1461226,"name":"nohur","country":"ir","lat":33.933333,"lon":60.166667},{"id":1393840,"name":"behsani","country":"ir","lat":34.479095,"lon":60.055009},{"id":1434680,"name":"kalateh-ye nowdeh","country":"ir","lat":33.659923,"lon":59.960772},{"id":1434645,"name":"kalateh-ye mostafa","country":"ir","lat":33.62578,"lon":60.298867},{"id":1384275,"name":"amirabad","country":"ir","lat":34.012619,"lon":59.746388},{"id":1461105,"name":"nishafun","country":"ir","lat":34.434529,"lon":60.177527},{"id":1476252,"name":"rudkhaneh-ye fasli","country":"ir","lat":33.854722,"lon":59.785},{"id":1419683,"name":"gertigh","country":"ir","lat":33.837701,"lon":59.646425},{"id":1484332,"name":"shahrak-e jadid-e chah-e gachchi","country":"ir","lat":34.241134,"lon":59.54857},{"id":1464502,"name":"pas bamrud","country":"ir","lat":33.746433,"lon":60.12602},{"id":1440233,"name":"khaltabad","country":"ir","lat":34.249722,"lon":59.652222},{"id":1399012,"name":"chah gachi","country":"ir","lat":34.246111,"lon":59.539167},{"id":1399217,"name":"chah kondeh-ye bala","country":"ir","lat":34.273333,"lon":59.540556},{"id":1407834,"name":"dawat","country":"ir","lat":33.594473,"lon":59.558148},{"id":1420193,"name":"ghazanfari","country":"ir","lat":34.18233,"lon":59.844245},{"id":1443198,"name":"khur-i-sarhang","country":"ir","lat":33.683333,"lon":60.0},{"id":1441633,"name":"kheltabad","country":"ir","lat":34.245832,"lon":59.652064},{"id":1446220,"name":"kuh-e now","country":"ir","lat":33.58461,"lon":59.934129},{"id":1434924,"name":"kalateh-ye zard","country":"ir","lat":33.856667,"lon":59.881667},{"id":1461102,"name":"nishabad","country":"ir","lat":34.216111,"lon":59.570833},{"id":1398494,"name":"chah-e fazlollah ahmadi","country":"ir","lat":33.620774,"lon":60.284256},{"id":1489897,"name":"soltanabad","country":"ir","lat":34.21301,"lon":59.971715},{"id":1404265,"name":"dahaneh-ye zehan","country":"ir","lat":33.727222,"lon":59.5475},{"id":1414093,"name":"esfad","country":"ir","lat":33.733828,"lon":59.941068},{"id":1466440,"name":"posht-e sabad","country":"ir","lat":34.447793,"lon":60.092323},{"id":1398655,"name":"chah-e kond","country":"ir","lat":34.269386,"lon":59.539584},{"id":1396516,"name":"boqra","country":"ir","lat":33.515752,"lon":60.067603},{"id":1417967,"name":"garmab-e vosta","country":"ir","lat":33.881777,"lon":59.704757},{"id":1393558,"name":"bazguy","country":"ir","lat":34.485076,"lon":60.057977},{"id":1394756,"name":"bidaftari","country":"ir","lat":34.191221,"lon":60.190667},{"id":1444803,"name":"kolnisabad","country":"ir","lat":34.174009,"lon":60.208111},{"id":1387250,"name":"asiab","country":"ir","lat":33.816667,"lon":60.183333},{"id":1380160,"name":"abiz","country":"ir","lat":33.686679,"lon":59.948035},{"id":1399262,"name":"chah matar","country":"ir","lat":34.128237,"lon":59.841372},{"id":1489527,"name":"sistanak","country":"ir","lat":33.627648,"lon":59.622503},{"id":1473090,"name":"qolleh-ye siah kuleh","country":"ir","lat":34.2475,"lon":59.651667},{"id":1414162,"name":"esfaraq","country":"ir","lat":33.51028,"lon":60.024771},{"id":1392977,"name":"bashiran","country":"ir","lat":33.551667,"lon":59.950611},{"id":1434718,"name":"kalateh-ye pishkuh","country":"ir","lat":33.704253,"lon":59.811845},{"id":1396524,"name":"borabad","country":"ir","lat":34.421147,"lon":60.23773},{"id":1435349,"name":"kal-e tigh ab","country":"ir","lat":33.829444,"lon":59.756389},{"id":1392564,"name":"barkah","country":"ir","lat":34.072409,"lon":59.687808},{"id":1495387,"name":"tiz kuh","country":"ir","lat":33.540571,"lon":59.560901},{"id":1429527,"name":"istind","country":"ir","lat":33.854012,"lon":59.833336},{"id":1453616,"name":"mazra`eh-ye movaqat-e `abbasi","country":"ir","lat":33.738611,"lon":59.813889},{"id":1414171,"name":"esfedan","country":"ir","lat":33.645062,"lon":59.778094},{"id":1484331,"name":"shahrak-e jadid-e `aliabad","country":"ir","lat":34.216221,"lon":59.966203},{"id":1398847,"name":"chah-e sarshekuh","country":"ir","lat":33.627222,"lon":59.623056},{"id":1457056,"name":"monavari","country":"ir","lat":33.523422,"lon":59.598049},{"id":1424087,"name":"hafazabad","country":"ir","lat":34.493286,"lon":60.039734},{"id":1409562,"name":"deh khatib","country":"ir","lat":34.11005,"lon":59.753866},{"id":1399218,"name":"chah kondeh-ye pa\u0027in","country":"ir","lat":34.2925,"lon":59.528889},{"id":1415538,"name":"farakhi","country":"ir","lat":33.830036,"lon":59.530141},{"id":1450848,"name":"majnabad","country":"ir","lat":34.11309,"lon":60.095754},{"id":1399457,"name":"chah shatt","country":"ir","lat":33.861372,"lon":60.027907},{"id":1402586,"name":"cheshmeh marar","country":"ir","lat":34.403873,"lon":60.088374},{"id":1429963,"name":"jahanabad","country":"ir","lat":34.436293,"lon":59.828601},{"id":1399079,"name":"chah-i-bagh-bakhshi","country":"ir","lat":34.459722,"lon":59.526111},{"id":1428857,"name":"ibrahimi","country":"ir","lat":34.285604,"lon":59.87243},{"id":1389893,"name":"bahanabad","country":"ir","lat":33.813824,"lon":59.877788},{"id":1425713,"name":"harashi","country":"ir","lat":34.408792,"lon":60.103061},{"id":1399069,"name":"chah howz","country":"ir","lat":34.168889,"lon":59.562222},{"id":1467391,"name":"qal`eh aqa haji","country":"ir","lat":33.928218,"lon":59.588755},{"id":1467713,"name":"qal`eh ha","country":"ir","lat":34.108889,"lon":59.756944},{"id":1398656,"name":"chah-e kondeh-ye bala","country":"ir","lat":34.270155,"lon":59.534013},{"id":1386228,"name":"arg-e mir qalandar","country":"ir","lat":34.156026,"lon":59.916792},{"id":1491816,"name":"taj kuh","country":"ir","lat":33.512942,"lon":60.053937},{"id":1398884,"name":"chah-e sherakat","country":"ir","lat":33.533333,"lon":59.516667},{"id":1381083,"name":"afih","country":"ir","lat":33.525349,"lon":59.746898},{"id":1434298,"name":"kalateh-ye garizan-e pa\u0027in","country":"ir","lat":33.883889,"lon":59.866111},{"id":1469324,"name":"qal`eh-ye rud","country":"ir","lat":33.612222,"lon":59.887222},{"id":1476557,"name":"ruzan","country":"ir","lat":34.351933,"lon":59.871459},{"id":1428585,"name":"hujjatabad","country":"ir","lat":33.583333,"lon":59.983333},{"id":1446208,"name":"kuh-e mirza","country":"ir","lat":33.716667,"lon":59.85},{"id":1386685,"name":"asadabad-e pa\u0027in khavaf","country":"ir","lat":34.386241,"lon":59.917767},{"id":1434320,"name":"kalateh-ye guryab","country":"ir","lat":34.424932,"lon":60.346717},{"id":1452787,"name":"mashku bala","country":"ir","lat":34.120556,"lon":59.741944},{"id":1392558,"name":"barka\u0027","country":"ir","lat":34.077778,"lon":59.687778},{"id":1446439,"name":"kuh vand","country":"ir","lat":33.666667,"lon":59.9},{"id":1502584,"name":"ziyarat","country":"ir","lat":33.75,"lon":59.85},{"id":1408795,"name":"deh-e malek","country":"ir","lat":34.248056,"lon":59.719722},{"id":1393836,"name":"behrjak","country":"ir","lat":34.102017,"lon":59.763983},{"id":1484821,"name":"shahrakt","country":"ir","lat":33.633622,"lon":60.273408},{"id":1396452,"name":"bonyabad","country":"ir","lat":34.080308,"lon":59.876189},{"id":1390998,"name":"banamrud","country":"ir","lat":33.640485,"lon":60.078125},{"id":1434748,"name":"kalateh-ye qayeni","country":"ir","lat":33.560959,"lon":59.50385},{"id":1425306,"name":"hamidabad","country":"ir","lat":34.22442,"lon":59.833749},{"id":1434299,"name":"kalateh-ye garizan","country":"ir","lat":33.889934,"lon":59.813704},{"id":1432245,"name":"kabir kuh","country":"ir","lat":34.155,"lon":59.774444},{"id":1399736,"name":"chakpai ab","country":"ir","lat":33.867564,"lon":60.066128},{"id":1453942,"name":"mehrabad","country":"ir","lat":34.108333,"lon":59.893821},{"id":1469465,"name":"qal`eh-ye sorkh","country":"ir","lat":34.070007,"lon":59.729241},{"id":1434523,"name":"kalateh-ye lokhi","country":"ir","lat":34.107897,"lon":59.602349},{"id":1432341,"name":"kabutar khu","country":"ir","lat":33.785278,"lon":59.771944},{"id":1438010,"name":"karpun","country":"ir","lat":34.13368,"lon":60.112911},{"id":1394670,"name":"biasabad","country":"ir","lat":34.308043,"lon":60.049451},{"id":1417149,"name":"galugah-e asiu","country":"ir","lat":34.016667,"lon":59.75},{"id":1467723,"name":"qal`ehha-ye maskuni","country":"ir","lat":34.116992,"lon":59.746753},{"id":1460681,"name":"neyazabad","country":"ir","lat":34.230901,"lon":60.244396},{"id":1489036,"name":"sich","country":"ir","lat":33.606855,"lon":59.908865},{"id":1398638,"name":"chah-e khesht","country":"ir","lat":34.156116,"lon":59.566416},{"id":1434122,"name":"kalateh-ye `alireza","country":"ir","lat":33.5,"lon":59.833333},{"id":1416402,"name":"findukht","country":"ir","lat":33.79126,"lon":59.895838},{"id":1455285,"name":"mirabad","country":"ir","lat":33.746082,"lon":59.926296},{"id":1441083,"name":"khargardak","country":"ir","lat":34.348611,"lon":59.921389},{"id":1392376,"name":"barenjkan","country":"ir","lat":33.608786,"lon":60.427201},{"id":1478456,"name":"sangan pa\u0027in","country":"ir","lat":34.39851,"lon":60.257984},{"id":1398497,"name":"chah-e gachchi-ye bala","country":"ir","lat":34.245622,"lon":59.537381},{"id":1498467,"name":"vazan","country":"ir","lat":34.467928,"lon":60.074388},{"id":1401968,"name":"chenaran","country":"ir","lat":33.65335,"lon":59.938235},{"id":1389286,"name":"bagh-e bakhshi","country":"ir","lat":34.454034,"lon":59.525988},{"id":1398396,"name":"chah-e `ata","country":"ir","lat":34.1925,"lon":59.536667},{"id":1483437,"name":"shahaz kuh","country":"ir","lat":33.630278,"lon":59.860278},{"id":1483929,"name":"shahneshin","country":"ir","lat":34.336389,"lon":59.655},{"id":1434519,"name":"kalateh-ye lakhi","country":"ir","lat":34.131389,"lon":59.660556},{"id":1416802,"name":"gadal","country":"ir","lat":33.616667,"lon":60.366667},{"id":1450110,"name":"mahabad","country":"ir","lat":34.41512,"lon":59.551812},{"id":1424278,"name":"hajabad","country":"ir","lat":33.604956,"lon":59.993404},{"id":1386882,"name":"asfenden","country":"ir","lat":33.646177,"lon":59.77762},{"id":1413319,"name":"dustabad","country":"ir","lat":33.606369,"lon":59.931811},{"id":1434297,"name":"kalateh-ye garizan-e bala","country":"ir","lat":33.875833,"lon":59.793333},{"id":1398657,"name":"chah-e kondeh-ye pa\u0027in","country":"ir","lat":34.284463,"lon":59.520289},{"id":1434553,"name":"kalateh-ye mehrak","country":"ir","lat":33.584987,"lon":59.930379},{"id":1454347,"name":"meshkinabad","country":"ir","lat":34.218225,"lon":60.229151},{"id":1495034,"name":"tigab","country":"ir","lat":33.859736,"lon":59.735045},{"id":1485039,"name":"shahrokh","country":"ir","lat":34.299631,"lon":59.660865},{"id":1458638,"name":"naderi","country":"ir","lat":34.483333,"lon":60.483333},{"id":1402803,"name":"cheshmeh-ye chang","country":"ir","lat":34.471427,"lon":60.480944}]});