callback({"markets":[{"id":2025063,"name":"skruwarban","country":"ni","lat":14.3333333,"lon":-83.8},{"id":2022702,"name":"cuarenta y tres","country":"ni","lat":14.1166667,"lon":-83.65},{"id":2024124,"name":"manihuatla","country":"ni","lat":14.1,"lon":-83.6333333},{"id":1067518,"name":"hacienda de santiago","country":"gt","lat":14.433333,"lon":-83.566667},{"id":2022387,"name":"bocas del toro","country":"ni","lat":14.4,"lon":-83.8833333},{"id":2023365,"name":"huanta","country":"ni","lat":13.55,"lon":-83.5333333},{"id":2022281,"name":"aserradero sanders","country":"ni","lat":14.1,"lon":-83.55},{"id":2022626,"name":"cocoland","country":"ni","lat":14.45,"lon":-83.9166667},{"id":2023751,"name":"la rosita","country":"ni","lat":13.8833333,"lon":-84.4},{"id":2023933,"name":"layasixa","country":"ni","lat":13.6666667,"lon":-83.7},{"id":2023489,"name":"kuyu tingni","country":"ni","lat":14.4833333,"lon":-83.9166667},{"id":2024097,"name":"luciana","country":"ni","lat":14.3833333,"lon":-83.8833333},{"id":2024966,"name":"santa marta","country":"ni","lat":14.3,"lon":-83.6333333},{"id":2025331,"name":"wakaban","country":"ni","lat":14.0833333,"lon":-83.5833333},{"id":2022516,"name":"casa sola","country":"ni","lat":14.3666667,"lon":-83.65},{"id":2022433,"name":"but tara","country":"ni","lat":14.1833333,"lon":-83.55},{"id":2023391,"name":"isnawas","country":"ni","lat":13.8,"lon":-83.75},{"id":2025043,"name":"seven benk","country":"ni","lat":14.2,"lon":-83.6333333},{"id":2023475,"name":"kugna","country":"ni","lat":13.9666667,"lon":-83.6333333},{"id":2022294,"name":"auya pihni","country":"ni","lat":14.3,"lon":-83.6},{"id":2023271,"name":"fruta de pan","country":"ni","lat":13.9666667,"lon":-84.4166667},{"id":2022736,"name":"dakban","country":"ni","lat":14.05,"lon":-83.5166667},{"id":2025378,"name":"yabaltara","country":"ni","lat":13.6,"lon":-83.9166667},{"id":2025342,"name":"warnata","country":"ni","lat":14.3666667,"lon":-83.5666667},{"id":2024181,"name":"mine castro","country":"ni","lat":14.1166667,"lon":-83.95},{"id":2023701,"name":"lapan","country":"ni","lat":13.8666667,"lon":-83.7666667},{"id":2024816,"name":"sannilaya lakus","country":"ni","lat":14.2666667,"lon":-83.6666667},{"id":2025395,"name":"yulu","country":"ni","lat":14.0666667,"lon":-83.5833333},{"id":2022296,"name":"auyatara","country":"ni","lat":14.3,"lon":-83.65},{"id":2023389,"name":"iskri","country":"ni","lat":13.8666667,"lon":-83.5833333},{"id":2023434,"name":"kakaubila","country":"ni","lat":13.6166667,"lon":-84.0166667},{"id":2025128,"name":"tee kamp","country":"ni","lat":14.4833333,"lon":-83.9833333},{"id":2025366,"name":"wiwas","country":"ni","lat":14.4,"lon":-83.7833333},{"id":2025223,"name":"ukunni","country":"ni","lat":14.15,"lon":-83.6166667},{"id":2024237,"name":"murubila","country":"ni","lat":14.4333333,"lon":-84.4833333},{"id":2024497,"name":"quaquel","country":"ni","lat":14.2166667,"lon":-83.5166667},{"id":2022300,"name":"awastingni","country":"ni","lat":14.3666667,"lon":-83.95},{"id":2024325,"name":"palmera","country":"ni","lat":13.6,"lon":-84.35},{"id":2022625,"name":"coco haulover","country":"ni","lat":13.7,"lon":-83.5166667},{"id":2023473,"name":"kuculalia","country":"ni","lat":13.7,"lon":-83.7},{"id":2025379,"name":"yablis","country":"ni","lat":14.1666667,"lon":-83.8166667},{"id":2022218,"name":"alamicamba","country":"ni","lat":13.5,"lon":-84.2166667},{"id":2025058,"name":"sisin","country":"ni","lat":14.2666667,"lon":-83.55},{"id":2022927,"name":"el empalme","country":"ni","lat":13.6666667,"lon":-84.45}]});