callback({"markets":[{"id":2103021,"name":"anepahan","country":"ph","lat":9.7311,"lon":118.4643},{"id":2147670,"name":"totobaen","country":"ph","lat":9.7268,"lon":118.45},{"id":2133620,"name":"napsahan","country":"ph","lat":9.730278,"lon":118.463611},{"id":2103460,"name":"apurawan","country":"ph","lat":9.5994,"lon":118.3489},{"id":2124168,"name":"kulangdanum","country":"ph","lat":9.5532,"lon":118.3154},{"id":2108836,"name":"bobosawen","country":"ph","lat":9.6612,"lon":118.395}]});