callback({"markets":[{"id":3158128,"name":"kasenda","country":"zr","lat":-6.4166667,"lon":25.1666667},{"id":363316,"name":"konia","country":"cd","lat":-6.366667,"lon":24.683333},{"id":358424,"name":"kaba-kongolo","country":"cd","lat":-6.183333,"lon":24.716667},{"id":3158039,"name":"kasamba","country":"zr","lat":-6.45,"lon":24.8166667},{"id":369753,"name":"niama-tshambwe","country":"cd","lat":-6.45,"lon":25.066667},{"id":364119,"name":"loanga","country":"cd","lat":-5.816667,"lon":24.683333},{"id":352671,"name":"bala","country":"cd","lat":-6.1,"lon":24.833333},{"id":3157647,"name":"kangeshi-muite","country":"zr","lat":-6.3166667,"lon":24.7},{"id":356732,"name":"ebambi","country":"cd","lat":-5.5,"lon":24.583333},{"id":359708,"name":"kampenge","country":"cd","lat":-5.9,"lon":24.85},{"id":3163929,"name":"mashiba","country":"zr","lat":-6.35,"lon":25.4333333},{"id":3159149,"name":"kibombe","country":"zr","lat":-6.2166667,"lon":24.6666667},{"id":364593,"name":"lubondaie","country":"cd","lat":-5.666667,"lon":24.833333},{"id":3156985,"name":"kalembeye","country":"zr","lat":-5.8,"lon":25.3333333},{"id":3154655,"name":"elangula","country":"zr","lat":-6.0833333,"lon":24.9833333},{"id":3154755,"name":"epamba","country":"zr","lat":-6.25,"lon":25.2833333},{"id":3156924,"name":"kalamba","country":"zr","lat":-5.9333333,"lon":24.9333333},{"id":3157093,"name":"kalonda-eshimba","country":"zr","lat":-5.8333333,"lon":24.7},{"id":3162346,"name":"luboya","country":"zr","lat":-6.4166667,"lon":24.7833333},{"id":3151195,"name":"bemane","country":"zr","lat":-5.9833333,"lon":24.75},{"id":371604,"name":"senge","country":"cd","lat":-6.316667,"lon":25.15},{"id":3157329,"name":"kambila","country":"zr","lat":-6.4333333,"lon":24.95},{"id":3156411,"name":"kaboya","country":"zr","lat":-6.4,"lon":25.1666667},{"id":366169,"name":"mase","country":"cd","lat":-5.816667,"lon":25.016667},{"id":3168502,"name":"peshi","country":"zr","lat":-5.6833333,"lon":24.75},{"id":365264,"name":"luwayo","country":"cd","lat":-6.416667,"lon":24.95},{"id":370790,"name":"piani gongo","country":"cd","lat":-5.85,"lon":25.166667},{"id":360839,"name":"katunga","country":"cd","lat":-6.083333,"lon":24.683333},{"id":355916,"name":"butu","country":"cd","lat":-5.733333,"lon":25.45},{"id":363024,"name":"kitume","country":"cd","lat":-6.266667,"lon":25.016667},{"id":3169131,"name":"sangwa","country":"zr","lat":-5.8666667,"lon":25.4833333},{"id":3160692,"name":"kitole","country":"zr","lat":-6.0333333,"lon":25.35},{"id":3153309,"name":"bulanda","country":"zr","lat":-5.7666667,"lon":25.1166667},{"id":356225,"name":"dibaya","country":"cd","lat":-5.516667,"lon":24.65},{"id":3160493,"name":"kishi","country":"zr","lat":-6.15,"lon":25.1166667},{"id":358442,"name":"kabamba-bakili","country":"cd","lat":-5.866667,"lon":25.166667},{"id":3157834,"name":"kapakana","country":"zr","lat":-6.0666667,"lon":24.6833333},{"id":3157534,"name":"kamweno","country":"zr","lat":-6.05,"lon":25.1166667},{"id":3166025,"name":"mumbu","country":"zr","lat":-6.45,"lon":25.1166667},{"id":3160661,"name":"kitentame","country":"zr","lat":-6.4833333,"lon":24.7},{"id":3159646,"name":"kimabwa","country":"zr","lat":-5.9,"lon":24.9166667},{"id":3162319,"name":"lubishi","country":"zr","lat":-6.4833333,"lon":25.0833333},{"id":3157262,"name":"kamani","country":"zr","lat":-5.5,"lon":24.9333333},{"id":3168528,"name":"piani kasongo","country":"zr","lat":-6.0333333,"lon":25.0333333},{"id":3154998,"name":"gabo","country":"zr","lat":-6.3833333,"lon":24.65},{"id":3159111,"name":"kibi","country":"zr","lat":-6.0666667,"lon":24.6333333},{"id":3159550,"name":"kileo","country":"zr","lat":-5.7166667,"lon":25.2166667},{"id":3153284,"name":"bukula","country":"zr","lat":-5.8166667,"lon":24.5333333},{"id":3166198,"name":"musangie","country":"zr","lat":-6.2666667,"lon":24.5166667},{"id":3154806,"name":"eshilu","country":"zr","lat":-5.5833333,"lon":25.3166667},{"id":3159904,"name":"kina","country":"zr","lat":-6.1166667,"lon":25.0},{"id":362849,"name":"kitabo ii","country":"cd","lat":-6.416667,"lon":24.883333},{"id":3160368,"name":"kipushia","country":"zr","lat":-6.1666667,"lon":25.2},{"id":365767,"name":"malenge","country":"cd","lat":-6.283333,"lon":25.083333},{"id":3161108,"name":"koto","country":"zr","lat":-5.8166667,"lon":25.0},{"id":3162244,"name":"lubale","country":"zr","lat":-5.6,"lon":25.05},{"id":3159069,"name":"kibanga","country":"zr","lat":-6.2833333,"lon":25.3833333},{"id":366895,"name":"miombe mwavi i","country":"cd","lat":-5.883333,"lon":24.616667},{"id":3161650,"name":"lifuku","country":"zr","lat":-6.0,"lon":24.95},{"id":357069,"name":"eshimba","country":"cd","lat":-5.933333,"lon":24.766667},{"id":364932,"name":"lulonge","country":"cd","lat":-5.933333,"lon":25.033333},{"id":372284,"name":"tala-ejiba","country":"cd","lat":-6.4,"lon":24.583333},{"id":352972,"name":"bantamba","country":"cd","lat":-6.233333,"lon":25.066667},{"id":368190,"name":"mulo","country":"cd","lat":-5.883333,"lon":25.3},{"id":3160686,"name":"kitoka","country":"zr","lat":-6.0,"lon":24.6666667},{"id":3160318,"name":"kipase ii","country":"zr","lat":-6.4833333,"lon":25.0166667},{"id":370741,"name":"penge","country":"cd","lat":-5.516667,"lon":24.616667},{"id":357261,"name":"gabo","country":"cd","lat":-6.383333,"lon":24.65},{"id":3165489,"name":"mudinda","country":"zr","lat":-5.5166667,"lon":24.9},{"id":361539,"name":"kifuse","country":"cd","lat":-6.033333,"lon":24.6},{"id":3158025,"name":"kasakula","country":"zr","lat":-6.45,"lon":25.1833333},{"id":358769,"name":"kabwe ii","country":"cd","lat":-6.216667,"lon":25.366667},{"id":3160502,"name":"kishungu","country":"zr","lat":-6.1166667,"lon":25.1333333},{"id":3154467,"name":"ebambangi","country":"zr","lat":-5.6,"lon":25.3166667},{"id":362579,"name":"kipasa","country":"cd","lat":-6.483333,"lon":25.016667},{"id":3153654,"name":"butu","country":"zr","lat":-5.7333333,"lon":25.45},{"id":357201,"name":"fuila","country":"cd","lat":-6.433333,"lon":25.366667},{"id":361090,"name":"kembe","country":"cd","lat":-5.966667,"lon":25.15},{"id":369070,"name":"mwelaye","country":"cd","lat":-6.3,"lon":25.066667},{"id":3162530,"name":"lukanga","country":"zr","lat":-6.3,"lon":25.4666667},{"id":359248,"name":"kalembeye","country":"cd","lat":-5.8,"lon":25.333333},{"id":358664,"name":"kabongo-sankuru","country":"cd","lat":-5.766667,"lon":24.533333},{"id":3168411,"name":"pembwe","country":"zr","lat":-6.1833333,"lon":25.2166667},{"id":3158241,"name":"kasolo","country":"zr","lat":-6.2666667,"lon":25.35},{"id":3163906,"name":"mase","country":"zr","lat":-5.8166667,"lon":25.0166667},{"id":353139,"name":"bashimike","country":"cd","lat":-5.85,"lon":24.533333},{"id":3158489,"name":"katombe","country":"zr","lat":-6.4166667,"lon":25.4166667},{"id":361617,"name":"kikashi","country":"cd","lat":-6.016667,"lon":24.95},{"id":364936,"name":"lulu-eshimba","country":"cd","lat":-5.916667,"lon":24.75},{"id":362949,"name":"kitoka","country":"cd","lat":-6.0,"lon":24.666667},{"id":358110,"name":"inga tambwe","country":"cd","lat":-5.916667,"lon":25.45},{"id":357105,"name":"etombole","country":"cd","lat":-5.666667,"lon":24.583333},{"id":3168284,"name":"pampi","country":"zr","lat":-5.7,"lon":25.0166667},{"id":3154470,"name":"ebambi","country":"zr","lat":-5.5,"lon":24.5833333},{"id":370674,"name":"pembwe","country":"cd","lat":-6.183333,"lon":25.216667},{"id":3150853,"name":"basase","country":"zr","lat":-5.6333333,"lon":24.5833333},{"id":369794,"name":"nienga","country":"cd","lat":-6.266667,"lon":24.633333},{"id":370791,"name":"piani kasongo","country":"cd","lat":-6.033333,"lon":25.033333},{"id":357067,"name":"eshiba","country":"cd","lat":-6.166667,"lon":24.583333},{"id":356891,"name":"ekunduye","country":"cd","lat":-5.666667,"lon":25.366667},{"id":356968,"name":"elumba","country":"cd","lat":-5.95,"lon":25.016667},{"id":3166603,"name":"mwafi","country":"zr","lat":-6.1166667,"lon":24.9},{"id":3153441,"name":"bunguvu","country":"zr","lat":-6.0333333,"lon":24.6333333},{"id":353926,"name":"biongwe","country":"cd","lat":-6.1,"lon":25.433333},{"id":3157222,"name":"kamaka","country":"zr","lat":-5.9833333,"lon":24.9333333},{"id":3159068,"name":"kibandila","country":"zr","lat":-6.45,"lon":25.2166667},{"id":360359,"name":"kasase","country":"cd","lat":-5.566667,"lon":25.066667},{"id":365627,"name":"makonga","country":"cd","lat":-6.366667,"lon":24.966667},{"id":3154938,"name":"fuila","country":"zr","lat":-6.4333333,"lon":25.3666667},{"id":362090,"name":"kimpampa","country":"cd","lat":-6.233333,"lon":24.7},{"id":3156997,"name":"kalenda-kania","country":"zr","lat":-5.9166667,"lon":25.0666667},{"id":358487,"name":"kabangu-sapidi","country":"cd","lat":-6.183333,"lon":24.883333},{"id":3157684,"name":"kaniange","country":"zr","lat":-5.9166667,"lon":24.5666667},{"id":363190,"name":"kolobeye","country":"cd","lat":-5.55,"lon":24.983333},{"id":362915,"name":"kitenge","country":"cd","lat":-5.866667,"lon":24.966667},{"id":3157246,"name":"kamandaie","country":"zr","lat":-6.4666667,"lon":24.55},{"id":3154843,"name":"etombole","country":"zr","lat":-5.6666667,"lon":24.5833333},{"id":3155134,"name":"gefu-a-kale","country":"zr","lat":-6.3166667,"lon":24.9666667},{"id":3167311,"name":"ngey","country":"zr","lat":-5.7333333,"lon":24.55},{"id":3165663,"name":"mukia","country":"zr","lat":-5.9333333,"lon":25.25},{"id":3159113,"name":"kibila","country":"zr","lat":-6.45,"lon":24.5833333},{"id":3168296,"name":"panda","country":"zr","lat":-6.05,"lon":24.5833333},{"id":3150287,"name":"bajimike","country":"zr","lat":-5.85,"lon":24.5333333},{"id":3164632,"name":"miombe mwavi i","country":"zr","lat":-5.8833333,"lon":24.6166667},{"id":3159276,"name":"kifuse","country":"zr","lat":-6.0333333,"lon":24.6},{"id":359947,"name":"kaniange","country":"cd","lat":-5.916667,"lon":24.566667},{"id":372111,"name":"sowe","country":"cd","lat":-6.1,"lon":24.533333},{"id":360504,"name":"kasolo","country":"cd","lat":-6.266667,"lon":25.35},{"id":3153963,"name":"dibaya","country":"zr","lat":-5.5166667,"lon":24.65},{"id":3162673,"name":"lulu-eshimba","country":"zr","lat":-5.9166667,"lon":24.75},{"id":3155847,"name":"inga tambwe","country":"zr","lat":-5.9166667,"lon":25.45},{"id":368288,"name":"mumbu","country":"cd","lat":-6.45,"lon":25.116667},{"id":3170495,"name":"tshibata","country":"zr","lat":-5.5833333,"lon":24.6},{"id":3167487,"name":"niama-musoku","country":"zr","lat":-6.3833333,"lon":24.8333333},{"id":3153341,"name":"bulu","country":"zr","lat":-6.1833333,"lon":25.3166667},{"id":3170932,"name":"tshungu lomami","country":"zr","lat":-6.2,"lon":25.4},{"id":356318,"name":"dimbo","country":"cd","lat":-5.65,"lon":25.433333},{"id":362955,"name":"kitole","country":"cd","lat":-6.033333,"lon":25.35},{"id":362924,"name":"kitentame","country":"cd","lat":-6.483333,"lon":24.7},{"id":365150,"name":"lusasa","country":"cd","lat":-6.15,"lon":24.683333},{"id":3165766,"name":"mukundji","country":"zr","lat":-5.75,"lon":25.4},{"id":3156506,"name":"kabwe ii","country":"zr","lat":-6.2166667,"lon":25.3666667},{"id":360719,"name":"katenta","country":"cd","lat":-6.166667,"lon":25.2},{"id":3159827,"name":"kimpampa","country":"zr","lat":-6.2333333,"lon":24.7},{"id":369560,"name":"nge","country":"cd","lat":-5.716667,"lon":24.816667},{"id":365171,"name":"lushiba","country":"cd","lat":-6.016667,"lon":25.383333},{"id":3160287,"name":"kiopona","country":"zr","lat":-6.2,"lon":25.0666667},{"id":360752,"name":"katombe","country":"cd","lat":-6.416667,"lon":25.416667},{"id":362850,"name":"kitabo i","country":"cd","lat":-6.433333,"lon":24.933333},{"id":3169374,"name":"sewe","country":"zr","lat":-6.1,"lon":24.5333333},{"id":3150411,"name":"balabala","country":"zr","lat":-6.0166667,"lon":24.5166667},{"id":365719,"name":"malango","country":"cd","lat":-5.783333,"lon":24.833333},{"id":369574,"name":"ngey","country":"cd","lat":-5.733333,"lon":24.55},{"id":3167531,"name":"nienga","country":"zr","lat":-6.2666667,"lon":24.6333333},{"id":364458,"name":"lualaba-kasaba","country":"cd","lat":-6.35,"lon":24.533333},{"id":362550,"name":"kiopona","country":"cd","lat":-6.2,"lon":25.066667},{"id":3154629,"name":"ekunduye","country":"zr","lat":-5.6666667,"lon":25.3666667},{"id":3159469,"name":"kikusa","country":"zr","lat":-6.3666667,"lon":25.1166667},{"id":3160586,"name":"kitabo ii","country":"zr","lat":-6.4166667,"lon":24.8833333},{"id":359641,"name":"kamende","country":"cd","lat":-6.466667,"lon":24.55},{"id":365855,"name":"mamba","country":"cd","lat":-5.966667,"lon":24.983333},{"id":359562,"name":"kambala","country":"cd","lat":-5.783333,"lon":25.383333},{"id":370559,"name":"panda","country":"cd","lat":-6.05,"lon":24.583333},{"id":361332,"name":"kibanga","country":"cd","lat":-6.283333,"lon":25.383333},{"id":361732,"name":"kikusa","country":"cd","lat":-6.366667,"lon":25.116667},{"id":3162330,"name":"lubondaie","country":"zr","lat":-5.6666667,"lon":24.8333333},{"id":3170077,"name":"tambwe","country":"zr","lat":-6.1,"lon":24.8},{"id":3157881,"name":"kapele","country":"zr","lat":-6.05,"lon":24.9666667},{"id":357068,"name":"eshilu","country":"cd","lat":-5.583333,"lon":25.316667},{"id":3165777,"name":"mukungu","country":"zr","lat":-6.0,"lon":24.7333333},{"id":3157399,"name":"kamina","country":"zr","lat":-5.8333333,"lon":24.9833333},{"id":361524,"name":"kifule-ejiba","country":"cd","lat":-6.383333,"lon":24.533333},{"id":356917,"name":"elangula","country":"cd","lat":-6.083333,"lon":24.983333},{"id":367926,"name":"mukia","country":"cd","lat":-5.933333,"lon":25.25},{"id":3171071,"name":"tupenge","country":"zr","lat":-5.9,"lon":25.1},{"id":3161053,"name":"konia","country":"zr","lat":-6.3666667,"lon":24.6833333},{"id":355703,"name":"bunguvu","country":"cd","lat":-6.033333,"lon":24.633333},{"id":3165927,"name":"mulo","country":"zr","lat":-5.8833333,"lon":25.3},{"id":3150409,"name":"bala","country":"zr","lat":-6.1,"lon":24.8333333},{"id":3165957,"name":"mulopwe","country":"zr","lat":-6.0166667,"lon":24.8166667},{"id":359797,"name":"kamweno","country":"cd","lat":-6.05,"lon":25.116667},{"id":366192,"name":"mashiba","country":"cd","lat":-6.35,"lon":25.433333},{"id":364115,"name":"loanga-batombe","country":"cd","lat":-5.833333,"lon":24.666667},{"id":371394,"name":"sangwa","country":"cd","lat":-5.866667,"lon":25.483333},{"id":3161852,"name":"loanga-batombe","country":"zr","lat":-5.8333333,"lon":24.6666667},{"id":365217,"name":"lutembo","country":"cd","lat":-6.116667,"lon":24.516667},{"id":3169341,"name":"senge","country":"zr","lat":-6.3166667,"lon":25.15},{"id":3158576,"name":"katunga","country":"zr","lat":-6.0833333,"lon":24.6833333},{"id":360302,"name":"kasamba","country":"cd","lat":-6.45,"lon":24.816667},{"id":3155840,"name":"inga kapenga","country":"zr","lat":-5.8666667,"lon":25.35},{"id":3156224,"name":"kabangu-sapidi","country":"zr","lat":-6.1833333,"lon":24.8833333},{"id":3155136,"name":"gefu","country":"zr","lat":-5.9833333,"lon":24.7},{"id":3157064,"name":"kalobo","country":"zr","lat":-5.9833333,"lon":24.8},{"id":3163456,"name":"malango","country":"zr","lat":-5.7833333,"lon":24.8333333},{"id":358741,"name":"kabundule","country":"cd","lat":-6.133333,"lon":25.183333},{"id":352673,"name":"balabala","country":"cd","lat":-6.016667,"lon":24.516667},{"id":360288,"name":"kasakula","country":"cd","lat":-6.45,"lon":25.183333},{"id":372758,"name":"tshibata","country":"cd","lat":-5.583333,"lon":24.6},{"id":359592,"name":"kambila","country":"cd","lat":-6.433333,"lon":24.95},{"id":3167297,"name":"nge","country":"zr","lat":-5.7166667,"lon":24.8166667},{"id":365313,"name":"mabela","country":"cd","lat":-5.666667,"lon":24.733333},{"id":367752,"name":"mudinda","country":"cd","lat":-5.516667,"lon":24.9},{"id":362803,"name":"kisose","country":"cd","lat":-6.3,"lon":24.516667},{"id":364582,"name":"lubishi","country":"cd","lat":-6.483333,"lon":25.083333},{"id":360097,"name":"kapakana","country":"cd","lat":-6.066667,"lon":24.683333},{"id":3162910,"name":"lushida","country":"zr","lat":-6.0166667,"lon":25.3833333},{"id":3163364,"name":"makonga","country":"zr","lat":-6.3666667,"lon":24.9666667},{"id":3160927,"name":"kolobeye","country":"zr","lat":-5.55,"lon":24.9833333},{"id":357136,"name":"eyombo-ebombo","country":"cd","lat":-6.233333,"lon":25.216667},{"id":364609,"name":"luboya","country":"cd","lat":-6.416667,"lon":24.783333},{"id":3156459,"name":"kabumbaie","country":"zr","lat":-6.15,"lon":25.25},{"id":356908,"name":"elambo","country":"cd","lat":-5.9,"lon":24.566667},{"id":3161856,"name":"loanga","country":"zr","lat":-5.8166667,"lon":24.6833333},{"id":3168478,"name":"penge","country":"zr","lat":-5.5166667,"lon":24.6166667},{"id":370547,"name":"pampi","country":"cd","lat":-5.7,"lon":25.016667},{"id":3150710,"name":"bantamba","country":"zr","lat":-6.2333333,"lon":25.0666667},{"id":358702,"name":"kabula","country":"cd","lat":-6.083333,"lon":25.466667},{"id":370573,"name":"panga","country":"cd","lat":-5.733333,"lon":24.833333},{"id":369967,"name":"nsa","country":"cd","lat":-5.833333,"lon":25.233333},{"id":358674,"name":"kaboya","country":"cd","lat":-6.4,"lon":25.166667},{"id":353268,"name":"baule-panda","country":"cd","lat":-5.966667,"lon":24.6},{"id":3167704,"name":"nsa","country":"zr","lat":-5.8333333,"lon":25.2333333},{"id":359187,"name":"kalamba","country":"cd","lat":-5.933333,"lon":24.933333},{"id":3157390,"name":"kamienge","country":"zr","lat":-5.9,"lon":24.8333333},{"id":3159261,"name":"kifule-ejiba","country":"zr","lat":-6.3833333,"lon":24.5333333},{"id":357018,"name":"epambe","country":"cd","lat":-6.25,"lon":25.283333},{"id":361331,"name":"kibandila","country":"cd","lat":-6.45,"lon":25.216667},{"id":362562,"name":"kipakula","country":"cd","lat":-6.083333,"lon":24.75},{"id":358632,"name":"kaboko","country":"cd","lat":-6.183333,"lon":24.566667},{"id":352690,"name":"bala-ngoie","country":"cd","lat":-6.433333,"lon":24.733333},{"id":3158291,"name":"kasongo-mule","country":"zr","lat":-6.0166667,"lon":25.0166667},{"id":3160587,"name":"kitabo i","country":"zr","lat":-6.4333333,"lon":24.9333333},{"id":3164363,"name":"mbo","country":"zr","lat":-5.5166667,"lon":24.8666667},{"id":359910,"name":"kangeshi-muite","country":"cd","lat":-6.316667,"lon":24.7},{"id":3154706,"name":"elumba","country":"zr","lat":-5.95,"lon":25.0166667},{"id":360144,"name":"kapele","country":"cd","lat":-6.05,"lon":24.966667},{"id":362923,"name":"kitentalu","country":"cd","lat":-6.3,"lon":24.866667},{"id":362607,"name":"kipoke","country":"cd","lat":-6.366667,"lon":25.283333},{"id":3156369,"name":"kaboko","country":"zr","lat":-6.1833333,"lon":24.5666667},{"id":359283,"name":"kaleunduye","country":"cd","lat":-5.816667,"lon":25.15},{"id":359356,"name":"kalonda-eshimba","country":"cd","lat":-5.833333,"lon":24.7},{"id":3163001,"name":"luwayo","country":"zr","lat":-6.4166667,"lon":24.95},{"id":357398,"name":"gefu-a-lulu","country":"cd","lat":-6.416667,"lon":25.266667},{"id":3156161,"name":"kaba-kongolo","country":"zr","lat":-6.1833333,"lon":24.7166667},{"id":3159353,"name":"kikasha","country":"zr","lat":-6.0166667,"lon":24.95},{"id":361451,"name":"kibunge","country":"cd","lat":-5.816667,"lon":25.0},{"id":3160540,"name":"kisose","country":"zr","lat":-6.3,"lon":24.5166667},{"id":353457,"name":"bemane","country":"cd","lat":-5.983333,"lon":24.75},{"id":3156220,"name":"kabango-sankuru","country":"zr","lat":-5.7666667,"lon":24.5333333},{"id":3154805,"name":"eshiba","country":"zr","lat":-6.1666667,"lon":24.5833333},{"id":358439,"name":"kaba-majiba","country":"cd","lat":-6.216667,"lon":24.8},{"id":3155315,"name":"gongo","country":"zr","lat":-5.9833333,"lon":25.0166667},{"id":357578,"name":"gongo","country":"cd","lat":-5.983333,"lon":25.016667},{"id":370765,"name":"peshi","country":"cd","lat":-5.683333,"lon":24.75},{"id":3151207,"name":"bembeleya","country":"zr","lat":-6.4166667,"lon":25.1166667},{"id":362167,"name":"kina","country":"cd","lat":-6.116667,"lon":25.0},{"id":3168310,"name":"panga","country":"zr","lat":-5.7333333,"lon":24.8333333},{"id":359327,"name":"kalobo","country":"cd","lat":-5.983333,"lon":24.8},{"id":3154646,"name":"elambo","country":"zr","lat":-5.9,"lon":24.5666667},{"id":357399,"name":"gefu","country":"cd","lat":-5.983333,"lon":24.7},{"id":3167490,"name":"niama-tshambwe","country":"zr","lat":-6.45,"lon":25.0666667},{"id":362753,"name":"kishiba","country":"cd","lat":-5.916667,"lon":24.9},{"id":3162954,"name":"lutembo","country":"zr","lat":-6.1166667,"lon":24.5166667},{"id":361816,"name":"kileta","country":"cd","lat":-6.183333,"lon":24.5},{"id":357397,"name":"gefu-a-kale","country":"cd","lat":-6.316667,"lon":24.966667},{"id":368461,"name":"musangie","country":"cd","lat":-6.266667,"lon":24.516667},{"id":3160299,"name":"kipakula","country":"zr","lat":-6.0833333,"lon":24.75},{"id":359525,"name":"kamani","country":"cd","lat":-5.5,"lon":24.933333},{"id":3162195,"name":"lualaba-kasaba","country":"zr","lat":-6.35,"lon":24.5333333},{"id":368220,"name":"mulopwe","country":"cd","lat":-6.016667,"lon":24.816667},{"id":361412,"name":"kibombe","country":"cd","lat":-6.216667,"lon":24.666667},{"id":3160490,"name":"kishiba","country":"zr","lat":-5.9166667,"lon":24.9},{"id":3162669,"name":"lulonge","country":"zr","lat":-5.9333333,"lon":25.0333333},{"id":360391,"name":"kasenda","country":"cd","lat":-6.416667,"lon":25.166667},{"id":355603,"name":"bulu","country":"cd","lat":-6.183333,"lon":25.316667},{"id":3156176,"name":"kaba-majiba","country":"zr","lat":-6.2166667,"lon":24.8},{"id":3156180,"name":"kabamba-gombe","country":"zr","lat":-5.85,"lon":25.1666667},{"id":353115,"name":"basase","country":"cd","lat":-5.633333,"lon":24.583333},{"id":359650,"name":"kamia","country":"cd","lat":-6.2,"lon":24.95},{"id":356729,"name":"ebambangi","country":"cd","lat":-5.6,"lon":25.316667},{"id":3157020,"name":"kaleunduye","country":"zr","lat":-5.8166667,"lon":25.15},{"id":3154056,"name":"dimbo","country":"zr","lat":-5.65,"lon":25.4333333},{"id":3170021,"name":"tala-ejiba","country":"zr","lat":-6.4,"lon":24.5833333},{"id":368040,"name":"mukungu","country":"cd","lat":-6.0,"lon":24.733333},{"id":3166611,"name":"mwaka","country":"zr","lat":-5.8333333,"lon":25.25},{"id":366626,"name":"mbo","country":"cd","lat":-5.516667,"lon":24.866667},{"id":361376,"name":"kibila","country":"cd","lat":-6.45,"lon":24.583333},{"id":3160652,"name":"kitenge","country":"zr","lat":-5.8666667,"lon":24.9666667},{"id":360554,"name":"kasongo-mule","country":"cd","lat":-6.016667,"lon":25.016667},{"id":3156478,"name":"kabundule","country":"zr","lat":-6.1333333,"lon":25.1833333},{"id":3156439,"name":"kabula","country":"zr","lat":-6.0833333,"lon":25.4666667},{"id":3162839,"name":"lupika","country":"zr","lat":-5.8,"lon":25.0666667},{"id":368866,"name":"mwafi","country":"cd","lat":-6.116667,"lon":24.9},{"id":3151353,"name":"bendele","country":"zr","lat":-6.4666667,"lon":25.3},{"id":355899,"name":"butanda","country":"cd","lat":-5.766667,"lon":25.116667},{"id":3163778,"name":"mani","country":"zr","lat":-6.45,"lon":25.3333333},{"id":361910,"name":"kimabwe","country":"cd","lat":-5.9,"lon":24.916667},{"id":355546,"name":"bukula","country":"cd","lat":-5.816667,"lon":24.533333},{"id":3157299,"name":"kambala","country":"zr","lat":-5.7833333,"lon":25.3833333},{"id":3150332,"name":"bakoma","country":"zr","lat":-6.2666667,"lon":25.0166667},{"id":3156179,"name":"kabamba-bakili","country":"zr","lat":-5.8666667,"lon":25.1666667},{"id":3158827,"name":"kembe","country":"zr","lat":-5.9666667,"lon":25.15},{"id":353615,"name":"bendele","country":"cd","lat":-6.466667,"lon":25.3},{"id":359485,"name":"kamaka","country":"cd","lat":-5.983333,"lon":24.933333},{"id":3155135,"name":"gefu-a-lulu","country":"zr","lat":-6.4166667,"lon":25.2666667},{"id":3159553,"name":"kileta","country":"zr","lat":-6.1833333,"lon":24.5},{"id":3158096,"name":"kasase","country":"zr","lat":-5.5666667,"lon":25.0666667},{"id":365102,"name":"lupika","country":"cd","lat":-5.8,"lon":25.066667},{"id":369750,"name":"niama-musoku","country":"cd","lat":-6.383333,"lon":24.833333},{"id":366041,"name":"mani","country":"cd","lat":-6.45,"lon":25.333333},{"id":373253,"name":"tuke tuko","country":"cd","lat":-5.9,"lon":25.083333},{"id":3150428,"name":"bala-ngoie","country":"zr","lat":-6.4333333,"lon":24.7333333},{"id":3163504,"name":"malenge","country":"zr","lat":-6.2833333,"lon":25.0833333},{"id":361813,"name":"kileo","country":"cd","lat":-5.716667,"lon":25.216667},{"id":361374,"name":"kibi","country":"cd","lat":-6.066667,"lon":24.633333},{"id":3162887,"name":"lusasa","country":"zr","lat":-6.15,"lon":24.6833333},{"id":3170990,"name":"tuke tuko","country":"zr","lat":-5.9,"lon":25.0833333},{"id":3156221,"name":"kabango-totue","country":"zr","lat":-5.95,"lon":24.6833333},{"id":359260,"name":"kalenda-kania","country":"cd","lat":-5.916667,"lon":25.066667},{"id":362765,"name":"kishungu","country":"cd","lat":-6.116667,"lon":25.133333},{"id":3160660,"name":"kitentalu","country":"zr","lat":-6.3,"lon":24.8666667},{"id":353469,"name":"bembeleya","country":"cd","lat":-6.416667,"lon":25.116667},{"id":362756,"name":"kishi","country":"cd","lat":-6.15,"lon":25.116667},{"id":3151006,"name":"baule-panda","country":"zr","lat":-5.9666667,"lon":24.6},{"id":359653,"name":"kamienge","country":"cd","lat":-5.9,"lon":24.833333},{"id":3163050,"name":"mabela","country":"zr","lat":-5.6666667,"lon":24.7333333},{"id":3166807,"name":"mwelaye","country":"zr","lat":-6.3,"lon":25.0666667},{"id":3163592,"name":"mamba","country":"zr","lat":-5.9666667,"lon":24.9833333},{"id":359662,"name":"kamina","country":"cd","lat":-5.833333,"lon":24.983333},{"id":364793,"name":"lukanga","country":"cd","lat":-6.3,"lon":25.466667},{"id":358103,"name":"inga kapenga","country":"cd","lat":-5.866667,"lon":25.35},{"id":3151664,"name":"biongwe","country":"zr","lat":-6.1,"lon":25.4333333},{"id":3154490,"name":"ebombo","country":"zr","lat":-6.2333333,"lon":25.2166667},{"id":368874,"name":"mwaka","country":"cd","lat":-5.833333,"lon":25.25},{"id":3154807,"name":"eshimba","country":"zr","lat":-5.9333333,"lon":24.7666667},{"id":358482,"name":"kabango kabue","country":"cd","lat":-5.95,"lon":24.683333},{"id":3160344,"name":"kipoke","country":"zr","lat":-6.3666667,"lon":25.2833333}]});