callback({"markets":[{"id":829995,"name":"tundayme bajo","country":"ec","lat":-3.5763889,"lon":-78.4902778},{"id":829264,"name":"santa cruz","country":"ec","lat":-3.6302778,"lon":-78.4980556},{"id":2062263,"name":"borja","country":"pe","lat":-4.4333333,"lon":-77.55},{"id":2070642,"name":"huampam","country":"pe","lat":-4.4666667,"lon":-78.1666667},{"id":823698,"name":"destacamento tundayme","country":"ec","lat":-3.5744444,"lon":-78.4769444},{"id":2079302,"name":"porvenir","country":"pe","lat":-3.7,"lon":-77.75},{"id":2068521,"name":"eureka","country":"pe","lat":-4.4166667,"lon":-77.5},{"id":830111,"name":"valle del quimi","country":"ec","lat":-3.5344444,"lon":-78.4563889},{"id":2063079,"name":"cangaza","country":"pe","lat":-3.6,"lon":-78.0},{"id":828241,"name":"procuraduria","country":"ec","lat":-3.5711111,"lon":-78.4827778},{"id":2079893,"name":"puertos fluviales","country":"pe","lat":-4.45,"lon":-77.5166667},{"id":829117,"name":"san marcos de tundayme alto","country":"ec","lat":-3.5686111,"lon":-78.4705556},{"id":827645,"name":"numbaime","country":"ec","lat":-3.6,"lon":-78.4833333},{"id":2082097,"name":"san juan","country":"pe","lat":-4.3333333,"lon":-77.7},{"id":2083429,"name":"soldado mori","country":"pe","lat":-4.4166667,"lon":-78.3666667},{"id":2079790,"name":"puerto galilea","country":"pe","lat":-3.9833333,"lon":-78.1166667},{"id":2068639,"name":"fortaleza","country":"pe","lat":-4.1833333,"lon":-77.7},{"id":2065379,"name":"chinganaza","country":"pe","lat":-3.9166667,"lon":-77.7666667},{"id":826871,"name":"las penas","country":"ec","lat":-3.78,"lon":-78.4894444},{"id":2078913,"name":"pinglo","country":"pe","lat":-4.4333333,"lon":-77.65},{"id":2072679,"name":"jimenez banda","country":"pe","lat":-3.7236111,"lon":-78.2941667},{"id":2064875,"name":"chavez valdivia","country":"pe","lat":-4.4333333,"lon":-78.1833333}]});