callback({"markets":[{"id":445856,"name":"chupaoshan","country":"cn","lat":44.7,"lon":123.366667},{"id":542234,"name":"mujiadian","country":"cn","lat":45.466667,"lon":122.8},{"id":637929,"name":"yaoyan","country":"cn","lat":45.466667,"lon":122.516667},{"id":463708,"name":"erlong","country":"cn","lat":45.366667,"lon":123.033333},{"id":420821,"name":"anting","country":"cn","lat":45.166667,"lon":122.6},{"id":455978,"name":"dexingtai","country":"cn","lat":44.583333,"lon":122.866667},{"id":553947,"name":"pienchao","country":"cn","lat":44.6,"lon":123.166667},{"id":599938,"name":"tongjiadian","country":"cn","lat":44.716667,"lon":123.1},{"id":552681,"name":"peichengchen","country":"cn","lat":44.5,"lon":123.45},{"id":432496,"name":"chagannao","country":"cn","lat":45.466667,"lon":123.383333},{"id":588110,"name":"ssukoshu","country":"cn","lat":45.366667,"lon":123.066667},{"id":629419,"name":"xitaipingshan","country":"cn","lat":44.8,"lon":122.8},{"id":595109,"name":"taonan","country":"cn","lat":45.333333,"lon":122.783333},{"id":586161,"name":"sijingzi","country":"cn","lat":44.916667,"lon":122.816667},{"id":562415,"name":"qizuo","country":"cn","lat":44.5,"lon":123.283333},{"id":567549,"name":"sanshihhao","country":"cn","lat":44.616667,"lon":123.35},{"id":508591,"name":"kaitungchen","country":"cn","lat":44.813513,"lon":123.149999},{"id":594814,"name":"taohe","country":"cn","lat":45.45,"lon":123.016667},{"id":604934,"name":"ulan hua","country":"cn","lat":44.75,"lon":122.65},{"id":649302,"name":"zhangjiawopu","country":"cn","lat":45.183333,"lon":122.6},{"id":425038,"name":"bamianshanzhao","country":"cn","lat":45.1,"lon":123.25},{"id":497804,"name":"hunghsing","country":"cn","lat":44.966667,"lon":123.033333},{"id":615953,"name":"xi ail","country":"cn","lat":44.9,"lon":122.8},{"id":583020,"name":"shuangkang","country":"cn","lat":45.033333,"lon":122.983333},{"id":650440,"name":"zhanyu","country":"cn","lat":44.55,"lon":122.65},{"id":480941,"name":"heiho","country":"cn","lat":45.2,"lon":122.816667},{"id":530581,"name":"lujiawopeng","country":"cn","lat":44.783333,"lon":122.516667},{"id":453980,"name":"daxian","country":"cn","lat":45.4,"lon":122.8},{"id":483898,"name":"hoh qel","country":"cn","lat":45.233333,"lon":122.5},{"id":588868,"name":"sukungto","country":"cn","lat":44.683333,"lon":123.366667}]});