callback({"markets":[{"id":2557198,"name":"vostok","country":"ru","lat":47.11913,"lon":47.12154},{"id":2389069,"name":"danilovka","country":"ru","lat":47.413858,"lon":47.087624},{"id":2436170,"name":"kryazh","country":"ru","lat":47.476944,"lon":47.143333},{"id":2497789,"name":"promyslovyy","country":"ru","lat":47.006874,"lon":47.419241},{"id":2389528,"name":"dayata","country":"ru","lat":47.4102,"lon":46.9337},{"id":2539733,"name":"tsagalay","country":"ru","lat":47.082703,"lon":47.379777},{"id":2381417,"name":"bukhovskiy","country":"ru","lat":47.4446,"lon":46.9427},{"id":2532443,"name":"tabun-aral","country":"ru","lat":47.048015,"lon":47.331721},{"id":2571540,"name":"zhozhin","country":"ru","lat":47.2615,"lon":47.2581},{"id":2383942,"name":"charabali","country":"ru","lat":47.419585,"lon":47.256781},{"id":2438597,"name":"kuray","country":"ru","lat":46.5361,"lon":46.9697},{"id":2538774,"name":"tri bugra","country":"ru","lat":47.333333,"lon":46.65},{"id":2413097,"name":"kapitanskiye","country":"ru","lat":47.17,"lon":47.245278},{"id":2392683,"name":"dragunka","country":"ru","lat":47.038,"lon":47.4735},{"id":2429859,"name":"kosika","country":"ru","lat":47.094503,"lon":47.215513},{"id":2520600,"name":"smushkovoye","country":"ru","lat":46.5794,"lon":46.7599},{"id":2492825,"name":"poldanilovka","country":"ru","lat":47.4278,"lon":46.989},{"id":2505717,"name":"rybnyy khutorok","country":"ru","lat":47.3275,"lon":47.11},{"id":2368365,"name":"batalovskiye","country":"ru","lat":47.1375,"lon":47.349722},{"id":2364504,"name":"ashuluk","country":"ru","lat":47.3178,"lon":47.4007},{"id":2542657,"name":"uchuzhiy","country":"ru","lat":47.13,"lon":47.307778},{"id":2403520,"name":"gremuchiy","country":"ru","lat":47.3444,"lon":47.2133},{"id":2544741,"name":"urochishche basta","country":"ru","lat":47.222801,"lon":47.367405},{"id":2418365,"name":"khazyk","country":"ru","lat":46.8439,"lon":46.9403},{"id":2455560,"name":"mashkin","country":"ru","lat":47.089406,"lon":47.371395},{"id":2543454,"name":"ulan","country":"ru","lat":46.7082,"lon":46.8854},{"id":2530293,"name":"sungrub","country":"ru","lat":47.464722,"lon":46.615278},{"id":2443265,"name":"lenino","country":"ru","lat":47.013848,"lon":47.331415},{"id":2569769,"name":"zelenyye prudy","country":"ru","lat":47.4,"lon":47.25},{"id":2406425,"name":"iki-chibirskiy","country":"ru","lat":47.233333,"lon":47.033333},{"id":2427865,"name":"kopanorskaya","country":"ru","lat":47.460556,"lon":46.819722},{"id":2533043,"name":"tambovka","country":"ru","lat":47.315283,"lon":47.37773},{"id":2567586,"name":"zamayany","country":"ru","lat":47.45,"lon":46.983889},{"id":2542706,"name":"udarnyy","country":"ru","lat":46.8389,"lon":46.7449},{"id":2510868,"name":"sennyy punkt","country":"ru","lat":47.054444,"lon":47.404444},{"id":2554740,"name":"vladimirovka","country":"ru","lat":47.1767,"lon":47.0365},{"id":2511569,"name":"seroglazka","country":"ru","lat":47.005905,"lon":47.483766},{"id":2362382,"name":"anisimovich","country":"ru","lat":47.1675,"lon":47.392778},{"id":2364027,"name":"arsimchin-boro","country":"ru","lat":47.2,"lon":46.533333},{"id":2509834,"name":"selitrennoye","country":"ru","lat":47.1685,"lon":47.4526},{"id":2417748,"name":"kharba","country":"ru","lat":47.0146,"lon":46.5978},{"id":2411051,"name":"kalanchevskoye","country":"ru","lat":47.483611,"lon":46.577222},{"id":2566815,"name":"zagotskot","country":"ru","lat":47.3741,"lon":47.0608},{"id":2562436,"name":"yekaterinovka","country":"ru","lat":47.3847,"lon":47.0221},{"id":2392310,"name":"dord-khosh","country":"ru","lat":46.983333,"lon":46.533333},{"id":2443729,"name":"leskhoz","country":"ru","lat":47.4846,"lon":46.9433},{"id":2497296,"name":"privolzhskiy pervyy","country":"ru","lat":46.5907,"lon":47.2187},{"id":2409311,"name":"ivanovka","country":"ru","lat":47.3,"lon":47.0252},{"id":2395350,"name":"ekataevsk","country":"ru","lat":47.245594,"lon":47.02814},{"id":2509108,"name":"sazaniy ugol","country":"ru","lat":47.4271,"lon":47.0876}]});