callback({"markets":[{"id":2586964,"name":"el murra","country":"sd","lat":13.7333333,"lon":30.0666667},{"id":2584426,"name":"al bashiri","country":"sd","lat":13.8,"lon":30.1833333},{"id":2586045,"name":"damira et tom","country":"sd","lat":14.15,"lon":30.15},{"id":2592233,"name":"sharshar","country":"sd","lat":14.3166667,"lon":30.1833333},{"id":2587154,"name":"es sa`ata","country":"sd","lat":13.6166667,"lon":29.9833333},{"id":2593581,"name":"umm saiyala","country":"sd","lat":13.6333333,"lon":30.1},{"id":2592472,"name":"siraj","country":"sd","lat":14.1,"lon":30.4333333},{"id":2585090,"name":"ash shana","country":"sd","lat":13.6,"lon":30.0166667},{"id":2585509,"name":"barakin","country":"sd","lat":14.4333333,"lon":30.1666667},{"id":2584751,"name":"al qafalat","country":"sd","lat":14.3,"lon":29.5333333},{"id":2586895,"name":"el kurra","country":"sd","lat":13.6,"lon":29.8166667},{"id":2593596,"name":"umm sawt","country":"sd","lat":13.5333333,"lon":30.3166667},{"id":2590106,"name":"maafa","country":"sd","lat":14.05,"lon":30.4333333},{"id":2590768,"name":"mugelledat","country":"sd","lat":14.3,"lon":30.1},{"id":2591082,"name":"nimr","country":"sd","lat":14.0666667,"lon":30.4833333},{"id":2593211,"name":"umm baghum","country":"sd","lat":14.05,"lon":30.1666667},{"id":2586793,"name":"el hashaim","country":"sd","lat":14.1333333,"lon":29.6833333},{"id":2593651,"name":"umm sirhan","country":"sd","lat":14.1333333,"lon":30.0333333},{"id":2583817,"name":"abu hajar","country":"sd","lat":14.0666667,"lon":29.7166667},{"id":2591826,"name":"rubshan","country":"sd","lat":14.2,"lon":30.05},{"id":2593529,"name":"umm nalah","country":"sd","lat":14.2,"lon":30.45},{"id":2583983,"name":"abu shari`ah","country":"sd","lat":14.2166667,"lon":30.1833333},{"id":2593013,"name":"tuffalung","country":"sd","lat":14.2666667,"lon":29.6},{"id":2585499,"name":"barah","country":"sd","lat":13.7,"lon":30.3666667},{"id":2587140,"name":"esh shigla","country":"sd","lat":13.8166667,"lon":29.7333333},{"id":2593348,"name":"umm gaier","country":"sd","lat":13.9333333,"lon":30.4666667},{"id":2584564,"name":"al hudayd","country":"sd","lat":13.8833333,"lon":30.3166667},{"id":2587443,"name":"faroga","country":"sd","lat":13.5166667,"lon":29.9666667},{"id":2589341,"name":"khummi","country":"sd","lat":13.5333333,"lon":30.4166667},{"id":2591105,"name":"nubda","country":"sd","lat":13.9666667,"lon":30.05},{"id":2592430,"name":"shuweib","country":"sd","lat":14.2,"lon":29.6833333},{"id":2590769,"name":"mugheisiba","country":"sd","lat":13.65,"lon":30.4},{"id":2592418,"name":"shureim adam hammad","country":"sd","lat":13.7833333,"lon":30.4333333},{"id":2583641,"name":"`abdin","country":"sd","lat":13.55,"lon":29.6333333},{"id":2587100,"name":"er rudda","country":"sd","lat":13.8,"lon":30.1166667},{"id":2593406,"name":"umm harazat","country":"sd","lat":13.5,"lon":30.1166667},{"id":2585383,"name":"bagbagi","country":"sd","lat":13.5166667,"lon":30.4666667},{"id":2593707,"name":"umm `ushira","country":"sd","lat":13.8833333,"lon":30.0166667},{"id":2593416,"name":"umm hashim bakhit","country":"sd","lat":14.2166667,"lon":30.0666667},{"id":2584728,"name":"al muraykhah","country":"sd","lat":14.2666667,"lon":29.55},{"id":2583754,"name":"abu dellum al a`ma","country":"sd","lat":13.9,"lon":30.2},{"id":2586694,"name":"el ga`a","country":"sd","lat":14.2666667,"lon":29.9833333},{"id":2593168,"name":"um dubban","country":"sd","lat":14.2333333,"lon":29.6166667},{"id":2583624,"name":"`abd el kheir","country":"sd","lat":13.7,"lon":29.5},{"id":2589841,"name":"leban","country":"sd","lat":14.0,"lon":30.1666667},{"id":2585326,"name":"azhaf","country":"sd","lat":13.6166667,"lon":30.25},{"id":2587714,"name":"gehaniya","country":"sd","lat":14.4166667,"lon":30.4666667},{"id":2588508,"name":"hudayd wad shayb","country":"sd","lat":13.8333333,"lon":30.3666667},{"id":2587098,"name":"er rubshan","country":"sd","lat":13.7833333,"lon":29.9333333},{"id":2587864,"name":"gineina","country":"sd","lat":13.5833333,"lon":30.3166667},{"id":2588507,"name":"hudayd ash sharifi","country":"sd","lat":13.9,"lon":30.3833333},{"id":2592739,"name":"tawil","country":"sd","lat":13.7333333,"lon":30.2166667},{"id":2588936,"name":"kagmar","country":"sd","lat":14.4,"lon":30.4166667},{"id":2588250,"name":"hasab el karim","country":"sd","lat":13.65,"lon":29.5666667},{"id":2587763,"name":"gereigih","country":"sd","lat":14.0333333,"lon":30.4666667},{"id":2586712,"name":"el gebir","country":"sd","lat":13.7166667,"lon":29.8166667},{"id":2590894,"name":"musa","country":"sd","lat":13.5666667,"lon":30.1},{"id":2593176,"name":"um kiredim","country":"sd","lat":13.6666667,"lon":29.8},{"id":2584541,"name":"al haraz","country":"sd","lat":13.5166667,"lon":30.1166667},{"id":2593692,"name":"umm tigeirat","country":"sd","lat":13.7,"lon":30.0833333},{"id":2592741,"name":"tawkar","country":"sd","lat":14.1333333,"lon":30.0166667},{"id":2585068,"name":"`asalah","country":"sd","lat":14.15,"lon":29.7}]});