callback({"markets":[{"id":3032398,"name":"oakley","country":"us","lat":40.7147222,"lon":-111.3},{"id":3049189,"name":"aspen","country":"us","lat":41.2058333,"lon":-110.7511111},{"id":3032919,"name":"upton","country":"us","lat":40.9636111,"lon":-111.2347222},{"id":3031742,"name":"emory","country":"us","lat":41.0488889,"lon":-111.3036111},{"id":3049181,"name":"antelope","country":"us","lat":41.4211111,"lon":-110.5294444},{"id":3033114,"name":"woodland","country":"us","lat":40.5813889,"lon":-111.2263889},{"id":3032215,"name":"marion","country":"us","lat":40.6775,"lon":-111.2802778},{"id":3031714,"name":"echo","country":"us","lat":40.9777778,"lon":-111.4425},{"id":3049538,"name":"piedmont","country":"us","lat":41.2161111,"lon":-110.6266667},{"id":3031900,"name":"hailstone","country":"us","lat":40.6083333,"lon":-111.4094444},{"id":3032460,"name":"parkview trailer court","country":"us","lat":40.5147222,"lon":-111.4119444},{"id":3031935,"name":"heber city","country":"us","lat":40.5069444,"lon":-111.4125},{"id":3031942,"name":"henefer","country":"us","lat":41.0166667,"lon":-111.4975},{"id":3031279,"name":"atkinson","country":"us","lat":40.7405556,"lon":-111.4741667},{"id":3031541,"name":"coalville","country":"us","lat":40.9177778,"lon":-111.3986111},{"id":3032053,"name":"kamas","country":"us","lat":40.6430556,"lon":-111.28},{"id":3049204,"name":"beartown","country":"us","lat":41.1566667,"lon":-110.8472222},{"id":3031466,"name":"castle rock","country":"us","lat":41.1116667,"lon":-111.2025},{"id":3032989,"name":"wanship","country":"us","lat":40.8119444,"lon":-111.4066667},{"id":3032673,"name":"silver creek junction","country":"us","lat":40.7313889,"lon":-111.4972222},{"id":3032306,"name":"mound city","country":"us","lat":40.5252778,"lon":-111.4911111},{"id":3032452,"name":"park city","country":"us","lat":40.6461111,"lon":-111.4972222},{"id":3049173,"name":"almy","country":"us","lat":41.3316667,"lon":-111.0038889},{"id":3049393,"name":"hilliard","country":"us","lat":41.1377778,"lon":-110.8111111},{"id":3032047,"name":"jordanelle","country":"us","lat":40.5944444,"lon":-111.4266667},{"id":3032978,"name":"wahsatch","country":"us","lat":41.1991667,"lon":-111.1122222},{"id":3032329,"name":"mountain spa","country":"us","lat":40.525,"lon":-111.4666667},{"id":3032296,"name":"moon lake lodge","country":"us","lat":40.5694444,"lon":-110.5066667},{"id":3031619,"name":"cranmer","country":"us","lat":40.6166667,"lon":-111.44},{"id":3032624,"name":"samak","country":"us","lat":40.6175,"lon":-111.2130556},{"id":3032064,"name":"keetley junction","country":"us","lat":40.6825,"lon":-111.4569444},{"id":3032475,"name":"peoa","country":"us","lat":40.7247222,"lon":-111.3411111},{"id":3032004,"name":"hoytsville","country":"us","lat":40.8744444,"lon":-111.3797222},{"id":3031518,"name":"christmas meadow summer home area","country":"us","lat":40.8269444,"lon":-110.8069444},{"id":3031715,"name":"echo resort","country":"us","lat":40.9625,"lon":-111.4108333},{"id":3032697,"name":"soapstone summer home area","country":"us","lat":40.5747222,"lon":-111.0505556},{"id":3032263,"name":"midway","country":"us","lat":40.5122222,"lon":-111.4736111},{"id":3049248,"name":"byrnes crossing","country":"us","lat":41.2819444,"lon":-110.6377778},{"id":3049203,"name":"bear river","country":"us","lat":41.3841667,"lon":-111.0255556},{"id":3049177,"name":"altamont","country":"us","lat":41.1922222,"lon":-110.7888889},{"id":3049336,"name":"evanston","country":"us","lat":41.2683333,"lon":-110.9625},{"id":3031823,"name":"francis","country":"us","lat":40.6105556,"lon":-111.28},{"id":3049232,"name":"bridger","country":"us","lat":41.3813889,"lon":-110.5938889},{"id":3032063,"name":"keetley","country":"us","lat":40.6355556,"lon":-111.4138889}]});