callback({"markets":[{"id":1528036,"name":"khirbat deir el kahf","country":"jo","lat":32.277707,"lon":36.838551},{"id":1526818,"name":"ad dafyanah","country":"jo","lat":32.311895,"lon":36.562481},{"id":1528797,"name":"zumlat ad dibs","country":"jo","lat":32.254449,"lon":36.505938},{"id":2665974,"name":"al qar`a\u0027","country":"sy","lat":32.3333333,"lon":36.7666667},{"id":2682014,"name":"umm ar rumman","country":"sy","lat":32.4,"lon":36.6166667},{"id":2665799,"name":"al majdal","country":"sy","lat":32.45,"lon":36.8},{"id":1527023,"name":"al mukayfitah","country":"jo","lat":32.290118,"lon":36.653887},{"id":2680065,"name":"simj","country":"sy","lat":32.45,"lon":36.5},{"id":1527214,"name":"azraq ed druz","country":"jo","lat":31.880102,"lon":36.831132},{"id":2665252,"name":"al `anz","country":"sy","lat":32.3833333,"lon":36.6333333},{"id":2674468,"name":"khirbat al kawm","country":"sy","lat":32.4833333,"lon":36.8166667},{"id":2674225,"name":"kheurbet aouad","country":"sy","lat":32.3166667,"lon":36.7166667},{"id":2670852,"name":"ghariyah","country":"sy","lat":32.3833333,"lon":36.65},{"id":2665893,"name":"al mughayr","country":"sy","lat":32.3333333,"lon":36.7},{"id":2665837,"name":"al mashquq","country":"sy","lat":32.4,"lon":36.7166667},{"id":2666822,"name":"`awas","country":"sy","lat":32.4666667,"lon":36.7666667},{"id":1527058,"name":"al `umari","country":"jo","lat":31.532816,"lon":37.077392},{"id":2669616,"name":"dibine","country":"sy","lat":32.4333333,"lon":36.5666667},{"id":2578695,"name":"mujamma` al hadithah","country":"sa","lat":31.513442,"lon":37.111764},{"id":1528218,"name":"mahattat al hafif","country":"jo","lat":32.193495,"lon":37.125133},{"id":2679383,"name":"samad","country":"sy","lat":32.4666667,"lon":36.5166667},{"id":1528663,"name":"um el quttein","country":"jo","lat":32.315628,"lon":36.629441},{"id":2674621,"name":"khirbat qamza","country":"sy","lat":32.3972222,"lon":36.75},{"id":2678442,"name":"rafqah","country":"sy","lat":32.45,"lon":36.6666667},{"id":2670055,"name":"el aanata","country":"sy","lat":32.35,"lon":36.8},{"id":2674460,"name":"khirbat al hayajanah","country":"sy","lat":32.3972222,"lon":36.8694444},{"id":2672172,"name":"imthan","country":"sy","lat":32.4,"lon":36.8166667},{"id":1528469,"name":"sabha","country":"jo","lat":32.329646,"lon":36.500978},{"id":2679409,"name":"samma\u0027 al bardan","country":"sy","lat":32.4,"lon":36.75},{"id":2679350,"name":"salkas","country":"sy","lat":32.4833333,"lon":36.7166667},{"id":2667857,"name":"bekka","country":"sy","lat":32.4666667,"lon":36.5666667},{"id":2679956,"name":"shinirah","country":"sy","lat":32.3666667,"lon":36.75},{"id":2674176,"name":"khazmah","country":"sy","lat":32.4333333,"lon":36.8666667},{"id":1526879,"name":"al azraq","country":"jo","lat":31.832678,"lon":36.81531}]});