callback({"markets":[{"id":276026,"name":"estancia livi livi","country":"bo","lat":-20.0666667,"lon":-66.2833333},{"id":276819,"name":"estancia sivingani","country":"bo","lat":-20.4166667,"lon":-66.4166667},{"id":281205,"name":"palca flores","country":"bo","lat":-20.0166667,"lon":-65.5333333},{"id":273359,"name":"comunidad lamachi","country":"bo","lat":-20.4166667,"lon":-65.8833333},{"id":272215,"name":"chana","country":"bo","lat":-20.2,"lon":-66.0},{"id":277209,"name":"estancia vinto lipina","country":"bo","lat":-20.1833333,"lon":-66.4333333},{"id":272954,"name":"cochapampa","country":"bo","lat":-20.3833333,"lon":-66.4666667},{"id":271303,"name":"calaoyo","country":"bo","lat":-20.3666667,"lon":-65.5333333},{"id":275087,"name":"estancia chiquira","country":"bo","lat":-20.1333333,"lon":-66.15},{"id":275430,"name":"estancia huaneane","country":"bo","lat":-19.5166667,"lon":-65.75},{"id":280383,"name":"mina sarapalca","country":"bo","lat":-19.9333333,"lon":-65.9333333},{"id":277223,"name":"estancia vizcachani","country":"bo","lat":-20.1333333,"lon":-66.4666667},{"id":277103,"name":"estancia ujlla punta","country":"bo","lat":-20.3333333,"lon":-65.8},{"id":275811,"name":"estancia khara palca","country":"bo","lat":-20.15,"lon":-66.45},{"id":276364,"name":"estancia pancochi","country":"bo","lat":-20.1666667,"lon":-65.6666667},{"id":274956,"name":"estancia challastiri","country":"bo","lat":-19.7166667,"lon":-65.7833333},{"id":273418,"name":"comunidad okoruro","country":"bo","lat":-19.85,"lon":-65.65},{"id":280138,"name":"marai","country":"bo","lat":-20.45,"lon":-66.4333333},{"id":273170,"name":"comunidad caltapi puncu","country":"bo","lat":-20.0,"lon":-65.55},{"id":278682,"name":"jalanfano","country":"bo","lat":-19.8166667,"lon":-65.9666667},{"id":277081,"name":"estancia tulta","country":"bo","lat":-20.1666667,"lon":-66.0166667},{"id":282410,"name":"punutuma","country":"bo","lat":-20.05,"lon":-66.1333333},{"id":274920,"name":"estancia chacuri","country":"bo","lat":-20.1166667,"lon":-66.3333333},{"id":280959,"name":"olcota","country":"bo","lat":-20.45,"lon":-65.5833333},{"id":280361,"name":"mina andacava","country":"bo","lat":-19.85,"lon":-65.6666667},{"id":282707,"name":"rancho khasa","country":"bo","lat":-20.3333333,"lon":-66.1833333},{"id":275905,"name":"estancia korka","country":"bo","lat":-19.9566667,"lon":-65.9516667},{"id":274583,"name":"estancia ajchura","country":"bo","lat":-20.2,"lon":-65.6666667},{"id":279746,"name":"lipez orco","country":"bo","lat":-19.6166667,"lon":-65.7833333},{"id":279688,"name":"leon minuna","country":"bo","lat":-20.0333333,"lon":-66.05},{"id":277214,"name":"estancia viscachani","country":"bo","lat":-20.2833333,"lon":-66.2},{"id":271241,"name":"caiza","country":"bo","lat":-20.0333333,"lon":-65.6666667},{"id":285728,"name":"yanahorca","country":"bo","lat":-20.4833333,"lon":-66.3},{"id":272754,"name":"chullpa","country":"bo","lat":-20.1666667,"lon":-66.2833333},{"id":275047,"name":"estancia chilacaya","country":"bo","lat":-20.2166667,"lon":-65.6166667},{"id":285356,"name":"vicere","country":"bo","lat":-20.2666667,"lon":-65.5333333},{"id":279888,"name":"loro huasi","country":"bo","lat":-20.3666667,"lon":-65.6666667},{"id":276267,"name":"estancia olleria","country":"bo","lat":-20.2,"lon":-66.35},{"id":271130,"name":"cabeza","country":"bo","lat":-20.4,"lon":-65.5333333},{"id":279125,"name":"kilpani","country":"bo","lat":-19.8333333,"lon":-66.35},{"id":281333,"name":"pampacasa","country":"bo","lat":-19.6666667,"lon":-65.75},{"id":277540,"name":"grupo nazacara","country":"bo","lat":-19.5333333,"lon":-66.05},{"id":275746,"name":"estancia kari","country":"bo","lat":-20.4666667,"lon":-66.4166667},{"id":275019,"name":"estancia chekochi","country":"bo","lat":-20.2333333,"lon":-65.8166667},{"id":279527,"name":"la puesta","country":"bo","lat":-19.55,"lon":-65.8333333},{"id":274861,"name":"estancia casla","country":"bo","lat":-19.95,"lon":-65.7666667},{"id":275803,"name":"estancia kharachi pampa","country":"bo","lat":-19.5511111,"lon":-65.7205556},{"id":273304,"name":"comunidad jari","country":"bo","lat":-20.1166667,"lon":-65.6666667},{"id":273326,"name":"comunidad kestuche","country":"bo","lat":-20.0833333,"lon":-65.6666667},{"id":284320,"name":"taquina","country":"bo","lat":-20.3833333,"lon":-65.65},{"id":272905,"name":"ciudad potosi","country":"bo","lat":-19.5836111,"lon":-65.7530556},{"id":284520,"name":"ticatica","country":"bo","lat":-20.1833333,"lon":-66.35},{"id":275137,"name":"estancia chullpa","country":"bo","lat":-20.0666667,"lon":-66.1166667},{"id":274875,"name":"estancia catariri","country":"bo","lat":-20.3666667,"lon":-66.2833333},{"id":279175,"name":"korisaya","country":"bo","lat":-20.0166667,"lon":-65.95},{"id":283764,"name":"silvi","country":"bo","lat":-20.0166667,"lon":-65.6166667},{"id":277082,"name":"estancia tuluno","country":"bo","lat":-20.4333333,"lon":-66.0833333},{"id":276134,"name":"estancia matiara","country":"bo","lat":-20.3666667,"lon":-65.5666667},{"id":276403,"name":"estancia pasto waykho","country":"bo","lat":-20.1833333,"lon":-65.5333333},{"id":275168,"name":"estancia churqui pampa","country":"bo","lat":-20.0833333,"lon":-66.1166667},{"id":276096,"name":"estancia maica","country":"bo","lat":-20.2666667,"lon":-66.2333333},{"id":284403,"name":"tatuca","country":"bo","lat":-20.15,"lon":-66.2},{"id":285328,"name":"veracruz","country":"bo","lat":-19.9833333,"lon":-65.5166667},{"id":273420,"name":"comunidad orcola","country":"bo","lat":-20.4166667,"lon":-65.5666667},{"id":277002,"name":"estancia tinki","country":"bo","lat":-20.3833333,"lon":-65.55},{"id":281082,"name":"pacanasi","country":"bo","lat":-20.25,"lon":-66.2833333},{"id":271678,"name":"caracota","country":"bo","lat":-20.0833333,"lon":-65.9166667},{"id":279220,"name":"lacachaca","country":"bo","lat":-19.6833333,"lon":-65.71},{"id":283135,"name":"san carlos","country":"bo","lat":-20.4833333,"lon":-65.6},{"id":283405,"name":"san simon","country":"bo","lat":-20.15,"lon":-65.6166667},{"id":280005,"name":"macavi","country":"bo","lat":-20.1333333,"lon":-66.1166667},{"id":277163,"name":"estancia vila ake","country":"bo","lat":-20.3666667,"lon":-66.1833333},{"id":284964,"name":"tuctapari","country":"bo","lat":-20.05,"lon":-65.5666667},{"id":275830,"name":"estancia khella khella","country":"bo","lat":-19.8833333,"lon":-65.9833333},{"id":285567,"name":"vilovo","country":"bo","lat":-19.9,"lon":-66.25},{"id":274623,"name":"estancia antacollo","country":"bo","lat":-20.15,"lon":-66.4666667},{"id":272221,"name":"chanauca","country":"bo","lat":-19.6833333,"lon":-65.8166667},{"id":276517,"name":"estancia puca puca","country":"bo","lat":-20.1,"lon":-66.1166667},{"id":273405,"name":"comunidad mulo mulo","country":"bo","lat":-19.8,"lon":-65.5166667},{"id":273169,"name":"comunidad caltapi","country":"bo","lat":-20.0166667,"lon":-65.5833333},{"id":285635,"name":"viuizoca","country":"bo","lat":-20.15,"lon":-66.1666667},{"id":285391,"name":"vila kkollu","country":"bo","lat":-19.5744444,"lon":-65.9619444},{"id":279296,"name":"lacutani","country":"bo","lat":-20.1666667,"lon":-66.3},{"id":275115,"name":"estancia choquecala","country":"bo","lat":-20.1666667,"lon":-66.1},{"id":276941,"name":"estancia tatora","country":"bo","lat":-20.35,"lon":-66.3833333},{"id":281731,"name":"picula","country":"bo","lat":-19.9333333,"lon":-65.5666667},{"id":280524,"name":"mollepunco","country":"bo","lat":-19.8666667,"lon":-65.7166667},{"id":275658,"name":"estancia jaru waykho","country":"bo","lat":-20.4166667,"lon":-65.8},{"id":276602,"name":"estancia quirve chico","country":"bo","lat":-20.4166667,"lon":-65.7},{"id":272765,"name":"chulungani","country":"bo","lat":-20.0,"lon":-65.6},{"id":270168,"name":"agua castilla","country":"bo","lat":-19.7741667,"lon":-65.9891667},{"id":270563,"name":"apacheta","country":"bo","lat":-19.9166667,"lon":-66.2666667},{"id":277181,"name":"estancia vila vinto","country":"bo","lat":-20.2833333,"lon":-66.4833333},{"id":271396,"name":"caltama","country":"bo","lat":-20.2666667,"lon":-65.9166667},{"id":271102,"name":"buen vista","country":"bo","lat":-20.2166667,"lon":-65.5},{"id":275546,"name":"estancia irpa yapo","country":"bo","lat":-20.2833333,"lon":-65.9166667},{"id":274727,"name":"estancia cacapata","country":"bo","lat":-20.25,"lon":-66.2},{"id":272267,"name":"chaquilla","country":"bo","lat":-19.7833333,"lon":-66.1},{"id":276907,"name":"estancia tambo mayu","country":"bo","lat":-19.8341667,"lon":-65.8605556},{"id":276175,"name":"estancia mocko pata","country":"bo","lat":-20.45,"lon":-66.3},{"id":276419,"name":"estancia pati pati","country":"bo","lat":-19.5333333,"lon":-65.6333333},{"id":272465,"name":"chilimayo","country":"bo","lat":-20.0166667,"lon":-65.8166667},{"id":275674,"name":"estancia jayaquilla","country":"bo","lat":-19.7511111,"lon":-65.7030556},{"id":284764,"name":"tontola","country":"bo","lat":-20.4166667,"lon":-65.6333333},{"id":276106,"name":"estancia mal paso","country":"bo","lat":-20.4,"lon":-66.3},{"id":279100,"name":"khocha","country":"bo","lat":-20.45,"lon":-66.4833333},{"id":276128,"name":"estancia markiri","country":"bo","lat":-20.4166667,"lon":-66.2166667},{"id":284800,"name":"toropalca","country":"bo","lat":-20.35,"lon":-65.7666667},{"id":272315,"name":"chati","country":"bo","lat":-20.4666667,"lon":-65.6333333},{"id":281667,"name":"perez tambo","country":"bo","lat":-20.1666667,"lon":-65.5666667},{"id":279028,"name":"kasa huasi","country":"bo","lat":-19.7630556,"lon":-65.8425},{"id":276800,"name":"estancia sinigo","country":"bo","lat":-20.2166667,"lon":-66.3833333},{"id":275957,"name":"estancia laico","country":"bo","lat":-20.2333333,"lon":-66.1333333},{"id":277492,"name":"g. busch","country":"bo","lat":-19.8797222,"lon":-65.6952778},{"id":280367,"name":"mina huacullani","country":"bo","lat":-19.7833333,"lon":-66.0833333},{"id":280127,"name":"maquela","country":"bo","lat":-20.3166667,"lon":-66.2666667},{"id":276052,"name":"estancia locajchi","country":"bo","lat":-20.2,"lon":-65.9},{"id":283112,"name":"san antonio","country":"bo","lat":-19.5833333,"lon":-65.8},{"id":284691,"name":"tojrapalca","country":"bo","lat":-20.25,"lon":-66.45},{"id":284428,"name":"taypi kasa","country":"bo","lat":-19.5833333,"lon":-66.0666667},{"id":279418,"name":"laja tambo","country":"bo","lat":-19.5166667,"lon":-65.6666667},{"id":276292,"name":"estancia pachij","country":"bo","lat":-20.3,"lon":-66.3666667},{"id":276847,"name":"estancia suchjira","country":"bo","lat":-20.1666667,"lon":-65.9},{"id":277717,"name":"hacienda san jose","country":"bo","lat":-20.4,"lon":-65.6333333},{"id":277166,"name":"estancia vilacollo","country":"bo","lat":-20.1666667,"lon":-66.4833333},{"id":273534,"name":"comunidad socoila","country":"bo","lat":-19.7741667,"lon":-65.5158333},{"id":271563,"name":"canlliri","country":"bo","lat":-20.4333333,"lon":-66.2},{"id":280512,"name":"molle grande","country":"bo","lat":-20.1666667,"lon":-65.5},{"id":275013,"name":"estancia charque","country":"bo","lat":-20.1833333,"lon":-65.6666667},{"id":281606,"name":"pelca","country":"bo","lat":-20.05,"lon":-66.1666667},{"id":284647,"name":"tocari","country":"bo","lat":-20.2166667,"lon":-66.2333333},{"id":275392,"name":"estancia hornos","country":"bo","lat":-19.9833333,"lon":-65.7},{"id":273237,"name":"comunidad condoriri","country":"bo","lat":-19.7366667,"lon":-65.9261111},{"id":284103,"name":"tacora","country":"bo","lat":-19.9,"lon":-66.2166667},{"id":276580,"name":"estancia quetacochi","country":"bo","lat":-20.2833333,"lon":-65.7166667},{"id":277106,"name":"estancia uloloma","country":"bo","lat":-20.3166667,"lon":-65.8166667},{"id":275516,"name":"estancia huyito","country":"bo","lat":-20.4333333,"lon":-66.3166667},{"id":271761,"name":"cariloma","country":"bo","lat":-20.3666667,"lon":-66.4166667},{"id":274663,"name":"estancia atajon","country":"bo","lat":-20.2333333,"lon":-66.2833333},{"id":276295,"name":"estancia paco chico","country":"bo","lat":-19.5166667,"lon":-65.9333333},{"id":273370,"name":"comunidad lincha","country":"bo","lat":-20.45,"lon":-65.6166667},{"id":272814,"name":"chuquivilque","country":"bo","lat":-20.3,"lon":-66.2666667},{"id":282591,"name":"quilque","country":"bo","lat":-20.1833333,"lon":-65.95},{"id":284175,"name":"talaco","country":"bo","lat":-19.7333333,"lon":-65.5833333},{"id":279103,"name":"khochi","country":"bo","lat":-20.2666667,"lon":-66.15},{"id":276392,"name":"estancia parin taca","country":"bo","lat":-20.3666667,"lon":-65.65},{"id":271348,"name":"calila","country":"bo","lat":-20.25,"lon":-65.6833333},{"id":280388,"name":"mina tapaquilla","country":"bo","lat":-19.8666667,"lon":-65.8},{"id":276878,"name":"estancia tacara","country":"bo","lat":-19.9202778,"lon":-65.8055556},{"id":280369,"name":"mina illimani","country":"bo","lat":-19.6666667,"lon":-65.7},{"id":274638,"name":"estancia apacheta","country":"bo","lat":-20.0833333,"lon":-66.2666667},{"id":279115,"name":"khuchu ingenio","country":"bo","lat":-19.9166667,"lon":-65.6666667},{"id":284161,"name":"tajchiquiri","country":"bo","lat":-20.3833333,"lon":-65.7833333},{"id":276478,"name":"estancia pirina","country":"bo","lat":-20.35,"lon":-66.05},{"id":285883,"name":"yura","country":"bo","lat":-20.0666667,"lon":-66.1333333},{"id":271273,"name":"calacaza","country":"bo","lat":-19.75,"lon":-65.7333333},{"id":275903,"name":"estancia kona kona","country":"bo","lat":-20.0333333,"lon":-66.3166667},{"id":274998,"name":"estancia chaquilla","country":"bo","lat":-19.7841667,"lon":-65.7433333},{"id":275132,"name":"estancia chujlla","country":"bo","lat":-20.4166667,"lon":-65.85},{"id":273526,"name":"comunidad sepultura","country":"bo","lat":-19.8633333,"lon":-65.5969444},{"id":277278,"name":"estancia yapina","country":"bo","lat":-20.4166667,"lon":-65.7666667},{"id":274833,"name":"estancia carahuisa","country":"bo","lat":-20.3333333,"lon":-65.8333333},{"id":276701,"name":"estancia san jorge","country":"bo","lat":-20.3,"lon":-65.75},{"id":284312,"name":"tapiquila","country":"bo","lat":-20.2666667,"lon":-66.25},{"id":270480,"name":"andacave","country":"bo","lat":-19.8166667,"lon":-65.6333333},{"id":279430,"name":"lakakalma","country":"bo","lat":-19.5,"lon":-65.7},{"id":276184,"name":"estancia molinza","country":"bo","lat":-20.0,"lon":-66.1666667},{"id":282703,"name":"rancho jokor palca","country":"bo","lat":-20.0833333,"lon":-65.8833333},{"id":276127,"name":"estancia marcayi","country":"bo","lat":-20.2333333,"lon":-65.6833333},{"id":272027,"name":"cerro pampasi","country":"bo","lat":-20.3666667,"lon":-65.75},{"id":283474,"name":"santa lucia","country":"bo","lat":-19.5666667,"lon":-65.8666667},{"id":282721,"name":"rancho pillahuani","country":"bo","lat":-20.45,"lon":-66.1333333},{"id":284085,"name":"tachiquila","country":"bo","lat":-20.2,"lon":-66.2166667},{"id":279419,"name":"lajatambo","country":"bo","lat":-19.8666667,"lon":-65.7666667},{"id":280375,"name":"mina lencerocagua","country":"bo","lat":-19.85,"lon":-66.0333333},{"id":277029,"name":"estancia tokochi","country":"bo","lat":-20.1333333,"lon":-66.1333333},{"id":282415,"name":"puque","country":"bo","lat":-20.4166667,"lon":-65.75},{"id":273583,"name":"comunidad turisa","country":"bo","lat":-19.8252778,"lon":-65.5669444},{"id":280496,"name":"molina","country":"bo","lat":-20.0333333,"lon":-66.1666667},{"id":276563,"name":"estancia pusuta","country":"bo","lat":-20.3666667,"lon":-66.2166667},{"id":275764,"name":"estancia kellio","country":"bo","lat":-20.3,"lon":-65.85},{"id":276178,"name":"estancia mojon","country":"bo","lat":-20.1833333,"lon":-66.2666667},{"id":282716,"name":"rancho loro huasi","country":"bo","lat":-20.0166667,"lon":-65.6833333},{"id":283589,"name":"sara","country":"bo","lat":-20.2833333,"lon":-65.8333333},{"id":276377,"name":"estancia paraja","country":"bo","lat":-20.1,"lon":-66.3166667},{"id":285533,"name":"villa talavera","country":"bo","lat":-19.7938889,"lon":-65.5027778},{"id":281999,"name":"potoco","country":"bo","lat":-19.8666667,"lon":-66.4666667},{"id":277041,"name":"estancia topho","country":"bo","lat":-20.1833333,"lon":-66.2333333},{"id":273553,"name":"comunidad tapchiquira","country":"bo","lat":-20.4,"lon":-65.7833333},{"id":272593,"name":"chiutaca","country":"bo","lat":-20.05,"lon":-66.45},{"id":283671,"name":"senagate","country":"bo","lat":-20.2666667,"lon":-65.7833333},{"id":275272,"name":"estancia cullcu","country":"bo","lat":-20.0666667,"lon":-66.4833333},{"id":284015,"name":"susques","country":"bo","lat":-19.5,"lon":-65.5333333},{"id":282950,"name":"sacasaca","country":"bo","lat":-19.8666667,"lon":-66.1},{"id":274029,"name":"cunurana","country":"bo","lat":-19.9,"lon":-65.6166667},{"id":277167,"name":"estancia vilacota","country":"bo","lat":-20.1833333,"lon":-66.4166667},{"id":275197,"name":"estancia collpa collpa","country":"bo","lat":-20.1333333,"lon":-65.9333333},{"id":273189,"name":"comunidad chajna","country":"bo","lat":-20.4333333,"lon":-65.7333333},{"id":276220,"name":"estancia murmuntani","country":"bo","lat":-20.3333333,"lon":-66.3166667},{"id":280840,"name":"nequetiri","country":"bo","lat":-20.05,"lon":-66.0166667},{"id":276985,"name":"estancia thoray khucho","country":"bo","lat":-20.0,"lon":-66.1},{"id":275709,"name":"estancia jorjochi","country":"bo","lat":-20.2666667,"lon":-65.75},{"id":284037,"name":"tabla","country":"bo","lat":-20.3,"lon":-65.55},{"id":284377,"name":"tarucachi","country":"bo","lat":-20.3,"lon":-65.6833333},{"id":276268,"name":"estancia ollerias","country":"bo","lat":-19.7166667,"lon":-65.7},{"id":273809,"name":"cota","country":"bo","lat":-20.2166667,"lon":-66.3},{"id":282786,"name":"requisa","country":"bo","lat":-20.4,"lon":-65.6833333},{"id":270063,"name":"abracasa","country":"bo","lat":-19.9,"lon":-65.7166667},{"id":278718,"name":"jankho jakke","country":"bo","lat":-20.0166667,"lon":-66.3},{"id":274655,"name":"estancia aroifilla","country":"bo","lat":-19.5166667,"lon":-65.8166667},{"id":279417,"name":"lajas","country":"bo","lat":-19.85,"lon":-65.7333333},{"id":283121,"name":"san bartolo","country":"bo","lat":-19.5833333,"lon":-65.8333333},{"id":275352,"name":"estancia falsuri","country":"bo","lat":-20.25,"lon":-65.5},{"id":272131,"name":"chajna","country":"bo","lat":-20.4166667,"lon":-65.7333333},{"id":275169,"name":"estancia churquiyoj","country":"bo","lat":-20.1833333,"lon":-65.6166667},{"id":273419,"name":"comunidad olo olo","country":"bo","lat":-19.6758333,"lon":-65.5077778},{"id":272350,"name":"checoche","country":"bo","lat":-20.3666667,"lon":-65.7333333},{"id":280379,"name":"mina porco","country":"bo","lat":-19.8333333,"lon":-66.0},{"id":276998,"name":"estancia tijra","country":"bo","lat":-19.6666667,"lon":-65.7333333},{"id":275073,"name":"estancia chimi chimi","country":"bo","lat":-20.15,"lon":-65.6666667},{"id":276765,"name":"estancia sauce palea","country":"bo","lat":-20.2333333,"lon":-65.5833333},{"id":274939,"name":"estancia chakiri","country":"bo","lat":-20.1666667,"lon":-66.35},{"id":274722,"name":"estancia cabinota","country":"bo","lat":-19.95,"lon":-65.8},{"id":271754,"name":"caricasi","country":"bo","lat":-19.9333333,"lon":-65.55},{"id":272854,"name":"chutapata","country":"bo","lat":-20.0,"lon":-66.2666667},{"id":282616,"name":"quinchura","country":"bo","lat":-19.9666667,"lon":-65.8666667},{"id":277022,"name":"estancia tojchiki","country":"bo","lat":-20.0333333,"lon":-66.35},{"id":280376,"name":"mina noita","country":"bo","lat":-19.9,"lon":-65.9},{"id":285376,"name":"vilacahua","country":"bo","lat":-20.2666667,"lon":-65.8833333},{"id":276313,"name":"estancia pajcha","country":"bo","lat":-20.4833333,"lon":-65.5833333},{"id":275006,"name":"estancia charara","country":"bo","lat":-20.0166667,"lon":-66.0833333},{"id":281125,"name":"pacopalla","country":"bo","lat":-20.1166667,"lon":-66.2666667},{"id":276859,"name":"estancia sunahuala","country":"bo","lat":-20.35,"lon":-65.75},{"id":279057,"name":"kelcata","country":"bo","lat":-19.8333333,"lon":-66.05},{"id":276147,"name":"estancia mesa mesa","country":"bo","lat":-20.3166667,"lon":-65.8},{"id":275961,"name":"estancia laja hunu","country":"bo","lat":-20.3333333,"lon":-65.55},{"id":274890,"name":"estancia caysula","country":"bo","lat":-20.1833333,"lon":-65.7166667},{"id":273532,"name":"comunidad silvi","country":"bo","lat":-19.9666667,"lon":-65.5666667},{"id":275553,"name":"estancia iruni","country":"bo","lat":-20.3,"lon":-65.8833333},{"id":275370,"name":"estancia gira palca","country":"bo","lat":-19.9863889,"lon":-65.9641667},{"id":271608,"name":"capatarca","country":"bo","lat":-19.65,"lon":-65.8666667},{"id":276361,"name":"estancia panagua","country":"bo","lat":-20.1166667,"lon":-66.1166667},{"id":277908,"name":"huakanqui","country":"bo","lat":-20.0,"lon":-66.4333333},{"id":274548,"name":"estancia achacaniri","country":"bo","lat":-20.05,"lon":-66.4},{"id":271314,"name":"calasaya","country":"bo","lat":-20.1,"lon":-66.3833333},{"id":275231,"name":"estancia corcka","country":"bo","lat":-20.3166667,"lon":-65.6666667},{"id":276858,"name":"estancia suna","country":"bo","lat":-20.1666667,"lon":-66.3666667},{"id":280371,"name":"mina karicari","country":"bo","lat":-19.75,"lon":-65.8},{"id":276333,"name":"estancia palca unu","country":"bo","lat":-20.35,"lon":-66.2666667},{"id":276193,"name":"estancia molle puncu","country":"bo","lat":-20.2833333,"lon":-66.05},{"id":272260,"name":"chaqui","country":"bo","lat":-19.5866667,"lon":-65.56},{"id":279449,"name":"lamachi","country":"bo","lat":-20.4166667,"lon":-65.8666667},{"id":270288,"name":"alcotambo","country":"bo","lat":-19.7,"lon":-65.7666667},{"id":275223,"name":"estancia copamayo","country":"bo","lat":-20.0666667,"lon":-66.2666667},{"id":277352,"name":"falsuri","country":"bo","lat":-20.2666667,"lon":-65.5},{"id":285082,"name":"ubina","country":"bo","lat":-20.4833333,"lon":-66.4333333},{"id":272271,"name":"chaqui tambo","country":"bo","lat":-19.5666667,"lon":-65.5333333},{"id":276399,"name":"estancia paspocori","country":"bo","lat":-20.1666667,"lon":-66.2166667},{"id":277139,"name":"estancia utan palca","country":"bo","lat":-20.2666667,"lon":-65.7},{"id":275663,"name":"estancia jatun jara","country":"bo","lat":-20.2666667,"lon":-65.6},{"id":278477,"name":"iruni","country":"bo","lat":-20.0333333,"lon":-66.0833333},{"id":276234,"name":"estancia nanpalcayoj","country":"bo","lat":-20.3666667,"lon":-65.5166667},{"id":275166,"name":"estancia churquinoma","country":"bo","lat":-20.1333333,"lon":-66.3},{"id":274834,"name":"estancia caranjani","country":"bo","lat":-20.25,"lon":-65.9666667},{"id":282647,"name":"quirve","country":"bo","lat":-20.4333333,"lon":-65.6666667},{"id":280835,"name":"negro tambo","country":"bo","lat":-19.5333333,"lon":-65.5833333},{"id":277271,"name":"estancia yanamoko","country":"bo","lat":-20.2,"lon":-66.3666667},{"id":275657,"name":"estancia jaru unu","country":"bo","lat":-20.35,"lon":-66.25},{"id":276411,"name":"estancia patakara","country":"bo","lat":-20.0833333,"lon":-66.1},{"id":277261,"name":"estancia wiscu wiscu","country":"bo","lat":-19.55,"lon":-65.8833333},{"id":279658,"name":"lava","country":"bo","lat":-19.9166667,"lon":-65.6333333},{"id":277216,"name":"estancia visijsi","country":"bo","lat":-20.2666667,"lon":-65.6333333},{"id":274719,"name":"estancia burro cancha","country":"bo","lat":-20.3333333,"lon":-66.0},{"id":280362,"name":"mina catariri","country":"bo","lat":-19.8666667,"lon":-65.8833333},{"id":273279,"name":"comunidad guadalupe","country":"bo","lat":-20.0833333,"lon":-65.5166667},{"id":273309,"name":"comunidad jatun mayu","country":"bo","lat":-19.9369444,"lon":-65.7566667},{"id":274605,"name":"estancia alta payruma","country":"bo","lat":-19.8647222,"lon":-65.99},{"id":275391,"name":"estancia horno palca","country":"bo","lat":-20.3333333,"lon":-65.7833333},{"id":276783,"name":"estancia senantoma","country":"bo","lat":-20.2,"lon":-65.9166667},{"id":275033,"name":"estancia chifluyo","country":"bo","lat":-20.4166667,"lon":-66.3333333},{"id":276920,"name":"estancia tappi","country":"bo","lat":-20.15,"lon":-65.8333333},{"id":276311,"name":"estancia pajcha cullcu","country":"bo","lat":-20.2166667,"lon":-66.2166667},{"id":276588,"name":"estancia quillani","country":"bo","lat":-20.2333333,"lon":-65.9166667},{"id":274750,"name":"estancia cala cala","country":"bo","lat":-19.5,"lon":-65.65},{"id":281202,"name":"palca chanca","country":"bo","lat":-19.9397222,"lon":-65.5655556},{"id":273547,"name":"comunidad taca taca","country":"bo","lat":-19.98,"lon":-65.7402778},{"id":274495,"name":"escorno","country":"bo","lat":-20.0,"lon":-66.3666667},{"id":273188,"name":"comunidad chajnacaya","country":"bo","lat":-19.9666667,"lon":-65.65},{"id":285625,"name":"visicza","country":"bo","lat":-20.0333333,"lon":-66.1833333},{"id":272556,"name":"chiracoro","country":"bo","lat":-19.5833333,"lon":-65.8833333},{"id":283911,"name":"soropalca","country":"bo","lat":-20.2666667,"lon":-65.7333333},{"id":274847,"name":"estancia carpalla","country":"bo","lat":-20.35,"lon":-66.3},{"id":281072,"name":"pacaja","country":"bo","lat":-19.7166667,"lon":-65.5166667},{"id":271008,"name":"bocamina","country":"bo","lat":-19.7833333,"lon":-65.75},{"id":284686,"name":"toguacomuna","country":"bo","lat":-19.7166667,"lon":-65.75},{"id":275143,"name":"estancia chullperio","country":"bo","lat":-19.8333333,"lon":-65.8166667},{"id":284761,"name":"tonocare","country":"bo","lat":-19.7,"lon":-65.9},{"id":275891,"name":"estancia kollpa","country":"bo","lat":-19.9011111,"lon":-65.9136111},{"id":277135,"name":"estancia uru palca","country":"bo","lat":-20.1666667,"lon":-65.85},{"id":275931,"name":"estancia lacay vinto","country":"bo","lat":-20.1,"lon":-66.35}]});