callback({"markets":[{"id":2407478,"name":"imeni molokova","country":"ru","lat":60.05,"lon":90.516667},{"id":2465664,"name":"nazimovo","country":"ru","lat":59.509444,"lon":90.932222},{"id":2468715,"name":"nizhne-shadrina","country":"ru","lat":59.923333,"lon":90.640556},{"id":2511230,"name":"sergeyeva","country":"ru","lat":59.653056,"lon":90.833611},{"id":2473980,"name":"novonazimovo","country":"ru","lat":59.570556,"lon":90.815}]});