callback({"markets":[{"id":3151041,"name":"bayalo","country":"zr","lat":-2.9,"lon":19.5666667},{"id":369931,"name":"nongimpela","country":"cd","lat":-3.266667,"lon":19.75},{"id":369372,"name":"ndika","country":"cd","lat":-3.383333,"lon":20.083333},{"id":3153996,"name":"dika","country":"zr","lat":-3.0166667,"lon":20.0166667},{"id":3156030,"name":"isoko","country":"zr","lat":-3.4333333,"lon":19.5666667},{"id":361063,"name":"kekwa","country":"cd","lat":-2.933333,"lon":19.55},{"id":358293,"name":"isoko","country":"cd","lat":-3.433333,"lon":19.566667},{"id":3167664,"name":"nongenturi","country":"zr","lat":-3.0666667,"lon":19.8666667},{"id":3152377,"name":"bolongonkele","country":"zr","lat":-2.75,"lon":19.9666667},{"id":3163740,"name":"mange sud","country":"zr","lat":-2.75,"lon":19.6666667},{"id":355071,"name":"boseki","country":"cd","lat":-3.3,"lon":19.516667},{"id":3152809,"name":"boseki","country":"zr","lat":-3.3,"lon":19.5166667},{"id":353395,"name":"bekombo","country":"cd","lat":-2.583333,"lon":20.2},{"id":357093,"name":"etei","country":"cd","lat":-2.85,"lon":19.616667},{"id":364376,"name":"loombo","country":"cd","lat":-2.533333,"lon":19.933333},{"id":3153428,"name":"bungange","country":"zr","lat":-3.0333333,"lon":19.9833333},{"id":353389,"name":"bekoli","country":"cd","lat":-2.9,"lon":20.066667},{"id":3152102,"name":"bokay","country":"zr","lat":-3.0666667,"lon":19.7833333},{"id":3152802,"name":"bosasa","country":"zr","lat":-3.1166667,"lon":19.8666667},{"id":366003,"name":"mange sud","country":"cd","lat":-2.75,"lon":19.666667},{"id":3155195,"name":"gilson","country":"zr","lat":-2.7833333,"lon":19.9833333},{"id":3154867,"name":"eyandje","country":"zr","lat":-3.1166667,"lon":20.05},{"id":353707,"name":"betenkoi","country":"cd","lat":-2.65,"lon":19.616667},{"id":366002,"name":"mange nord","country":"cd","lat":-2.733333,"lon":19.666667},{"id":355064,"name":"bosasa","country":"cd","lat":-3.116667,"lon":19.866667},{"id":3163739,"name":"mange nord","country":"zr","lat":-2.7333333,"lon":19.6666667},{"id":3155825,"name":"inako","country":"zr","lat":-2.5166667,"lon":19.9},{"id":3162045,"name":"lompole","country":"zr","lat":-2.5666667,"lon":20.2333333},{"id":3152876,"name":"bosoko","country":"zr","lat":-2.5166667,"lon":20.3666667},{"id":3152278,"name":"boleka","country":"zr","lat":-2.9666667,"lon":19.6833333},{"id":3151133,"name":"bekombo","country":"zr","lat":-2.5833333,"lon":20.2},{"id":369927,"name":"nongenturi","country":"cd","lat":-3.066667,"lon":19.866667},{"id":3154853,"name":"etumba","country":"zr","lat":-2.95,"lon":20.0666667},{"id":353886,"name":"bindja","country":"cd","lat":-3.416667,"lon":19.633333},{"id":3152393,"name":"bolundu","country":"zr","lat":-2.9166667,"lon":19.6333333},{"id":3167668,"name":"nongimpela","country":"zr","lat":-3.2666667,"lon":19.75},{"id":353888,"name":"bindja-sud","country":"cd","lat":-3.483333,"lon":19.65},{"id":354540,"name":"boleka","country":"cd","lat":-2.966667,"lon":19.683333},{"id":3155934,"name":"ipoka sud","country":"zr","lat":-2.6166667,"lon":20.15},{"id":357458,"name":"gilson","country":"cd","lat":-2.783333,"lon":19.983333},{"id":3152321,"name":"bolinda","country":"zr","lat":-3.0166667,"lon":19.5666667},{"id":354637,"name":"bolongokele","country":"cd","lat":-2.75,"lon":19.966667},{"id":354310,"name":"bokai","country":"cd","lat":-3.066667,"lon":19.783333},{"id":3171411,"name":"watu","country":"zr","lat":-3.3,"lon":20.05},{"id":353313,"name":"bayelo","country":"cd","lat":-2.9,"lon":19.566667},{"id":355081,"name":"bosenge-olongo","country":"cd","lat":-2.833333,"lon":19.65},{"id":355690,"name":"bungange","country":"cd","lat":-3.033333,"lon":19.983333},{"id":3154831,"name":"etei","country":"zr","lat":-2.85,"lon":19.6166667},{"id":3151445,"name":"betenkoi","country":"zr","lat":-2.65,"lon":19.6166667},{"id":3154661,"name":"elema-impata","country":"zr","lat":-2.5666667,"lon":20.0},{"id":355716,"name":"bunsange","country":"cd","lat":-2.8,"lon":19.55},{"id":3158800,"name":"kekwa","country":"zr","lat":-2.9333333,"lon":19.55},{"id":364214,"name":"lokolama","country":"cd","lat":-2.566667,"lon":19.883333},{"id":364308,"name":"lompole","country":"cd","lat":-2.566667,"lon":20.233333},{"id":354902,"name":"bongimba","country":"cd","lat":-3.383333,"lon":20.05},{"id":3152746,"name":"bopambo","country":"zr","lat":-3.35,"lon":19.5166667},{"id":3151626,"name":"bindja-sud","country":"zr","lat":-3.4833333,"lon":19.65},{"id":358088,"name":"inako","country":"cd","lat":-2.516667,"lon":19.9},{"id":353887,"name":"bindja-nord","country":"cd","lat":-3.366667,"lon":19.666667},{"id":355008,"name":"bopambo","country":"cd","lat":-3.35,"lon":19.516667},{"id":3155914,"name":"ipaki ii","country":"zr","lat":-3.0833333,"lon":19.5333333},{"id":355266,"name":"botulu","country":"cd","lat":-2.866667,"lon":20.05},{"id":364286,"name":"lomasa","country":"cd","lat":-2.516667,"lon":20.35},{"id":355138,"name":"bosoko","country":"cd","lat":-2.516667,"lon":20.366667},{"id":3151955,"name":"bofulu","country":"zr","lat":-2.8666667,"lon":20.05},{"id":358076,"name":"impata","country":"cd","lat":-2.566667,"lon":20.0},{"id":357115,"name":"etumba","country":"cd","lat":-2.95,"lon":20.066667},{"id":363754,"name":"leko","country":"cd","lat":-2.55,"lon":19.983333},{"id":3152819,"name":"bosenge-olongo","country":"zr","lat":-2.8333333,"lon":19.65},{"id":3167109,"name":"ndika","country":"zr","lat":-3.3833333,"lon":20.0833333},{"id":3162023,"name":"lomasa","country":"zr","lat":-2.5166667,"lon":20.35},{"id":3155919,"name":"ipandju","country":"zr","lat":-2.65,"lon":19.5666667},{"id":3152712,"name":"bonkwankusu","country":"zr","lat":-3.2333333,"lon":19.5166667},{"id":3150783,"name":"baongo","country":"zr","lat":-2.6666667,"lon":19.9166667},{"id":353045,"name":"baongo","country":"cd","lat":-2.666667,"lon":19.916667},{"id":3152640,"name":"bongimba","country":"zr","lat":-3.3833333,"lon":20.05},{"id":357125,"name":"ewandji","country":"cd","lat":-3.116667,"lon":20.05},{"id":3155935,"name":"ipope","country":"zr","lat":-2.55,"lon":20.3166667},{"id":358182,"name":"ipandju","country":"cd","lat":-2.65,"lon":19.566667},{"id":358198,"name":"ipope","country":"cd","lat":-2.55,"lon":20.316667},{"id":3161951,"name":"lokolama","country":"zr","lat":-2.5666667,"lon":19.8833333},{"id":354583,"name":"bolinda","country":"cd","lat":-3.016667,"lon":19.566667},{"id":356258,"name":"dika","country":"cd","lat":-3.016667,"lon":20.016667},{"id":3152814,"name":"bosenge","country":"zr","lat":-3.05,"lon":19.55},{"id":355271,"name":"botumbe","country":"cd","lat":-3.166667,"lon":19.866667},{"id":354655,"name":"bolundu","country":"cd","lat":-2.916667,"lon":19.633333},{"id":3162113,"name":"loombo","country":"zr","lat":-2.5333333,"lon":19.9333333},{"id":3168854,"name":"saint camille","country":"zr","lat":-2.8833333,"lon":19.6},{"id":3153401,"name":"bumbuli","country":"zr","lat":-2.9,"lon":20.0666667},{"id":371117,"name":"saint camille","country":"cd","lat":-2.883333,"lon":19.6},{"id":3151625,"name":"bindja-nord","country":"zr","lat":-3.3666667,"lon":19.6666667},{"id":358197,"name":"ipoka sud","country":"cd","lat":-2.616667,"lon":20.15},{"id":354974,"name":"bonkwankusu","country":"cd","lat":-3.233333,"lon":19.516667},{"id":3161491,"name":"leko","country":"zr","lat":-2.55,"lon":19.9833333},{"id":358177,"name":"ipaki ii","country":"cd","lat":-3.083333,"lon":19.533333},{"id":3153007,"name":"botumba","country":"zr","lat":-3.1666667,"lon":19.8666667},{"id":3151624,"name":"bindja","country":"zr","lat":-3.4166667,"lon":19.6333333}]});