callback({"markets":[{"id":2361735,"name":"anay","country":"ru","lat":53.874444,"lon":107.795278},{"id":2378136,"name":"bolshoy kocherikov","country":"ru","lat":53.745556,"lon":107.777778},{"id":2453686,"name":"malyy onguren","country":"ru","lat":53.666667,"lon":107.6},{"id":2480251,"name":"onguren","country":"ru","lat":53.635556,"lon":107.594167},{"id":2542562,"name":"ubukhan","country":"ru","lat":53.766667,"lon":107.883333},{"id":2424688,"name":"kocherikov","country":"ru","lat":53.783333,"lon":107.9},{"id":2540602,"name":"tudugu","country":"ru","lat":53.619167,"lon":107.612222},{"id":2543774,"name":"ulus pokoyniki","country":"ru","lat":54.016667,"lon":108.2},{"id":2420596,"name":"khulurtuy","country":"ru","lat":53.698333,"lon":107.676389},{"id":2395480,"name":"eligey","country":"ru","lat":53.733333,"lon":107.766667}]});