callback({"markets":[{"id":2112135,"name":"caiboy","country":"ph","lat":11.3175,"lon":124.3749},{"id":2106082,"name":"bancasan","country":"ph","lat":11.055,"lon":123.9273},{"id":2138882,"name":"puyao","country":"ph","lat":11.0925,"lon":124.4942},{"id":2135445,"name":"palid","country":"ph","lat":11.3551,"lon":124.4741},{"id":2142018,"name":"santa lucia","country":"ph","lat":10.642,"lon":123.7538},{"id":2110185,"name":"bulalakao","country":"ph","lat":11.483333,"lon":124.466667},{"id":2115035,"name":"catigahan","country":"ph","lat":10.9801,"lon":124.4561},{"id":2109512,"name":"boyo","country":"ph","lat":10.641389,"lon":124.025},{"id":2104319,"name":"bagabao","country":"ph","lat":11.3023,"lon":124.4405},{"id":2103406,"name":"apitan","country":"ph","lat":10.765244,"lon":123.544403},{"id":2118683,"name":"esperanza","country":"ph","lat":10.7027,"lon":124.4143},{"id":2107850,"name":"benaguhan","country":"ph","lat":11.0637,"lon":124.4224},{"id":2114394,"name":"caputatan norte","country":"ph","lat":11.133333,"lon":123.966667},{"id":2110792,"name":"busali","country":"ph","lat":11.4879,"lon":124.4436},{"id":2120547,"name":"hacienda moro","country":"ph","lat":10.786843,"lon":123.518803},{"id":2106604,"name":"bantulin","country":"ph","lat":10.9171,"lon":124.0335},{"id":2104381,"name":"bagalinga","country":"ph","lat":10.7,"lon":124.0},{"id":2125016,"name":"langob","country":"ph","lat":10.5774,"lon":123.7309},{"id":2108729,"name":"bito-on","country":"ph","lat":11.2332,"lon":123.994},{"id":2104792,"name":"baigad","country":"ph","lat":11.1907,"lon":123.7703},{"id":2147515,"name":"tominhao","country":"ph","lat":10.7348,"lon":123.8598},{"id":2106650,"name":"bao","country":"ph","lat":10.733333,"lon":124.0},{"id":2144504,"name":"taberna","country":"ph","lat":11.0214,"lon":124.4296},{"id":2138464,"name":"puente","country":"ph","lat":10.606888,"lon":124.025286},{"id":2147018,"name":"timobo","country":"ph","lat":10.516667,"lon":124.0},{"id":2124057,"name":"kodia","country":"ph","lat":11.245,"lon":123.7222},{"id":2140755,"name":"san galang","country":"ph","lat":11.494,"lon":124.4929},{"id":2134423,"name":"old escalante","country":"ph","lat":10.8353,"lon":123.5548},{"id":2123274,"name":"kaongkod","country":"ph","lat":11.250278,"lon":123.755556},{"id":2102423,"name":"alinsolong","country":"ph","lat":11.483333,"lon":124.1},{"id":2128240,"name":"madridejos","country":"ph","lat":11.298,"lon":123.7339},{"id":2117007,"name":"danligan","country":"ph","lat":11.1868,"lon":123.7123},{"id":2126392,"name":"lipayran","country":"ph","lat":11.0593,"lon":123.6342},{"id":2130606,"name":"mansilang","country":"ph","lat":11.2835,"lon":123.7462},{"id":2132375,"name":"mohon","country":"ph","lat":11.1738,"lon":123.7407},{"id":2143510,"name":"singsing","country":"ph","lat":10.5133,"lon":123.737},{"id":2126802,"name":"look","country":"ph","lat":11.0601,"lon":124.3859},{"id":2112268,"name":"calagitan","country":"ph","lat":10.9972,"lon":124.4376},{"id":2144382,"name":"suso","country":"ph","lat":10.9059,"lon":123.8956},{"id":2144481,"name":"tabayag","country":"ph","lat":10.733333,"lon":123.966667},{"id":2135775,"name":"panalipan","country":"ph","lat":10.648333,"lon":124.021667},{"id":2123059,"name":"kanakaibe","country":"ph","lat":11.2025,"lon":123.7431},{"id":2127390,"name":"lungsuran","country":"ph","lat":10.955,"lon":123.5706},{"id":2128552,"name":"magsanga","country":"ph","lat":10.9536,"lon":124.4764},{"id":2114933,"name":"cataguan","country":"ph","lat":10.9621,"lon":124.4872},{"id":2148813,"name":"uson","country":"ph","lat":11.4775,"lon":124.4057},{"id":2143996,"name":"suba","country":"ph","lat":11.0734,"lon":124.4072},{"id":2130510,"name":"manlagtang","country":"ph","lat":10.953611,"lon":124.006944},{"id":2138223,"name":"pooc","country":"ph","lat":11.152,"lon":123.7931},{"id":2121005,"name":"hingatmonan","country":"ph","lat":10.511111,"lon":123.775},{"id":2144731,"name":"tabunok","country":"ph","lat":10.8512,"lon":123.8766},{"id":2149017,"name":"villaba","country":"ph","lat":11.2135,"lon":124.3921},{"id":2103350,"name":"apalan","country":"ph","lat":10.752222,"lon":123.835833},{"id":2116214,"name":"cumbado","country":"ph","lat":11.083333,"lon":123.966667},{"id":2130527,"name":"manlilinao","country":"ph","lat":11.1084,"lon":124.4991},{"id":2114098,"name":"cantocong","country":"ph","lat":10.583333,"lon":124.016667},{"id":2118851,"name":"fortaleza","country":"ph","lat":10.733333,"lon":123.816667},{"id":2134297,"name":"oboob","country":"ph","lat":11.1564,"lon":123.7488},{"id":2117322,"name":"dawis","country":"ph","lat":10.576983,"lon":124.018979},{"id":2134140,"name":"northern poblacion","country":"ph","lat":10.6601,"lon":124.3681},{"id":2147251,"name":"tinubdan","country":"ph","lat":11.186,"lon":124.0078},{"id":2131715,"name":"matungao","country":"ph","lat":11.4235,"lon":124.3192},{"id":2123607,"name":"kayam","country":"ph","lat":11.033333,"lon":123.9},{"id":2146937,"name":"tihagong","country":"ph","lat":11.2467,"lon":124.3942},{"id":2113439,"name":"canagahan","country":"ph","lat":10.9421,"lon":123.9679},{"id":2109332,"name":"bontogon","country":"ph","lat":11.4231,"lon":124.4676},{"id":2142183,"name":"santa rosa","country":"ph","lat":10.516667,"lon":123.966667},{"id":2127365,"name":"lungaob","country":"ph","lat":10.816667,"lon":123.966667},{"id":2113571,"name":"cancanaan","country":"ph","lat":11.1761,"lon":124.4914},{"id":2121568,"name":"ilihan","country":"ph","lat":10.9054,"lon":123.9704},{"id":2127347,"name":"lunas","country":"ph","lat":10.6402,"lon":123.7525},{"id":2108141,"name":"bilaran","country":"ph","lat":11.0,"lon":124.483333},{"id":2117169,"name":"daraon","country":"ph","lat":11.3846,"lon":124.4309},{"id":2123277,"name":"ka-orasan","country":"ph","lat":10.655556,"lon":123.872222},{"id":2146835,"name":"tigbao","country":"ph","lat":11.4807,"lon":124.4955},{"id":2126811,"name":"lo-ok","country":"ph","lat":10.510429,"lon":124.027181},{"id":2135548,"name":"palompon","country":"ph","lat":11.0508,"lon":124.3843},{"id":2117541,"name":"dian-ay","country":"ph","lat":10.833333,"lon":123.55},{"id":2109878,"name":"bugabuga","country":"ph","lat":11.1895,"lon":124.409},{"id":2120949,"name":"himensulan","country":"ph","lat":10.5967,"lon":124.2821},{"id":2111063,"name":"cabac","country":"ph","lat":11.2353,"lon":123.6979},{"id":2148530,"name":"udtongan","country":"ph","lat":10.773344,"lon":123.520003},{"id":2106335,"name":"bangun","country":"ph","lat":11.15,"lon":123.966667},{"id":2143876,"name":"sonog","country":"ph","lat":10.6991,"lon":124.337},{"id":2112855,"name":"calumboyan","country":"ph","lat":10.791667,"lon":124.026667},{"id":2147949,"name":"tuburan","country":"ph","lat":11.1364,"lon":124.4},{"id":2116872,"name":"danao city","country":"ph","lat":10.520833,"lon":124.027222},{"id":2111141,"name":"cabalawan","country":"ph","lat":10.741389,"lon":123.9525},{"id":2131685,"name":"matogob","country":"ph","lat":11.1119,"lon":124.4956},{"id":2110890,"name":"butazon","country":"ph","lat":11.3072,"lon":124.462},{"id":2101626,"name":"adela","country":"ph","lat":10.6791,"lon":124.4375},{"id":2115420,"name":"cervantes","country":"ph","lat":10.8726,"lon":123.5209},{"id":2147407,"name":"toganon","country":"ph","lat":10.513611,"lon":123.939444},{"id":2143007,"name":"sibacan","country":"ph","lat":10.516667,"lon":124.033333},{"id":2128773,"name":"maigang","country":"ph","lat":11.3089,"lon":124.3624},{"id":2135100,"name":"pagsa","country":"ph","lat":10.6575,"lon":124.4213},{"id":2131336,"name":"masisi","country":"ph","lat":11.2972,"lon":124.3792},{"id":2125873,"name":"libo","country":"ph","lat":10.834,"lon":123.5262},{"id":2142133,"name":"santa rita","country":"ph","lat":10.6205,"lon":123.8414},{"id":2123366,"name":"kaputatan","country":"ph","lat":10.533333,"lon":124.0},{"id":2149341,"name":"washington","country":"ph","lat":10.8562,"lon":123.5207},{"id":2101997,"name":"agubay","country":"ph","lat":11.0231,"lon":124.4888},{"id":2111678,"name":"cabungaan","country":"ph","lat":10.6625,"lon":123.998056},{"id":2147361,"name":"toboso","country":"ph","lat":10.714348,"lon":123.516202},{"id":2116826,"name":"damolog","country":"ph","lat":10.766667,"lon":124.0},{"id":2137925,"name":"plaridel","country":"ph","lat":10.602,"lon":123.7409},{"id":2134673,"name":"otin","country":"ph","lat":11.2464,"lon":124.4339},{"id":2137215,"name":"pena","country":"ph","lat":11.2134,"lon":124.4548},{"id":2112832,"name":"calubian","country":"ph","lat":11.4472,"lon":124.4281},{"id":2147819,"name":"tubigmanoc","country":"ph","lat":10.6282,"lon":123.7489},{"id":2126341,"name":"lioliog","country":"ph","lat":11.2917,"lon":124.3714},{"id":2136864,"name":"patao","country":"ph","lat":11.2202,"lon":123.6925},{"id":2122500,"name":"kabangbang","country":"ph","lat":11.2019,"lon":123.721},{"id":2118524,"name":"eastern poblacion","country":"ph","lat":10.6322,"lon":124.4111},{"id":2145030,"name":"tagharigue","country":"ph","lat":11.4072,"lon":124.406},{"id":2107865,"name":"beniay","country":"ph","lat":11.469,"lon":124.4624},{"id":2123935,"name":"kinigtasai","country":"ph","lat":11.1213,"lon":124.4812},{"id":2145053,"name":"taglauigan","country":"ph","lat":11.4884,"lon":124.2988},{"id":2134263,"name":"oac","country":"ph","lat":10.55,"lon":123.7},{"id":2130558,"name":"manok","country":"ph","lat":11.446944,"lon":124.475556},{"id":2109265,"name":"bongoyan","country":"ph","lat":10.857778,"lon":124.003889},{"id":2127717,"name":"mabanog","country":"ph","lat":10.8779,"lon":124.0308},{"id":2120105,"name":"guintongan","country":"ph","lat":10.766244,"lon":123.529403},{"id":2128652,"name":"magupi","country":"ph","lat":11.3265,"lon":124.3427},{"id":2131998,"name":"medellin","country":"ph","lat":11.1286,"lon":123.9622},{"id":2123525,"name":"katongkolan","country":"ph","lat":10.7035,"lon":123.8079},{"id":2128469,"name":"magkalape","country":"ph","lat":10.6,"lon":123.766667},{"id":2131046,"name":"maria chistina","country":"ph","lat":11.3123,"lon":124.3829},{"id":2113518,"name":"canatong","country":"ph","lat":10.9522,"lon":123.5528},{"id":2115072,"name":"catmon","country":"ph","lat":10.716667,"lon":124.0},{"id":2146943,"name":"tikadtikad","country":"ph","lat":11.2939,"lon":123.7418},{"id":2130864,"name":"maraat","country":"ph","lat":10.9351,"lon":123.9112},{"id":2145697,"name":"tamban","country":"ph","lat":10.965,"lon":123.9632},{"id":2144684,"name":"tabuelan","country":"ph","lat":10.8209,"lon":123.8689},{"id":2130407,"name":"mangunoy","country":"ph","lat":10.5,"lon":124.0},{"id":2137663,"name":"pinangumhan","country":"ph","lat":11.4895,"lon":124.4617},{"id":2135778,"name":"panaliwad-on","country":"ph","lat":10.516667,"lon":123.933333},{"id":2130255,"name":"manga","country":"ph","lat":10.7103,"lon":123.809},{"id":2145117,"name":"tagtawigan","country":"ph","lat":11.4182,"lon":124.3854},{"id":2120674,"name":"hagnaya","country":"ph","lat":11.0924,"lon":123.9435},{"id":2122579,"name":"kabongaan","country":"ph","lat":10.706667,"lon":123.950556},{"id":2102891,"name":"amya","country":"ph","lat":10.7575,"lon":123.92},{"id":2130124,"name":"manban","country":"ph","lat":10.9368,"lon":124.3832},{"id":2146536,"name":"taytayan","country":"ph","lat":10.8787,"lon":123.9771},{"id":2147224,"name":"tinobdan","country":"ph","lat":11.0735,"lon":124.4245},{"id":2127455,"name":"lusaran","country":"ph","lat":10.966667,"lon":123.983333},{"id":2123466,"name":"katambuan","country":"ph","lat":10.9891,"lon":124.4559},{"id":2107173,"name":"batad","country":"ph","lat":10.9843,"lon":123.9304},{"id":2113184,"name":"cambinoy","country":"ph","lat":11.066667,"lon":124.383333},{"id":2108306,"name":"binalio","country":"ph","lat":10.55,"lon":124.0},{"id":2101706,"name":"agaoob","country":"ph","lat":11.183333,"lon":124.433333},{"id":2138042,"name":"polambato","country":"ph","lat":11.0664,"lon":123.9918},{"id":2124787,"name":"lamesa","country":"ph","lat":10.516667,"lon":123.8},{"id":2106513,"name":"bantayan","country":"ph","lat":11.1683,"lon":123.7223},{"id":2127547,"name":"luyang","country":"ph","lat":10.602533,"lon":124.025842},{"id":2103140,"name":"aningalan","country":"ph","lat":10.9536,"lon":123.9249},{"id":2109464,"name":"botigues","country":"ph","lat":11.0995,"lon":123.6675},{"id":2121104,"name":"honob","country":"ph","lat":10.733333,"lon":123.95},{"id":2114906,"name":"catadman","country":"ph","lat":11.098611,"lon":123.935278},{"id":2138855,"name":"puti","country":"ph","lat":10.583333,"lon":123.983333},{"id":2104371,"name":"bagakay","country":"ph","lat":11.3,"lon":124.366667},{"id":2138823,"name":"putatansur","country":"ph","lat":11.1175,"lon":123.9897},{"id":2127154,"name":"luka","country":"ph","lat":10.536389,"lon":123.804444},{"id":2111704,"name":"cabung-cabung","country":"ph","lat":10.683333,"lon":123.783333},{"id":2134663,"name":"otabon","country":"ph","lat":11.2909,"lon":124.3928},{"id":2135784,"name":"panalsagon","country":"ph","lat":10.9351,"lon":123.5131},{"id":2124267,"name":"la-aw","country":"ph","lat":10.833333,"lon":124.033333},{"id":2109434,"name":"bosloton","country":"ph","lat":10.92,"lon":124.4018},{"id":2113059,"name":"camansi","country":"ph","lat":10.648056,"lon":123.906389},{"id":2140532,"name":"sancalang","country":"ph","lat":11.4683,"lon":124.4875},{"id":2145068,"name":"tagnukan","country":"ph","lat":10.8722,"lon":124.0407},{"id":2119385,"name":"general","country":"ph","lat":10.6296,"lon":124.447},{"id":2127539,"name":"luyag","country":"ph","lat":11.4501,"lon":124.4778},{"id":2114816,"name":"casilion","country":"ph","lat":11.1575,"lon":124.4745},{"id":2143203,"name":"silad","country":"ph","lat":11.2249,"lon":124.3959},{"id":2116903,"name":"danasan","country":"ph","lat":10.5746,"lon":123.8487},{"id":2128302,"name":"magallanes","country":"ph","lat":10.6096,"lon":123.746},{"id":2129807,"name":"mambajao","country":"ph","lat":11.2895,"lon":124.4482},{"id":2110680,"name":"burabud","country":"ph","lat":11.4782,"lon":124.454},{"id":2113137,"name":"cambanay","country":"ph","lat":10.543611,"lon":123.986111},{"id":2137895,"name":"pitugo","country":"ph","lat":10.5,"lon":123.75},{"id":2102000,"name":"aguho","country":"ph","lat":11.2677,"lon":124.0074},{"id":2139637,"name":"saba","country":"ph","lat":10.8952,"lon":124.0149},{"id":2127611,"name":"ma-anda","country":"ph","lat":11.441,"lon":124.4996},{"id":2115307,"name":"cayang","country":"ph","lat":11.066667,"lon":123.983333},{"id":2126930,"name":"loya","country":"ph","lat":11.115833,"lon":123.959444},{"id":2123136,"name":"kanggapac","country":"ph","lat":10.9836,"lon":124.4179},{"id":2102389,"name":"alimango","country":"ph","lat":10.834,"lon":123.5211},{"id":2102666,"name":"amatugan","country":"ph","lat":10.679444,"lon":123.870833},{"id":2143274,"name":"sili","country":"ph","lat":10.55,"lon":123.95},{"id":2146744,"name":"tibur","country":"ph","lat":11.1756,"lon":124.3869},{"id":2103545,"name":"arevalo","country":"ph","lat":11.3588,"lon":124.3614},{"id":2144319,"name":"sungko","country":"ph","lat":11.153,"lon":123.7354},{"id":2120972,"name":"hinagbauan","country":"ph","lat":11.0174,"lon":124.4702},{"id":2125991,"name":"lifgong","country":"ph","lat":11.1343,"lon":124.4684},{"id":2144379,"name":"susimbahan","country":"ph","lat":11.4935,"lon":124.3466},{"id":2104615,"name":"bagsay","country":"ph","lat":11.3998,"lon":124.3939},{"id":2114546,"name":"caridad","country":"ph","lat":10.6798,"lon":123.8071},{"id":2134382,"name":"ohaon","country":"ph","lat":11.0892,"lon":124.3866},{"id":2110446,"name":"bunakan","country":"ph","lat":11.456,"lon":124.3417},{"id":2107146,"name":"basud","country":"ph","lat":11.3663,"lon":124.3631},{"id":2138736,"name":"punta isabel","country":"ph","lat":11.083333,"lon":123.933333},{"id":2146991,"name":"timbacol","country":"ph","lat":10.7721,"lon":123.8452},{"id":2119698,"name":"granada","country":"ph","lat":10.5289,"lon":123.7521},{"id":2113292,"name":"campanoy","country":"ph","lat":10.700749,"lon":123.501102},{"id":2131156,"name":"marmol","country":"ph","lat":10.7241,"lon":123.8947},{"id":2130588,"name":"mansahaon","country":"ph","lat":11.1416,"lon":124.4284},{"id":2133508,"name":"nangka","country":"ph","lat":10.55,"lon":123.966667},{"id":2128520,"name":"mago","country":"ph","lat":10.633333,"lon":123.983333},{"id":2113579,"name":"cance","country":"ph","lat":11.016667,"lon":123.966667},{"id":2134350,"name":"odlot","country":"ph","lat":11.0006,"lon":124.0407},{"id":2125793,"name":"libertad","country":"ph","lat":11.0304,"lon":124.0215},{"id":2143852,"name":"somosa","country":"ph","lat":10.9741,"lon":124.0236},{"id":2140888,"name":"san isidro","country":"ph","lat":10.9629,"lon":124.4304},{"id":2137146,"name":"paypay","country":"ph","lat":11.2152,"lon":123.9762},{"id":2130662,"name":"mantija","country":"ph","lat":10.533333,"lon":123.966667},{"id":2104263,"name":"badiang daco","country":"ph","lat":11.1304,"lon":124.4011},{"id":2136609,"name":"parenza","country":"ph","lat":10.5,"lon":123.716667},{"id":2121518,"name":"ilaya","country":"ph","lat":10.516667,"lon":124.016667},{"id":2114395,"name":"caputatan sur","country":"ph","lat":11.1313,"lon":123.9829},{"id":2104183,"name":"bactas","country":"ph","lat":10.694444,"lon":123.988611},{"id":2115184,"name":"cauit","country":"ph","lat":11.186,"lon":123.9459},{"id":2139063,"name":"quinatarcan","country":"ph","lat":11.15,"lon":123.883333},{"id":2144539,"name":"tabing","country":"ph","lat":11.4,"lon":124.35},{"id":2125865,"name":"lib-og","country":"ph","lat":10.9815,"lon":124.0415},{"id":2133743,"name":"natimaoan","country":"ph","lat":10.631944,"lon":123.971389},{"id":2115543,"name":"cogon","country":"ph","lat":10.7133,"lon":123.8284},{"id":2147396,"name":"toctoc","country":"ph","lat":11.4008,"lon":124.4568},{"id":2149131,"name":"villanueva","country":"ph","lat":11.4839,"lon":124.3923},{"id":2114004,"name":"cansanit","country":"ph","lat":11.0943,"lon":123.9916},{"id":2121424,"name":"igod","country":"ph","lat":11.3373,"lon":124.4909},{"id":2120908,"name":"hilum","country":"ph","lat":10.9534,"lon":124.4114},{"id":2124417,"name":"lacaron","country":"ph","lat":11.022222,"lon":123.968611},{"id":2146641,"name":"tengbo","country":"ph","lat":11.3054,"lon":124.4232},{"id":2117360,"name":"dayhagon","country":"ph","lat":11.0793,"lon":123.9742},{"id":2121951,"name":"ipil","country":"ph","lat":10.589167,"lon":123.993056},{"id":2128452,"name":"maghan-ay","country":"ph","lat":10.6425,"lon":123.863611},{"id":2119482,"name":"gilutongan","country":"ph","lat":11.144,"lon":123.6426},{"id":2132513,"name":"montealegre","country":"ph","lat":10.733611,"lon":123.898611},{"id":2144581,"name":"tabogon","country":"ph","lat":10.9412,"lon":124.0282},{"id":2124775,"name":"lambusan","country":"ph","lat":10.9972,"lon":123.9328},{"id":2113498,"name":"canaocanao","country":"ph","lat":10.9285,"lon":123.9996},{"id":2111996,"name":"cagcagan","country":"ph","lat":10.7039,"lon":124.4379},{"id":2105387,"name":"balila","country":"ph","lat":10.716667,"lon":123.966667},{"id":2149286,"name":"wague","country":"ph","lat":11.2908,"lon":124.4882},{"id":2127954,"name":"macabug","country":"ph","lat":10.866667,"lon":123.5},{"id":2110845,"name":"busogan","country":"ph","lat":10.9756,"lon":123.9308},{"id":2124235,"name":"kunsab","country":"ph","lat":11.1012,"lon":124.4305},{"id":2123458,"name":"kataguman","country":"ph","lat":11.0142,"lon":124.4365},{"id":2132050,"name":"mercedes","country":"ph","lat":10.6686,"lon":124.4021},{"id":2129368,"name":"male","country":"ph","lat":11.033333,"lon":123.916667},{"id":2132556,"name":"moog","country":"ph","lat":11.498,"lon":124.4819},{"id":2115561,"name":"cogon cruz","country":"ph","lat":10.509444,"lon":123.969722},{"id":2115654,"name":"colonia","country":"ph","lat":10.6553,"lon":123.7911},{"id":2131836,"name":"maya","country":"ph","lat":11.2743,"lon":124.0579},{"id":2101465,"name":"abijae","country":"ph","lat":11.1532,"lon":124.3959},{"id":2110436,"name":"bunacan","country":"ph","lat":11.2643,"lon":123.7177},{"id":2126603,"name":"logo","country":"ph","lat":10.8,"lon":123.983333},{"id":2125516,"name":"lawa","country":"ph","lat":10.831667,"lon":123.987778},{"id":2142585,"name":"san vincente","country":"ph","lat":10.83134,"lon":123.551403},{"id":2102514,"name":"almarco","country":"ph","lat":11.0833,"lon":124.3987},{"id":2146273,"name":"tapilon","country":"ph","lat":11.2774,"lon":124.0306},{"id":2106580,"name":"bantolinaw","country":"ph","lat":10.75,"lon":123.983333},{"id":2108488,"name":"binongcalan","country":"ph","lat":10.633889,"lon":124.023333},{"id":2104785,"name":"bahoy","country":"ph","lat":11.1538,"lon":124.4802},{"id":2146549,"name":"taytay","country":"ph","lat":10.8,"lon":123.8},{"id":2116323,"name":"daanlungsod","country":"ph","lat":10.65,"lon":123.766667},{"id":2123014,"name":"kambayug","country":"ph","lat":10.8,"lon":123.9},{"id":2109278,"name":"bongyas","country":"ph","lat":10.661389,"lon":123.953056},{"id":2127028,"name":"lubo","country":"ph","lat":10.811389,"lon":123.987222},{"id":2113304,"name":"campatong","country":"ph","lat":11.1314,"lon":124.4292},{"id":2103278,"name":"antipolo","country":"ph","lat":11.166667,"lon":123.95},{"id":2113353,"name":"campo","country":"ph","lat":10.6429,"lon":124.3185},{"id":2143886,"name":"so-ong","country":"ph","lat":10.937,"lon":123.9586},{"id":2116709,"name":"dalingding","country":"ph","lat":11.1777,"lon":123.987},{"id":2101752,"name":"agbanga","country":"ph","lat":11.0869,"lon":124.444},{"id":2116771,"name":"dalupingan","country":"ph","lat":11.4979,"lon":124.4719},{"id":2143846,"name":"somimbang","country":"ph","lat":11.221389,"lon":124.000278},{"id":2115364,"name":"cebongaga","country":"ph","lat":11.2113,"lon":124.4201},{"id":2123265,"name":"kantuod","country":"ph","lat":10.516667,"lon":123.716667},{"id":2137456,"name":"pili","country":"ph","lat":10.833333,"lon":123.933333},{"id":2120063,"name":"guinpilakan","country":"ph","lat":10.897778,"lon":123.925},{"id":2135800,"name":"pananawan","country":"ph","lat":11.4115,"lon":124.3618},{"id":2144524,"name":"tabigui","country":"ph","lat":11.2811,"lon":124.4873},{"id":2123042,"name":"kampisao","country":"ph","lat":11.0945,"lon":124.4426},{"id":2135367,"name":"palaroo","country":"ph","lat":11.4056,"lon":124.483},{"id":2109393,"name":"borbon","country":"ph","lat":10.838,"lon":124.0297},{"id":2106722,"name":"baranbang","country":"ph","lat":11.2673,"lon":124.4248},{"id":2148298,"name":"tunga","country":"ph","lat":10.8928,"lon":123.5002},{"id":2146382,"name":"tarong","country":"ph","lat":11.2893,"lon":123.7227},{"id":2147945,"name":"tuburan","country":"ph","lat":10.7273,"lon":123.8257},{"id":2145531,"name":"taloan","country":"ph","lat":10.9481,"lon":124.4603},{"id":2127885,"name":"mabuli","country":"ph","lat":10.95,"lon":124.033333},{"id":2103987,"name":"bacabgan","country":"ph","lat":11.3747,"lon":124.3588},{"id":2138591,"name":"pulgason","country":"ph","lat":10.5,"lon":123.95},{"id":2145738,"name":"tambongon","country":"ph","lat":10.9677,"lon":123.9244},{"id":2123159,"name":"kangwayan","country":"ph","lat":11.3,"lon":123.733333},{"id":2139799,"name":"sagpon","country":"ph","lat":10.633333,"lon":124.016667},{"id":2142259,"name":"santiago","country":"ph","lat":11.0665,"lon":124.4407},{"id":2142383,"name":"santo nino","country":"ph","lat":10.689,"lon":123.7884},{"id":2139901,"name":"salag","country":"ph","lat":10.9688,"lon":124.0367},{"id":2144183,"name":"sulpa","country":"ph","lat":11.1796,"lon":124.4055},{"id":2141954,"name":"santa fe","country":"ph","lat":11.1544,"lon":123.8058},{"id":2127124,"name":"lugo","country":"ph","lat":10.816389,"lon":123.988889},{"id":2113642,"name":"candaya","country":"ph","lat":11.2505,"lon":124.0},{"id":2123040,"name":"kampingganon","country":"ph","lat":11.05,"lon":123.633333},{"id":2114954,"name":"catambuan","country":"ph","lat":10.992778,"lon":124.480556},{"id":2111871,"name":"cadlum","country":"ph","lat":11.4461,"lon":124.3647},{"id":2127985,"name":"macalbang","country":"ph","lat":10.6364,"lon":123.7509},{"id":2134381,"name":"oguis","country":"ph","lat":10.533333,"lon":123.933333},{"id":2115400,"name":"centro","country":"ph","lat":10.833333,"lon":123.95},{"id":2113456,"name":"canalimis","country":"ph","lat":11.3243,"lon":124.3737},{"id":2103163,"name":"anislang","country":"ph","lat":10.9312,"lon":124.4578},{"id":2113726,"name":"cangcosme","country":"ph","lat":11.0213,"lon":124.4149},{"id":2113992,"name":"cansabusab","country":"ph","lat":10.6669,"lon":124.4553},{"id":2104469,"name":"bago","country":"ph","lat":10.649444,"lon":123.779444},{"id":2125585,"name":"layog","country":"ph","lat":11.3,"lon":124.416667},{"id":2119495,"name":"gimarco","country":"ph","lat":11.3462,"lon":124.447},{"id":2122623,"name":"kabungahan","country":"ph","lat":10.516667,"lon":123.983333},{"id":2123332,"name":"kapilihan","country":"ph","lat":10.566667,"lon":123.95},{"id":2144875,"name":"tagamacan","country":"ph","lat":10.5308,"lon":123.7903},{"id":2138825,"name":"putat","country":"ph","lat":10.7858,"lon":123.8469},{"id":2137165,"name":"paz","country":"ph","lat":10.6948,"lon":124.4726},{"id":2114014,"name":"cansi","country":"ph","lat":10.620278,"lon":123.875556},{"id":2146746,"name":"ticad","country":"ph","lat":11.169,"lon":123.7262},{"id":2139425,"name":"rizal","country":"ph","lat":10.784343,"lon":123.552003},{"id":2144615,"name":"tabonok","country":"ph","lat":10.5,"lon":124.016667},{"id":2108911,"name":"bogo","country":"ph","lat":11.0517,"lon":124.0055},{"id":2115933,"name":"corte","country":"ph","lat":10.611183,"lon":124.000217},{"id":2132390,"name":"mojon","country":"ph","lat":10.806944,"lon":123.963056},{"id":2146135,"name":"tanguhay","country":"ph","lat":11.2074,"lon":124.4885},{"id":2144603,"name":"tabonan","country":"ph","lat":11.1122,"lon":124.4022},{"id":2113484,"name":"canangay","country":"ph","lat":10.9674,"lon":123.9827},{"id":2135395,"name":"palawan","country":"ph","lat":11.0366,"lon":124.3964},{"id":2127556,"name":"luyong baybay","country":"ph","lat":11.0723,"lon":123.6449},{"id":2110202,"name":"bulan","country":"ph","lat":11.1835,"lon":124.4483},{"id":2148339,"name":"tunlub","country":"ph","lat":10.6583,"lon":123.8541},{"id":2139112,"name":"quiot","country":"ph","lat":10.9267,"lon":124.434},{"id":2124290,"name":"labangon","country":"ph","lat":10.9174,"lon":123.9977},{"id":2146594,"name":"teguis","country":"ph","lat":10.6482,"lon":124.4035},{"id":2120555,"name":"hacienda orbesa","country":"ph","lat":10.791143,"lon":123.500703},{"id":2104627,"name":"bagtic","country":"ph","lat":10.9096,"lon":123.9413},{"id":2103590,"name":"aron","country":"ph","lat":10.633333,"lon":124.0},{"id":2141694,"name":"san roque","country":"ph","lat":10.6043,"lon":123.7441},{"id":2127883,"name":"mabula","country":"ph","lat":10.9801,"lon":123.9964},{"id":2149081,"name":"villahermosa","country":"ph","lat":11.4935,"lon":124.3862},{"id":2104882,"name":"bako","country":"ph","lat":11.4152,"lon":124.4873},{"id":2122107,"name":"jabian","country":"ph","lat":11.3062,"lon":124.4826},{"id":2116319,"name":"daangtabogon","country":"ph","lat":10.92,"lon":124.0279},{"id":2101487,"name":"abobo","country":"ph","lat":11.366667,"lon":124.366667},{"id":2125711,"name":"leyte","country":"ph","lat":11.3697,"lon":124.4873},{"id":2110873,"name":"butak","country":"ph","lat":11.4094,"lon":124.3473},{"id":2127658,"name":"maasua","country":"ph","lat":10.704149,"lon":123.507402},{"id":2122405,"name":"jubay","country":"ph","lat":11.398,"lon":124.3512},{"id":2146595,"name":"teguit","country":"ph","lat":11.416667,"lon":124.45},{"id":2147161,"name":"tindog norte","country":"ph","lat":11.1247,"lon":124.0118},{"id":2119882,"name":"guimamaa","country":"ph","lat":10.6985,"lon":123.8865},{"id":2131457,"name":"mataguk","country":"ph","lat":11.4744,"lon":124.4086},{"id":2114082,"name":"cantawon","country":"ph","lat":10.6959,"lon":124.4204},{"id":2134332,"name":"ocoy","country":"ph","lat":11.1716,"lon":123.7948},{"id":2125920,"name":"libug","country":"ph","lat":11.2378,"lon":124.0271},{"id":2141756,"name":"sansan","country":"ph","lat":11.068333,"lon":123.941389},{"id":2106544,"name":"bantigui","country":"ph","lat":11.1829,"lon":123.7175},{"id":2149381,"name":"western poblacion","country":"ph","lat":10.6348,"lon":124.4076},{"id":2121122,"name":"hubasan","country":"ph","lat":11.1537,"lon":124.4103},{"id":2103754,"name":"atop-atop","country":"ph","lat":11.2322,"lon":123.7602},{"id":2118271,"name":"dulao","country":"ph","lat":11.4424,"lon":124.3927},{"id":2126682,"name":"lomonon","country":"ph","lat":11.1045,"lon":124.4008},{"id":2131198,"name":"marunot","country":"ph","lat":11.1698,"lon":124.3907},{"id":2113133,"name":"cambalolong","country":"ph","lat":10.566667,"lon":123.716667},{"id":2113268,"name":"camongayan","country":"ph","lat":10.6257,"lon":123.7636},{"id":2122370,"name":"jordan","country":"ph","lat":11.1637,"lon":124.3927},{"id":2104360,"name":"bagaccay","country":"ph","lat":10.8,"lon":123.933333},{"id":2103352,"name":"apale","country":"ph","lat":10.8714,"lon":124.4899},{"id":2144920,"name":"tagaytay","country":"ph","lat":10.8,"lon":124.0},{"id":2113729,"name":"canghabagat","country":"ph","lat":11.104444,"lon":123.999167},{"id":2126817,"name":"look norte","country":"ph","lat":10.5611,"lon":123.715},{"id":2106243,"name":"bang-hao","country":"ph","lat":11.4476,"lon":124.4837},{"id":2109125,"name":"bonali","country":"ph","lat":11.3877,"lon":124.3789},{"id":2108897,"name":"boghaon","country":"ph","lat":11.2398,"lon":124.4836},{"id":2111540,"name":"cabonga-an","country":"ph","lat":10.6872,"lon":124.3397},{"id":2148949,"name":"victoria","country":"ph","lat":10.9587,"lon":123.9234},{"id":2105041,"name":"balanban","country":"ph","lat":10.5039,"lon":123.7156},{"id":2148527,"name":"udlom","country":"ph","lat":10.766667,"lon":123.983333},{"id":2102262,"name":"alegna","country":"ph","lat":10.6869,"lon":123.8295},{"id":2106629,"name":"banuyo","country":"ph","lat":11.3337,"lon":124.4748},{"id":2131935,"name":"mayo","country":"ph","lat":11.0431,"lon":123.9456},{"id":2131671,"name":"matlang","country":"ph","lat":10.8902,"lon":124.4554},{"id":2149259,"name":"vito","country":"ph","lat":10.9031,"lon":123.5154},{"id":2143856,"name":"songalia","country":"ph","lat":11.0812,"lon":123.9875},{"id":2104688,"name":"bagulansang","country":"ph","lat":11.4944,"lon":124.2979},{"id":2144665,"name":"tabubunga","country":"ph","lat":11.1257,"lon":124.4028},{"id":2121164,"name":"hunan","country":"ph","lat":10.9074,"lon":124.4512},{"id":2147617,"name":"to-ong","country":"ph","lat":11.019722,"lon":123.9375},{"id":2105365,"name":"balidbid","country":"ph","lat":11.1788,"lon":123.7664},{"id":2147306,"name":"tipulo","country":"ph","lat":11.2732,"lon":124.4226},{"id":2149281,"name":"waga","country":"ph","lat":11.348889,"lon":123.895},{"id":2108169,"name":"biliran","country":"ph","lat":11.467035,"lon":124.473959},{"id":2102855,"name":"ampongol","country":"ph","lat":10.801111,"lon":123.946111},{"id":2124800,"name":"lamintak","country":"ph","lat":11.116667,"lon":123.966667},{"id":2120971,"name":"hinagbauam","country":"ph","lat":11.0373,"lon":124.437},{"id":2143873,"name":"sonlagon","country":"ph","lat":11.284,"lon":124.399},{"id":2112316,"name":"calambua","country":"ph","lat":10.916667,"lon":123.95},{"id":2116255,"name":"curva","country":"ph","lat":11.1366,"lon":124.0019},{"id":2106554,"name":"bantiqui","country":"ph","lat":10.9245,"lon":124.4154},{"id":2130983,"name":"maravilla","country":"ph","lat":10.9011,"lon":123.8918},{"id":2147073,"name":"tinago","country":"ph","lat":11.052778,"lon":124.42},{"id":2113475,"name":"can-an","country":"ph","lat":10.780278,"lon":123.901944},{"id":2120966,"name":"hinabuyan","country":"ph","lat":11.2383,"lon":124.4047},{"id":2128187,"name":"madang-ngog","country":"ph","lat":10.516667,"lon":123.95},{"id":2122543,"name":"kabayugan","country":"ph","lat":11.3263,"lon":124.3925},{"id":2115308,"name":"cayangian","country":"ph","lat":11.2096,"lon":124.3964},{"id":2104254,"name":"badiang","country":"ph","lat":11.1677,"lon":123.9986},{"id":2107138,"name":"basog","country":"ph","lat":11.2421,"lon":124.4056},{"id":2109364,"name":"boot","country":"ph","lat":10.566848,"lon":124.019204},{"id":2125796,"name":"libertad","country":"ph","lat":10.916667,"lon":124.45},{"id":2123907,"name":"kinartacan","country":"ph","lat":11.2911,"lon":123.8786},{"id":2126598,"name":"logan","country":"ph","lat":11.3303,"lon":124.1146},{"id":2129274,"name":"malatapay","country":"ph","lat":11.05,"lon":123.916667},{"id":2130520,"name":"manlayag","country":"ph","lat":10.5,"lon":123.983333},{"id":2133915,"name":"new carmen","country":"ph","lat":10.584327,"lon":124.016603},{"id":2126699,"name":"longan","country":"ph","lat":10.5137,"lon":123.7481},{"id":2135644,"name":"pamatasan","country":"ph","lat":10.6548,"lon":124.3702},{"id":2138831,"name":"putian","country":"ph","lat":11.2228,"lon":123.7128},{"id":2127863,"name":"mabuang","country":"ph","lat":10.983333,"lon":124.016667},{"id":2127924,"name":"macaas","country":"ph","lat":10.698889,"lon":124.008611},{"id":2144456,"name":"tabango","country":"ph","lat":11.3077,"lon":124.373},{"id":2109433,"name":"bosey","country":"ph","lat":11.0627,"lon":124.4003},{"id":2125308,"name":"larey","country":"ph","lat":11.2608,"lon":124.3937},{"id":2148860,"name":"valdes","country":"ph","lat":10.796042,"lon":123.544703},{"id":2137697,"name":"pinarut","country":"ph","lat":11.2352,"lon":124.416},{"id":2104418,"name":"bagay","country":"ph","lat":11.1964,"lon":124.035},{"id":2121566,"name":"iligay","country":"ph","lat":11.2598,"lon":124.4467},{"id":2105033,"name":"balanac","country":"ph","lat":11.1811,"lon":124.4632},{"id":2125199,"name":"lapaz","country":"ph","lat":10.9887,"lon":123.9797},{"id":2104598,"name":"bag-o secante","country":"ph","lat":10.6723,"lon":124.4727},{"id":2129514,"name":"malingin","country":"ph","lat":11.05,"lon":123.983333},{"id":2103243,"name":"anpog","country":"ph","lat":11.0184,"lon":123.9101},{"id":2113720,"name":"cangbino","country":"ph","lat":10.9959,"lon":124.4214},{"id":2103690,"name":"asturias","country":"ph","lat":10.5669,"lon":123.7161},{"id":2129628,"name":"malocaboc","country":"ph","lat":10.9679,"lon":123.5447},{"id":2127354,"name":"lundag","country":"ph","lat":10.9224,"lon":124.49},{"id":2139766,"name":"sagay","country":"ph","lat":10.8544,"lon":123.9828},{"id":2115082,"name":"catmondaan","country":"ph","lat":10.686111,"lon":124.013889},{"id":2116324,"name":"daan lungsod","country":"ph","lat":10.7347,"lon":123.8334},{"id":2147517,"name":"tominjao","country":"ph","lat":11.2277,"lon":124.0432},{"id":2116895,"name":"danao","country":"ph","lat":10.819141,"lon":123.551903},{"id":2114610,"name":"carmen","country":"ph","lat":10.593056,"lon":124.017778},{"id":2122708,"name":"kahumayhumayan","country":"ph","lat":10.566389,"lon":123.9625},{"id":2139576,"name":"saay","country":"ph","lat":11.116667,"lon":124.433333},{"id":2147928,"name":"tubud","country":"ph","lat":10.8774,"lon":124.4741},{"id":2126782,"name":"looc","country":"ph","lat":10.9552,"lon":123.5589},{"id":2124722,"name":"lamak","country":"ph","lat":10.540278,"lon":124.013889},{"id":2114022,"name":"cansimbug","country":"ph","lat":10.82554,"lon":123.552803},{"id":2122560,"name":"kabilisan","country":"ph","lat":11.315,"lon":124.3485},{"id":2122565,"name":"kabinitan","country":"ph","lat":11.4384,"lon":124.3695},{"id":2140708,"name":"san francisco","country":"ph","lat":10.6461,"lon":124.3816},{"id":2124870,"name":"lanao","country":"ph","lat":11.2603,"lon":124.0373},{"id":2102954,"name":"anapog","country":"ph","lat":10.6775,"lon":123.936111},{"id":2130056,"name":"manaobo","country":"ph","lat":10.7,"lon":124.016667},{"id":2106111,"name":"banday","country":"ph","lat":10.733333,"lon":123.833333},{"id":2136300,"name":"panognawan","country":"ph","lat":11.1619,"lon":124.005},{"id":2147037,"name":"tinaan","country":"ph","lat":11.266667,"lon":123.75},{"id":2134503,"name":"omaganhan","country":"ph","lat":11.3292,"lon":124.377},{"id":2120857,"name":"hibuluangon","country":"ph","lat":11.2028,"lon":124.4181},{"id":2140310,"name":"san agustin","country":"ph","lat":11.264,"lon":123.7529},{"id":2106655,"name":"baod","country":"ph","lat":11.2111,"lon":123.7031},{"id":2123041,"name":"kamping","country":"ph","lat":11.2345,"lon":123.7219},{"id":2118706,"name":"esperanzo","country":"ph","lat":10.6995,"lon":124.3143},{"id":2122327,"name":"jinaduan","country":"ph","lat":10.729347,"lon":123.513302},{"id":2112437,"name":"calape","country":"ph","lat":11.1756,"lon":124.0335},{"id":2120593,"name":"hacienda san antonio","country":"ph","lat":10.8332,"lon":123.5089},{"id":2134027,"name":"nilogon","country":"ph","lat":10.8664,"lon":123.5181},{"id":2143772,"name":"sogod","country":"ph","lat":10.750833,"lon":123.994722},{"id":2109838,"name":"buenavista","country":"ph","lat":10.798742,"lon":123.554403},{"id":2110187,"name":"bulalaqui","country":"ph","lat":11.2808,"lon":124.0578},{"id":2138288,"name":"poro","country":"ph","lat":10.6292,"lon":124.4087},{"id":2148710,"name":"union","country":"ph","lat":10.6695,"lon":124.3252},{"id":2147165,"name":"tinebasan","country":"ph","lat":10.6281,"lon":123.7432},{"id":2146942,"name":"tijib","country":"ph","lat":10.9559,"lon":123.9618},{"id":2116020,"name":"cruz","country":"ph","lat":10.9516,"lon":124.3907},{"id":2107267,"name":"bateria","country":"ph","lat":11.1416,"lon":124.0267},{"id":2126826,"name":"loong","country":"ph","lat":10.95,"lon":124.0},{"id":2113302,"name":"campatoc","country":"ph","lat":11.2528,"lon":124.0647},{"id":2114117,"name":"cantujaon","country":"ph","lat":10.95,"lon":124.4},{"id":2121613,"name":"ilom","country":"ph","lat":10.7,"lon":123.95},{"id":2113056,"name":"camanse","country":"ph","lat":11.1273,"lon":124.4327},{"id":2129981,"name":"managasi","country":"ph","lat":10.8722,"lon":123.9608},{"id":2113365,"name":"campokpok","country":"ph","lat":11.2962,"lon":124.405},{"id":2111961,"name":"cagay","country":"ph","lat":10.811041,"lon":123.541203},{"id":2144528,"name":"tabili","country":"ph","lat":10.697222,"lon":123.967778},{"id":2105274,"name":"baldoza","country":"ph","lat":10.8675,"lon":123.5011},{"id":2122328,"name":"jinagnatan","country":"ph","lat":11.2596,"lon":124.4002},{"id":2114712,"name":"casa","country":"ph","lat":11.1693,"lon":124.4533},{"id":2140878,"name":"san isidro","country":"ph","lat":10.5508,"lon":123.7335},{"id":2105367,"name":"balife","country":"ph","lat":11.1944,"lon":124.3858},{"id":2119932,"name":"guinacot","country":"ph","lat":10.525556,"lon":123.993611},{"id":2114120,"name":"cantumog","country":"ph","lat":10.598322,"lon":123.997489},{"id":2122141,"name":"jagtan","country":"ph","lat":11.333333,"lon":123.9},{"id":2119044,"name":"gairan","country":"ph","lat":11.054167,"lon":124.0175},{"id":2134059,"name":"nipa","country":"ph","lat":11.4137,"lon":124.4538},{"id":2123179,"name":"kanipaan","country":"ph","lat":10.766667,"lon":123.933333},{"id":2113721,"name":"cang binos","country":"ph","lat":11.0831,"lon":124.3886},{"id":2108732,"name":"bitoon","country":"ph","lat":10.9367,"lon":124.4051},{"id":2121748,"name":"inangatan","country":"ph","lat":11.25,"lon":124.4},{"id":2107177,"name":"batagaui","country":"ph","lat":10.7989,"lon":123.855},{"id":2120333,"name":"gutusan","country":"ph","lat":11.434,"lon":124.4357},{"id":2114637,"name":"carnaza","country":"ph","lat":11.25,"lon":124.0},{"id":2143266,"name":"silion","country":"ph","lat":11.199,"lon":123.7675},{"id":2127661,"name":"maat","country":"ph","lat":11.2695,"lon":123.7195},{"id":2110893,"name":"but","country":"ph","lat":10.55,"lon":124.016667},{"id":2118291,"name":"duljugan","country":"ph","lat":10.9164,"lon":124.3852},{"id":2132512,"name":"monte alegre","country":"ph","lat":10.6308,"lon":124.3459},{"id":2114602,"name":"carmelo","country":"ph","lat":10.7051,"lon":123.7935},{"id":2128852,"name":"maitum","country":"ph","lat":10.83064,"lon":123.563803},{"id":2104670,"name":"baguinbin","country":"ph","lat":10.9821,"lon":124.414},{"id":2141639,"name":"san remigio","country":"ph","lat":11.0809,"lon":123.9381},{"id":2144574,"name":"taboc","country":"ph","lat":10.533333,"lon":124.016667},{"id":2133238,"name":"nailong","country":"ph","lat":11.0537,"lon":124.0385},{"id":2109236,"name":"bongdo","country":"ph","lat":10.833333,"lon":124.016667},{"id":2108360,"name":"binaobao","country":"ph","lat":11.1727,"lon":123.7166},{"id":2134791,"name":"pacoce","country":"ph","lat":11.0626,"lon":124.3811},{"id":2123326,"name":"kapayas","country":"ph","lat":10.721111,"lon":123.931389},{"id":2130646,"name":"mantauijan","country":"ph","lat":10.7065,"lon":123.8291},{"id":2104215,"name":"bacyawan","country":"ph","lat":10.7,"lon":123.866667},{"id":2142874,"name":"secante","country":"ph","lat":10.669,"lon":124.4835},{"id":2103216,"name":"anonang","country":"ph","lat":11.0578,"lon":123.9773},{"id":2127596,"name":"maalat","country":"ph","lat":11.273889,"lon":123.719167},{"id":2108412,"name":"bingay","country":"ph","lat":10.8,"lon":124.033333},{"id":2125040,"name":"langub","country":"ph","lat":10.797542,"lon":123.533803},{"id":2101893,"name":"agobob","country":"ph","lat":11.1702,"lon":124.411},{"id":2109810,"name":"buenavista","country":"ph","lat":10.916667,"lon":124.383333},{"id":2133504,"name":"nangka","country":"ph","lat":10.5324,"lon":123.7195},{"id":2125460,"name":"lauis","country":"ph","lat":11.033333,"lon":123.966667},{"id":2110914,"name":"butnga","country":"ph","lat":11.1556,"lon":124.4229},{"id":2119641,"name":"golon","country":"ph","lat":10.9839,"lon":124.0259},{"id":2102555,"name":"altavista","country":"ph","lat":10.6491,"lon":124.4396},{"id":2142278,"name":"santican","country":"ph","lat":10.9522,"lon":124.0076},{"id":2146705,"name":"tibayla","country":"ph","lat":11.2704,"lon":124.3923},{"id":2116528,"name":"daha-diot","country":"ph","lat":11.455,"lon":124.3105},{"id":2103785,"name":"aurora","country":"ph","lat":11.3825,"lon":124.3302},{"id":2131449,"name":"matagob","country":"ph","lat":11.1457,"lon":124.4713},{"id":2116336,"name":"daan secante","country":"ph","lat":10.6566,"lon":124.4811},{"id":2147295,"name":"tipolo","country":"ph","lat":11.1059,"lon":124.4473},{"id":2104422,"name":"bagbacay","country":"ph","lat":11.247778,"lon":124.469167},{"id":2126267,"name":"lingganay","country":"ph","lat":11.0978,"lon":124.3903},{"id":2144002,"name":"suba","country":"ph","lat":10.532778,"lon":124.023611},{"id":2101983,"name":"agtugop","country":"ph","lat":10.599167,"lon":123.785833},{"id":2112448,"name":"calapocan","country":"ph","lat":10.9717,"lon":124.4628},{"id":2122400,"name":"jubasan","country":"ph","lat":11.4461,"lon":124.4095},{"id":2111681,"name":"cabunga-an","country":"ph","lat":11.4256,"lon":124.3448},{"id":2148473,"name":"ubagon","country":"ph","lat":10.556944,"lon":123.781667},{"id":2123263,"name":"kantuma","country":"ph","lat":10.795,"lon":123.921111},{"id":2139918,"name":"salamanca","country":"ph","lat":10.746546,"lon":123.530002},{"id":2118134,"name":"doong","country":"ph","lat":11.0786,"lon":123.6395},{"id":2108764,"name":"blas daco","country":"ph","lat":10.756245,"lon":123.545702},{"id":2129803,"name":"mambahayan","country":"ph","lat":11.466667,"lon":124.466667},{"id":2138470,"name":"puerto bello","country":"ph","lat":10.6309,"lon":124.3762},{"id":2145020,"name":"tagda","country":"ph","lat":10.783333,"lon":123.966667},{"id":2120893,"name":"hilantagaan","country":"ph","lat":11.1943,"lon":123.8131},{"id":2131080,"name":"maricaban","country":"ph","lat":11.1516,"lon":123.7679},{"id":2107825,"name":"belen","country":"ph","lat":10.9785,"lon":124.4688},{"id":2104631,"name":"bagtik","country":"ph","lat":10.6,"lon":123.783333},{"id":2104858,"name":"bakhawan","country":"ph","lat":11.2067,"lon":123.9634},{"id":2113995,"name":"cansagoran","country":"ph","lat":10.995,"lon":124.0157},{"id":2143270,"name":"sili","country":"ph","lat":10.9337,"lon":123.9474},{"id":2148702,"name":"unidos","country":"ph","lat":10.6056,"lon":124.3278},{"id":2141025,"name":"san jose","country":"ph","lat":10.633333,"lon":124.066667},{"id":2121167,"name":"hungbay","country":"ph","lat":10.55,"lon":123.983333},{"id":2144610,"name":"tabonoc","country":"ph","lat":10.778611,"lon":124.012222},{"id":2130396,"name":"manguiao","country":"ph","lat":10.583611,"lon":123.787222},{"id":2107988,"name":"biasong","country":"ph","lat":10.5229,"lon":123.736},{"id":2115251,"name":"cawayan","country":"ph","lat":11.4322,"lon":124.4666},{"id":2104068,"name":"baciad","country":"ph","lat":11.1894,"lon":123.9163},{"id":2113300,"name":"campatic","country":"ph","lat":11.1446,"lon":124.4108},{"id":2120438,"name":"hacienda cogon","country":"ph","lat":10.782043,"lon":123.532603},{"id":2112550,"name":"calbugos","country":"ph","lat":11.25,"lon":124.45},{"id":2143925,"name":"southern poblacion","country":"ph","lat":10.6314,"lon":124.3717},{"id":2104408,"name":"bagasaue","country":"ph","lat":10.7636,"lon":123.839},{"id":2107070,"name":"basaon","country":"ph","lat":11.1472,"lon":123.7374},{"id":2112743,"name":"calmante","country":"ph","lat":10.6451,"lon":124.4938},{"id":2113398,"name":"campusong","country":"ph","lat":10.815833,"lon":124.032222},{"id":2112893,"name":"calunason","country":"ph","lat":11.0803,"lon":124.4468},{"id":2129456,"name":"malilahon","country":"ph","lat":11.0531,"lon":124.4878},{"id":2109047,"name":"bolobolo","country":"ph","lat":10.6926,"lon":123.7959},{"id":2113707,"name":"cangao","country":"ph","lat":10.9571,"lon":124.4503},{"id":2120936,"name":"himarco","country":"ph","lat":11.0864,"lon":124.4124},{"id":2128131,"name":"mactan","country":"ph","lat":10.6941,"lon":124.4086},{"id":2129239,"name":"malapok","country":"ph","lat":10.533333,"lon":123.983333},{"id":2142252,"name":"santiago","country":"ph","lat":10.5897,"lon":124.3066},{"id":2113713,"name":"cang atong","country":"ph","lat":11.0139,"lon":124.4592},{"id":2146211,"name":"taog","country":"ph","lat":11.2213,"lon":124.4127},{"id":2145496,"name":"talisay","country":"ph","lat":11.2434,"lon":124.0619},{"id":2130562,"name":"mano","country":"ph","lat":11.041667,"lon":123.944722},{"id":2140739,"name":"sangabon","country":"ph","lat":11.2054,"lon":124.3861},{"id":2144143,"name":"sulangan","country":"ph","lat":11.1373,"lon":123.7228},{"id":2145001,"name":"tagbubunga","country":"ph","lat":10.583333,"lon":123.716667},{"id":2112551,"name":"calcalan","country":"ph","lat":11.066667,"lon":123.966667},{"id":2143552,"name":"sinnangan","country":"ph","lat":10.6397,"lon":124.4036},{"id":2104057,"name":"bachao","country":"ph","lat":11.383333,"lon":124.483333},{"id":2126565,"name":"locbo","country":"ph","lat":10.6718,"lon":124.3168},{"id":2147456,"name":"tolingon","country":"ph","lat":10.8684,"lon":124.4776},{"id":2130067,"name":"manaonata","country":"ph","lat":11.3717,"lon":124.451},{"id":2134471,"name":"olivo","country":"ph","lat":10.8668,"lon":123.882},{"id":2125813,"name":"libertad","country":"ph","lat":10.833333,"lon":123.566667},{"id":2136741,"name":"pasil","country":"ph","lat":11.299,"lon":123.8907},{"id":2113220,"name":"cambutoy","country":"ph","lat":11.0991,"lon":124.4399},{"id":2107721,"name":"bayong","country":"ph","lat":10.505278,"lon":123.790833},{"id":2141471,"name":"san pablo","country":"ph","lat":10.8707,"lon":123.507},{"id":2108941,"name":"boho","country":"ph","lat":11.3193,"lon":124.3434},{"id":2108193,"name":"bilwang","country":"ph","lat":10.8834,"lon":124.4667},{"id":2104658,"name":"baguiad","country":"ph","lat":11.3542,"lon":124.3507},{"id":2125503,"name":"lawaan","country":"ph","lat":10.555556,"lon":123.91},{"id":2143773,"name":"sogod","country":"ph","lat":10.9039,"lon":124.4469},{"id":2115559,"name":"cogon","country":"ph","lat":10.782643,"lon":123.528503},{"id":2106302,"name":"bangon","country":"ph","lat":11.3763,"lon":124.3379},{"id":2147040,"name":"tinabalan","country":"ph","lat":11.0944,"lon":124.3879},{"id":2113901,"name":"canlung","country":"ph","lat":10.792778,"lon":123.944167},{"id":2117828,"name":"dinugdugan","country":"ph","lat":11.4451,"lon":124.469},{"id":2106878,"name":"baring","country":"ph","lat":10.6,"lon":124.016667},{"id":2115847,"name":"consvelo","country":"ph","lat":10.6348,"lon":124.301},{"id":2124138,"name":"kubong","country":"ph","lat":10.583333,"lon":123.75},{"id":2147989,"name":"tudela","country":"ph","lat":10.6378,"lon":124.4712},{"id":2105989,"name":"banate","country":"ph","lat":11.371,"lon":124.3736},{"id":2107026,"name":"basac","country":"ph","lat":10.633333,"lon":123.966667},{"id":2109943,"name":"bugnay","country":"ph","lat":11.3906,"lon":124.3337},{"id":2132378,"name":"mohou","country":"ph","lat":10.5475,"lon":123.7229},{"id":2129358,"name":"malcampo","country":"ph","lat":11.3343,"lon":124.3454},{"id":2112361,"name":"calangahan","country":"ph","lat":10.690556,"lon":123.905278},{"id":2122956,"name":"kalusiya","country":"ph","lat":10.8,"lon":123.966667},{"id":2135147,"name":"paho","country":"ph","lat":11.2306,"lon":124.0138},{"id":2106472,"name":"banquerohan","country":"ph","lat":10.82174,"lon":123.550903},{"id":2142173,"name":"santa rosa","country":"ph","lat":11.0991,"lon":124.4167},{"id":2143994,"name":"suba","country":"ph","lat":11.167,"lon":123.7198},{"id":2121160,"name":"humayhumay","country":"ph","lat":11.195,"lon":123.773889},{"id":2120179,"name":"guiwanon","country":"ph","lat":10.618882,"lon":124.022485},{"id":2131675,"name":"matnog","country":"ph","lat":10.7904,"lon":123.8516}]});