callback({"markets":[{"id":2370997,"name":"berestovskiy","country":"ru","lat":47.752498,"lon":38.926875},{"id":2863892,"name":"chervonaya polyana","country":"ua","lat":48.248255,"lon":39.114323},{"id":2869056,"name":"industroy","country":"ua","lat":48.221195,"lon":38.715524},{"id":2360057,"name":"aleksandrofeld","country":"ru","lat":47.566667,"lon":39.15},{"id":2569328,"name":"zaytsevo","country":"ru","lat":47.722778,"lon":39.359167},{"id":2472185,"name":"novikovka","country":"ru","lat":47.746667,"lon":39.084167},{"id":2868531,"name":"hirnytske","country":"ua","lat":48.006033,"lon":38.831402},{"id":2883043,"name":"ogorodnyy","country":"ua","lat":48.396389,"lon":38.844722},{"id":2360388,"name":"alekseyevka","country":"ru","lat":47.634466,"lon":38.817668},{"id":2473424,"name":"novo-kirsanovskiy","country":"ru","lat":47.65,"lon":38.983333},{"id":2454567,"name":"marfinka","country":"ru","lat":47.595029,"lon":38.526493},{"id":2518652,"name":"sinyavskiy","country":"ru","lat":47.572222,"lon":39.483333},{"id":2475462,"name":"novotuzlovskiy","country":"ru","lat":47.850278,"lon":39.165833},{"id":2861685,"name":"bokovo","country":"ua","lat":48.233167,"lon":39.428449},{"id":2382631,"name":"butenkov","country":"ru","lat":47.583333,"lon":39.083333},{"id":2868969,"name":"imeni engelsa","country":"ua","lat":48.403333,"lon":39.397222},{"id":2895674,"name":"uspenka","country":"ua","lat":48.390278,"lon":39.161944},{"id":2473751,"name":"novo-makeyevskiy","country":"ru","lat":47.6,"lon":38.669167},{"id":2375033,"name":"bolshaya kirsanovka","country":"ru","lat":47.653043,"lon":38.894045},{"id":2870347,"name":"kartushino","country":"ua","lat":48.184631,"lon":39.255405},{"id":2440194,"name":"kuybyshevskiye","country":"ru","lat":47.866667,"lon":38.933333},{"id":2899655,"name":"yurkovka","country":"ua","lat":48.383333,"lon":38.966667},{"id":2877813,"name":"malokreninskiy","country":"ua","lat":48.116667,"lon":39.033333},{"id":2444311,"name":"levchenko","country":"ru","lat":47.568552,"lon":38.70071},{"id":2474195,"name":"novoolkhovchik","country":"ru","lat":47.798922,"lon":38.880948},{"id":2473081,"name":"novo-grekovskiy","country":"ru","lat":47.626667,"lon":39.171667},{"id":2881045,"name":"nizhnyaya ivanovka","country":"ua","lat":48.138333,"lon":38.755},{"id":2474607,"name":"novo-rotovka","country":"ru","lat":47.594444,"lon":38.958889},{"id":2869963,"name":"kamyshevakha","country":"ua","lat":47.791137,"lon":38.756027},{"id":2894147,"name":"ternovyy","country":"ua","lat":48.005722,"lon":38.562165},{"id":2897600,"name":"vodyanoy","country":"ua","lat":48.043056,"lon":39.110833},{"id":2883218,"name":"oleksiyivske","country":"ua","lat":47.818864,"lon":38.749114},{"id":2883149,"name":"oktyabrskiy","country":"ua","lat":47.85,"lon":39.133333},{"id":2865835,"name":"dubrovka","country":"ua","lat":47.901787,"lon":39.042445},{"id":2440191,"name":"kuybyshevo","country":"ru","lat":47.81228,"lon":38.907312},{"id":2883581,"name":"orlova","country":"ua","lat":48.251944,"lon":39.03},{"id":2899611,"name":"yulino vtoroye","country":"ua","lat":48.264722,"lon":38.954167},{"id":2436305,"name":"kryuchkin","country":"ru","lat":47.548889,"lon":39.081111},{"id":2488391,"name":"petropolye","country":"ru","lat":47.703687,"lon":38.915184},{"id":2405678,"name":"gvardeyskiy","country":"ru","lat":47.603905,"lon":38.818127},{"id":2474891,"name":"novoselye","country":"ru","lat":47.5,"lon":39.183333},{"id":2474344,"name":"novo-petrovka","country":"ru","lat":47.589722,"lon":39.016111},{"id":2887778,"name":"rebrikovo","country":"ua","lat":48.210529,"lon":39.286195},{"id":2433727,"name":"krasnyy bumazhnik","country":"ru","lat":47.57433,"lon":38.799338},{"id":2437212,"name":"kukoin","country":"ru","lat":47.783333,"lon":39.116667},{"id":2868962,"name":"imeni chelyustkina","country":"ua","lat":48.4375,"lon":39.195556},{"id":2873784,"name":"kozabelovka","country":"ua","lat":48.069722,"lon":39.328333},{"id":2879325,"name":"mirskoye","country":"ua","lat":47.875,"lon":39.414167},{"id":2887645,"name":"rassypnoy","country":"ua","lat":48.149659,"lon":38.576185},{"id":2874358,"name":"krasnyy luch","country":"ua","lat":48.139542,"lon":38.93715},{"id":2859232,"name":"almaznaya","country":"ua","lat":48.05313,"lon":39.293577},{"id":2530237,"name":"sumokhotkin","country":"ru","lat":47.5975,"lon":39.357778},{"id":2859167,"name":"alekseyevka","country":"ua","lat":48.485833,"lon":38.9125},{"id":2496915,"name":"primiusskiy","country":"ru","lat":47.859128,"lon":38.894216},{"id":2505038,"name":"russko-leontyevskiy","country":"ru","lat":47.516389,"lon":39.404444},{"id":2869081,"name":"ionovka","country":"ua","lat":48.411667,"lon":39.119444},{"id":2414002,"name":"karchino-annenskiy","country":"ru","lat":47.636389,"lon":39.229444},{"id":2506963,"name":"salantyr olenikov","country":"ru","lat":47.670833,"lon":39.336944},{"id":2884843,"name":"pervomayskyy","country":"ua","lat":47.973307,"lon":38.789985},{"id":2881794,"name":"novoklinovo","country":"ua","lat":48.302778,"lon":39.423611},{"id":2863756,"name":"chernukhino","country":"ua","lat":48.323395,"lon":38.522723},{"id":2372787,"name":"bishlerovka","country":"ru","lat":47.784722,"lon":38.825},{"id":2868103,"name":"grushevyy","country":"ua","lat":47.983333,"lon":38.85},{"id":2868898,"name":"ilinka","country":"ua","lat":48.09143,"lon":39.222476},{"id":2874719,"name":"kruglyy","country":"ua","lat":48.265149,"lon":38.564157},{"id":2885412,"name":"platanovka","country":"ua","lat":47.946524,"lon":39.336473},{"id":2890446,"name":"shlyakhtin","country":"ua","lat":48.183333,"lon":39.344444},{"id":2898277,"name":"vrubovskiy","country":"ua","lat":48.436111,"lon":39.106111},{"id":2541793,"name":"tuzlovo","country":"ru","lat":47.847222,"lon":39.446944},{"id":2358895,"name":"agrafenowka","country":"ru","lat":47.739444,"lon":39.489167},{"id":2873041,"name":"koopstroy","country":"ua","lat":48.055,"lon":38.648889},{"id":2861798,"name":"bolshaya kamenka","country":"ua","lat":48.15,"lon":39.433333},{"id":2872801,"name":"komendantskoye","country":"ua","lat":48.261658,"lon":38.676478},{"id":2892656,"name":"stepanovka","country":"ua","lat":48.426944,"lon":38.885833},{"id":2869814,"name":"kamenka","country":"ua","lat":48.244469,"lon":39.386669},{"id":2859323,"name":"andreyevka","country":"ua","lat":48.354167,"lon":39.494444},{"id":2866016,"name":"dyakovo","country":"ua","lat":47.94336,"lon":39.137728},{"id":2369215,"name":"bednovskiy","country":"ru","lat":47.533333,"lon":38.883333},{"id":2876342,"name":"lisichiy","country":"ua","lat":47.731504,"lon":38.594985},{"id":2874397,"name":"krasnyy yar","country":"ua","lat":48.2984,"lon":39.479266},{"id":2562949,"name":"yelizavetinskiy","country":"ru","lat":47.840833,"lon":38.820556},{"id":2868097,"name":"grushevoye","country":"ua","lat":48.24695,"lon":38.823493},{"id":2509676,"name":"seleznev","country":"ru","lat":47.625187,"lon":38.50464},{"id":2899363,"name":"yekaterinoslavskiy","country":"ua","lat":47.690107,"lon":38.751741},{"id":2426555,"name":"kombaynovyy","country":"ru","lat":47.6,"lon":38.866667},{"id":2554533,"name":"vishnyanskiy","country":"ru","lat":47.637799,"lon":38.677518},{"id":2886969,"name":"proletarskiy","country":"ua","lat":48.133895,"lon":39.255998},{"id":2867129,"name":"glubokiy","country":"ua","lat":48.475634,"lon":38.58596},{"id":2868984,"name":"imeni karla","country":"ua","lat":48.334722,"lon":39.364722},{"id":2502127,"name":"repyakhovatyy","country":"ru","lat":47.84885,"lon":38.864517},{"id":2449954,"name":"makukhin","country":"ru","lat":47.588333,"lon":39.337778},{"id":2886082,"name":"politotdelskiy","country":"ua","lat":48.043293,"lon":38.77434},{"id":2366649,"name":"balabonov","country":"ru","lat":47.7475,"lon":39.358611},{"id":2482691,"name":"ovchinnikov","country":"ru","lat":47.529444,"lon":39.283611},{"id":2898059,"name":"voroshilovskiy","country":"ua","lat":48.426944,"lon":39.111389},{"id":2880264,"name":"nagolnayatarasovka","country":"ua","lat":48.001341,"lon":39.476964},{"id":2876206,"name":"liman","country":"ua","lat":48.306944,"lon":38.72},{"id":2879102,"name":"mikhaylovka","country":"ua","lat":48.056389,"lon":39.331111},{"id":2875177,"name":"kulva","country":"ua","lat":48.156944,"lon":38.934167},{"id":2868967,"name":"imeni dzerzhinskogo","country":"ua","lat":48.045168,"lon":39.43861},{"id":2869965,"name":"kamyshevakha","country":"ua","lat":48.451389,"lon":39.026944},{"id":2870329,"name":"karpovonadezhdynka","country":"ua","lat":47.826539,"lon":38.58166},{"id":2900172,"name":"zamkovka","country":"ua","lat":48.466667,"lon":38.683333},{"id":2861503,"name":"bobrykove","country":"ua","lat":47.928079,"lon":39.228156},{"id":2876691,"name":"lozovaya pavlovka","country":"ua","lat":48.483333,"lon":38.7},{"id":2883543,"name":"orekhovskiy","country":"ua","lat":48.0125,"lon":38.695278},{"id":2866576,"name":"fromandirovka","country":"ua","lat":48.286944,"lon":38.9375},{"id":2878872,"name":"menchekur","country":"ua","lat":48.435278,"lon":39.272778},{"id":2896006,"name":"vasilyevka","country":"ua","lat":48.008889,"lon":39.194722},{"id":2894953,"name":"tsimlyanka","country":"ua","lat":47.874167,"lon":39.284167},{"id":2870125,"name":"karakash","country":"ua","lat":48.135833,"lon":39.115833},{"id":2879452,"name":"mochalinskiy","country":"ua","lat":48.063333,"lon":38.71},{"id":2881622,"name":"novodaryavka","country":"ua","lat":48.077451,"lon":39.476886},{"id":2891379,"name":"snezhnoye","country":"ua","lat":48.026118,"lon":38.772251},{"id":2883535,"name":"orekhovo","country":"ua","lat":48.040823,"lon":39.169886},{"id":2890472,"name":"sholkovyy protok","country":"ua","lat":48.305177,"lon":39.254784},{"id":2874350,"name":"krasnyy kut","country":"ua","lat":48.201376,"lon":38.79765},{"id":2886321,"name":"popovka","country":"ua","lat":48.2475,"lon":38.759444},{"id":2372704,"name":"biryuchya balka","country":"ru","lat":47.560833,"lon":39.442778},{"id":2870695,"name":"khartsyzsk","country":"ua","lat":48.148889,"lon":39.081944},{"id":2415186,"name":"kashkovka","country":"ru","lat":47.514722,"lon":38.620833},{"id":2877180,"name":"lyubimaya","country":"ua","lat":47.879441,"lon":39.466216},{"id":2883526,"name":"orekhovka","country":"ua","lat":48.290833,"lon":39.203056},{"id":2386569,"name":"chervonnyy-kurgan","country":"ru","lat":47.666667,"lon":39.483333},{"id":2890445,"name":"shlyakhtino","country":"ua","lat":48.188611,"lon":39.447778},{"id":2867989,"name":"grinfeld","country":"ua","lat":47.92045,"lon":39.483812},{"id":2874490,"name":"krepenskiy","country":"ua","lat":48.077095,"lon":39.057998},{"id":2859524,"name":"antratsit","country":"ua","lat":48.115032,"lon":39.091283},{"id":2531312,"name":"svetlyy","country":"ru","lat":47.759722,"lon":39.159444},{"id":2438078,"name":"kumshatskiy","country":"ru","lat":47.796667,"lon":39.169444},{"id":2868726,"name":"hribuvakha","country":"ua","lat":47.98221,"lon":39.326868},{"id":2884807,"name":"pervomayka","country":"ua","lat":47.866667,"lon":39.183333},{"id":2885103,"name":"petrovskogo","country":"ua","lat":48.27,"lon":38.696111},{"id":2893303,"name":"sutagan","country":"ua","lat":48.485,"lon":39.018333},{"id":2473154,"name":"novoilovavskiy","country":"ru","lat":47.646111,"lon":38.721111},{"id":2879124,"name":"mikhaylovskiy","country":"ua","lat":48.06622,"lon":39.247262},{"id":2877393,"name":"makedonovka","country":"ua","lat":48.235384,"lon":39.294262},{"id":2440695,"name":"kuznetsov","country":"ru","lat":47.548056,"lon":39.407778},{"id":2890543,"name":"shterovka","country":"ua","lat":48.088611,"lon":38.911389},{"id":2866305,"name":"fashchevka","country":"ua","lat":48.217057,"lon":38.672476},{"id":2900787,"name":"zelenyy kurgan","country":"ua","lat":48.192555,"lon":39.14061},{"id":2570688,"name":"zhelobok","country":"ru","lat":47.8,"lon":39.066667},{"id":2526013,"name":"starorotovka","country":"ru","lat":47.601266,"lon":38.865286},{"id":2412191,"name":"kamenno-tuzlovka","country":"ru","lat":47.823889,"lon":39.160556},{"id":2897531,"name":"vlasovka","country":"ua","lat":48.205278,"lon":39.3475},{"id":2872812,"name":"komissarovka","country":"ua","lat":48.387073,"lon":38.514819},{"id":2361700,"name":"anastassjewka","country":"ru","lat":47.565899,"lon":38.521851},{"id":2405044,"name":"gulyaevka","country":"ru","lat":47.686667,"lon":38.675833},{"id":2505549,"name":"ryazhenaya","country":"ru","lat":47.506877,"lon":38.878908},{"id":2893442,"name":"svistunova","country":"ua","lat":48.043333,"lon":38.8225},{"id":2897378,"name":"vishnevogrekovo","country":"ua","lat":48.022222,"lon":39.215556},{"id":2886026,"name":"pokrovskiy","country":"ua","lat":48.266389,"lon":38.618333},{"id":2422230,"name":"kirpichevo-aleksandrovskiy","country":"ru","lat":47.501944,"lon":39.261111},{"id":2880774,"name":"nikiforovo","country":"ua","lat":48.007709,"lon":38.853402},{"id":2889435,"name":"seleznevka","country":"ua","lat":48.392702,"lon":38.78758},{"id":2877816,"name":"malomartynovka","country":"ua","lat":48.391911,"lon":38.967034},{"id":2867393,"name":"golubovochka","country":"ua","lat":48.2375,"lon":39.294444},{"id":2862128,"name":"borisovka","country":"ua","lat":48.483333,"lon":39.283333},{"id":2865182,"name":"dobropolye","country":"ua","lat":47.891389,"lon":39.418333},{"id":2390164,"name":"denisovka","country":"ru","lat":47.513307,"lon":38.893324},{"id":2554000,"name":"vidnyy","country":"ru","lat":47.55,"lon":39.1},{"id":2544014,"name":"ulyanov","country":"ru","lat":47.820278,"lon":39.196111},{"id":2884862,"name":"pervozvanovka","country":"ua","lat":48.337778,"lon":39.425556},{"id":2365229,"name":"avilo-fedorovka","country":"ru","lat":47.677071,"lon":38.742476},{"id":2877278,"name":"lyuksemburg","country":"ua","lat":48.456667,"lon":38.6725},{"id":2861052,"name":"bespavlovskiy","country":"ua","lat":47.766667,"lon":38.55},{"id":2867934,"name":"gribovka","country":"ua","lat":48.146667,"lon":38.648889},{"id":2509076,"name":"saykovskiy","country":"ru","lat":47.723889,"lon":39.475556},{"id":2878147,"name":"manych","country":"ua","lat":47.755556,"lon":38.74429},{"id":2434970,"name":"krinichno-lugskiy","country":"ru","lat":47.752778,"lon":39.219167},{"id":2436643,"name":"kucherovka","country":"ru","lat":47.676284,"lon":38.885687},{"id":2860665,"name":"belyanka","country":"ua","lat":48.49,"lon":38.961111},{"id":2886508,"name":"poselok shakhty nomer vosemnadtsatyy","country":"ua","lat":48.066667,"lon":38.783333},{"id":2362476,"name":"anna-maryevskiy","country":"ru","lat":47.536389,"lon":39.294722},{"id":2869854,"name":"kamennoye","country":"ua","lat":48.169285,"lon":39.165649},{"id":2874191,"name":"krasnoshchekovskiy","country":"ua","lat":48.166667,"lon":38.833333},{"id":2885091,"name":"petrovskiy","country":"ua","lat":47.869167,"lon":39.150833},{"id":2890461,"name":"shmidta","country":"ua","lat":48.399722,"lon":39.386111},{"id":2894007,"name":"teplinskoye","country":"ua","lat":48.144167,"lon":39.480278},{"id":2890086,"name":"shekhovo","country":"ua","lat":48.217222,"lon":39.198056},{"id":2867947,"name":"grigorovka","country":"ua","lat":47.857936,"lon":38.779288},{"id":2881515,"name":"novoaleksandrovka","country":"ua","lat":47.868611,"lon":39.489444},{"id":2861687,"name":"bokovoplatovo","country":"ua","lat":48.120138,"lon":39.022241},{"id":2505105,"name":"russkoye","country":"ru","lat":47.745,"lon":38.941134},{"id":2505039,"name":"russko-lyutino","country":"ru","lat":47.749167,"lon":39.26},{"id":2896796,"name":"verkhniy nagolchik","country":"ua","lat":48.085933,"lon":39.089206},{"id":2433620,"name":"krasny salantyr","country":"ru","lat":47.8,"lon":39.483333},{"id":2895753,"name":"utkino","country":"ua","lat":48.322655,"lon":38.79196},{"id":2895662,"name":"usnenskoye","country":"ua","lat":47.728547,"lon":38.706948},{"id":2899157,"name":"yasenovskiy","country":"ua","lat":48.163867,"lon":39.219719},{"id":2878141,"name":"manuylovka","country":"ua","lat":48.397778,"lon":38.533611},{"id":2867907,"name":"grekovtimofeyevka","country":"ua","lat":48.197496,"lon":38.553859},{"id":2409423,"name":"ivanovo-yasenovskiy","country":"ru","lat":47.708614,"lon":38.985897},{"id":2489958,"name":"platovo-knyazevskiy","country":"ru","lat":47.7,"lon":39.4},{"id":2887319,"name":"pyatigorovka","country":"ua","lat":48.350833,"lon":39.393333},{"id":2390171,"name":"denisovo-alekseyevskiy","country":"ru","lat":47.795556,"lon":39.320833},{"id":2894865,"name":"tschistjakowa","country":"ua","lat":48.038762,"lon":38.596854},{"id":2471551,"name":"novaya nikolayevka","country":"ru","lat":47.616117,"lon":38.680046},{"id":2861829,"name":"bolshaya meshkova","country":"ua","lat":47.873744,"lon":38.559983},{"id":2895832,"name":"vakhrushevo","country":"ua","lat":48.151241,"lon":38.780431},{"id":2861689,"name":"bokovskiy","country":"ua","lat":48.101667,"lon":38.995},{"id":2414727,"name":"karshino-ivanovskiy","country":"ru","lat":47.532222,"lon":39.408889},{"id":2516411,"name":"shlak","country":"ru","lat":47.583333,"lon":38.65},{"id":2467590,"name":"nikolay-polye","country":"ru","lat":47.633333,"lon":39.1},{"id":2885018,"name":"petropavlovka","country":"ua","lat":48.233333,"lon":39.133333},{"id":2877613,"name":"malaya","country":"ua","lat":47.680833,"lon":38.633611},{"id":2876027,"name":"leskino","country":"ua","lat":48.096502,"lon":39.214059},{"id":2862831,"name":"bugayevka","country":"ua","lat":48.417673,"lon":38.858663},{"id":2860372,"name":"bayrachki","country":"ua","lat":48.392,"lon":38.601737},{"id":2434706,"name":"krepaki","country":"ru","lat":47.8275,"lon":38.893611},{"id":2361705,"name":"anastasyevka","country":"ru","lat":47.562244,"lon":38.519232},{"id":2879380,"name":"miusinsk","country":"ua","lat":48.077497,"lon":38.903644},{"id":2884215,"name":"parizhskaya kommuna","country":"ua","lat":48.433333,"lon":38.816667},{"id":2474226,"name":"novo-osinskiy","country":"ru","lat":47.5,"lon":39.083333},{"id":2893872,"name":"tatsino","country":"ua","lat":48.066224,"lon":39.212556},{"id":2872709,"name":"kolpakovka","country":"ua","lat":47.8,"lon":38.616667},{"id":2889878,"name":"shakhterskiy","country":"ua","lat":48.13471,"lon":39.107841},{"id":2422620,"name":"kislitskiy","country":"ru","lat":47.522246,"lon":38.672467},{"id":2486952,"name":"persianovka","country":"ru","lat":47.529722,"lon":39.418333},{"id":2391324,"name":"dobritsin","country":"ru","lat":47.5125,"lon":38.770833},{"id":2883693,"name":"osipovka","country":"ua","lat":48.448056,"lon":38.908611},{"id":2887263,"name":"put lenina","country":"ua","lat":48.089444,"lon":38.535833},{"id":2876556,"name":"lomovatka","country":"ua","lat":48.453891,"lon":38.567885},{"id":2864026,"name":"chervonyy gay","country":"ua","lat":48.256389,"lon":39.468056},{"id":2874704,"name":"kruglik","country":"ua","lat":48.185278,"lon":39.196944},{"id":2521328,"name":"sokolovka","country":"ru","lat":47.585,"lon":39.176111},{"id":2867579,"name":"gornyak","country":"ua","lat":48.070166,"lon":39.19371},{"id":2882330,"name":"novouspenka","country":"ua","lat":48.4,"lon":39.216667},{"id":2474897,"name":"novoselye pervoye","country":"ru","lat":47.5,"lon":39.2},{"id":2449402,"name":"makarovskiy","country":"ru","lat":47.616667,"lon":39.016667},{"id":2507563,"name":"samoylovo","country":"ru","lat":47.545523,"lon":38.672177},{"id":2901409,"name":"znamenka","country":"ua","lat":48.461944,"lon":39.260556},{"id":2436259,"name":"krynka","country":"ru","lat":47.608303,"lon":38.796855},{"id":2900244,"name":"zapadnyy","country":"ua","lat":48.4,"lon":39.053056},{"id":2900966,"name":"zhelobok","country":"ua","lat":48.023333,"lon":39.006944},{"id":2889284,"name":"saurivka","country":"ua","lat":47.906664,"lon":38.755449},{"id":2489907,"name":"plato-ivanovka","country":"ru","lat":47.684444,"lon":39.409444},{"id":2885066,"name":"petrovokrasnoselye","country":"ua","lat":48.3,"lon":38.866667},{"id":2898731,"name":"woroschilowsk","country":"ua","lat":48.468928,"lon":38.816689},{"id":2550645,"name":"verkhne-shirokiy","country":"ru","lat":47.577642,"lon":38.704401},{"id":2888490,"name":"rubashkino","country":"ua","lat":47.854438,"lon":38.619809},{"id":2473901,"name":"novomirovskiy","country":"ru","lat":47.505,"lon":38.800278},{"id":2885114,"name":"petrovskoye","country":"ua","lat":48.296621,"lon":38.878921},{"id":2887834,"name":"removka","country":"ua","lat":47.996111,"lon":38.786667},{"id":2860638,"name":"beloyarovka","country":"ua","lat":47.794146,"lon":38.599934},{"id":2472591,"name":"novobakhmutskiy","country":"ru","lat":47.777504,"lon":38.875926},{"id":2505123,"name":"russo-denisovskiy","country":"ru","lat":47.761389,"lon":39.285556},{"id":2890356,"name":"shirokiy","country":"ua","lat":48.269444,"lon":38.983611},{"id":2875574,"name":"kvashyne","country":"ua","lat":47.744688,"lon":38.585969},{"id":2436367,"name":"kryukovo","country":"ru","lat":47.652222,"lon":39.226667},{"id":2867606,"name":"gorodishche","country":"ua","lat":48.321809,"lon":38.639419},{"id":2897496,"name":"vladimirovka","country":"ua","lat":48.265833,"lon":38.861667},{"id":2887642,"name":"rassypnaya","country":"ua","lat":48.132136,"lon":38.573687},{"id":2570108,"name":"zevin","country":"ru","lat":47.583333,"lon":38.733333},{"id":2860583,"name":"belorechenskiy","country":"ua","lat":48.44703,"lon":39.102301},{"id":2863944,"name":"chervonnyy prapor","country":"ua","lat":48.439255,"lon":38.558307},{"id":2866374,"name":"fedoskin","country":"ua","lat":48.194167,"lon":39.225833},{"id":2881956,"name":"novopavlovka","country":"ua","lat":48.066667,"lon":38.9},{"id":2858947,"name":"adrianopol","country":"ua","lat":48.362839,"lon":38.723416},{"id":2878721,"name":"mechetnovskiy","country":"ua","lat":48.175833,"lon":39.345},{"id":2876056,"name":"lesnoye","country":"ua","lat":48.383333,"lon":39.166667},{"id":2864571,"name":"daryevka","country":"ua","lat":47.979809,"lon":39.42862},{"id":2869298,"name":"ivanovka","country":"ua","lat":48.243056,"lon":38.945},{"id":2866925,"name":"georgiyevka","country":"ua","lat":48.422778,"lon":39.252778},{"id":2898957,"name":"yamshchitskiy","country":"ua","lat":47.804167,"lon":38.685},{"id":2456425,"name":"mayndorf","country":"ru","lat":47.7,"lon":38.833333},{"id":2876738,"name":"lozy","country":"ua","lat":48.098556,"lon":39.286741},{"id":2878843,"name":"melnikova","country":"ua","lat":48.156758,"lon":39.034687},{"id":2868959,"name":"imeni artema","country":"ua","lat":48.280116,"lon":38.782625},{"id":2871130,"name":"khristoforovka","country":"ua","lat":48.168993,"lon":39.017023},{"id":2472676,"name":"novo-bessergenevka","country":"ru","lat":47.55,"lon":39.15},{"id":2878421,"name":"maryevka","country":"ua","lat":47.968148,"lon":39.411188},{"id":2900775,"name":"zelenyy gay","country":"ua","lat":48.189565,"lon":38.963005},{"id":2458084,"name":"mezentsov","country":"ru","lat":47.823333,"lon":39.401111},{"id":2365230,"name":"avilo-uspenka","country":"ru","lat":47.693669,"lon":38.675608},{"id":2864478,"name":"dachnyy","country":"ua","lat":48.126111,"lon":38.531111},{"id":2878139,"name":"manuylovka","country":"ua","lat":47.964483,"lon":38.67074},{"id":2870682,"name":"kharkovskiy","country":"ua","lat":47.745418,"lon":38.559566},{"id":2562430,"name":"yekaterinoslavskiy","country":"ru","lat":47.588333,"lon":39.176944},{"id":2899432,"name":"yelizavetovka","country":"ua","lat":48.35721,"lon":38.96147},{"id":2874215,"name":"krasnovka","country":"ua","lat":47.895833,"lon":39.340556},{"id":2859819,"name":"azarovka","country":"ua","lat":48.338611,"lon":39.066389},{"id":2877626,"name":"malaya nikolayevka","country":"ua","lat":48.309801,"lon":39.027086},{"id":2506962,"name":"salantyr ivanovka","country":"ru","lat":47.661667,"lon":39.3225},{"id":2375921,"name":"bolshekrepinskaya","country":"ru","lat":47.593894,"lon":39.378807},{"id":2901076,"name":"zhitenkov","country":"ua","lat":47.778611,"lon":38.663333},{"id":2434980,"name":"krinichnyy","country":"ru","lat":47.629824,"lon":38.963891},{"id":2867121,"name":"glubokaya balka","country":"ua","lat":48.013333,"lon":39.006667},{"id":2456122,"name":"matwejew-kurgan","country":"ru","lat":47.5645,"lon":38.869468},{"id":2880782,"name":"nikitino","country":"ua","lat":48.241258,"lon":38.526594},{"id":2869036,"name":"imeni ulyanova","country":"ua","lat":48.007778,"lon":39.366667},{"id":2873001,"name":"kontarnoye","country":"ua","lat":48.085155,"lon":38.517328},{"id":2870335,"name":"karshino","country":"ua","lat":48.066111,"lon":39.270278},{"id":2860640,"name":"beloye","country":"ua","lat":48.495229,"lon":39.050513},{"id":2491403,"name":"podlesnyy","country":"ru","lat":47.583822,"lon":38.810046},{"id":2402006,"name":"gorkiy","country":"ru","lat":47.8,"lon":39.116667},{"id":2896121,"name":"velikan","country":"ua","lat":48.09,"lon":38.5125},{"id":2886822,"name":"prishchepino","country":"ua","lat":48.075556,"lon":39.273611},{"id":2403501,"name":"grekovo-ulyanovka","country":"ru","lat":47.620278,"lon":39.254722},{"id":2860298,"name":"bashtevich","country":"ua","lat":48.369361,"lon":38.86676},{"id":2874331,"name":"krasnyy kolos","country":"ua","lat":48.145364,"lon":39.213894},{"id":2865801,"name":"dubovskiy","country":"ua","lat":48.062948,"lon":39.120953},{"id":2873200,"name":"korennoy","country":"ua","lat":48.076197,"lon":38.824686},{"id":2505051,"name":"russko-sidorovka","country":"ru","lat":47.6525,"lon":39.168889},{"id":2360438,"name":"alekseyevo-tuzlovka","country":"ru","lat":47.840833,"lon":39.453333},{"id":2893974,"name":"temiryazevka","country":"ua","lat":48.299624,"lon":38.744286},{"id":2874126,"name":"krasnoluchskiy","country":"ua","lat":48.183333,"lon":38.983333},{"id":2362748,"name":"antoninovskiy","country":"ru","lat":47.845,"lon":39.335},{"id":2487703,"name":"peschany","country":"ru","lat":47.714444,"lon":39.452778},{"id":2900290,"name":"zaprudnoye","country":"ua","lat":48.016667,"lon":38.766667},{"id":2890389,"name":"shishovka","country":"ua","lat":47.974961,"lon":38.518474},{"id":2865627,"name":"draylinden","country":"ua","lat":48.3975,"lon":39.455833},{"id":2879087,"name":"mikhaylolazarevka","country":"ua","lat":48.349167,"lon":39.283056},{"id":2448595,"name":"lyssogorskaja","country":"ru","lat":47.703611,"lon":39.208333},{"id":2901513,"name":"zorinsk","country":"ua","lat":48.411944,"lon":38.623611},{"id":2865791,"name":"dubovka","country":"ua","lat":48.153889,"lon":39.339167},{"id":2894655,"name":"troitskiy","country":"ua","lat":48.445383,"lon":38.92945},{"id":2871143,"name":"khrustalnoye","country":"ua","lat":48.147825,"lon":38.851507},{"id":2899446,"name":"yelizayetovka","country":"ua","lat":48.097222,"lon":38.829722},{"id":2455276,"name":"martynovko","country":"ru","lat":47.803056,"lon":39.0375},{"id":2884115,"name":"paliyevka","country":"ua","lat":48.238318,"lon":39.414642},{"id":2877875,"name":"maloyuryevka","country":"ua","lat":48.380126,"lon":38.959805},{"id":2894245,"name":"timiryazevskoye","country":"ua","lat":48.083333,"lon":38.733333},{"id":2893736,"name":"tarany","country":"ua","lat":47.889599,"lon":38.77917},{"id":2864605,"name":"davidovka","country":"ua","lat":48.255334,"lon":38.822014},{"id":2898109,"name":"voskresenskoye","country":"ua","lat":48.31861,"lon":38.81585},{"id":2883320,"name":"olkhovchik","country":"ua","lat":48.066667,"lon":38.516667},{"id":2878431,"name":"marynivka","country":"ua","lat":47.90324,"lon":38.846813},{"id":2889810,"name":"severnoye","country":"ua","lat":48.095547,"lon":38.683575},{"id":2901291,"name":"zhurovka","country":"ua","lat":48.2225,"lon":39.449167},{"id":2881986,"name":"novopetrovskoye","country":"ua","lat":47.848891,"lon":38.811794},{"id":2454883,"name":"marjewka","country":"ru","lat":47.594444,"lon":39.135278},{"id":2866281,"name":"fabrichnoye","country":"ua","lat":48.433333,"lon":39.283333},{"id":2554951,"name":"vlasovo-burtovka","country":"ru","lat":47.806944,"lon":39.337222},{"id":2472537,"name":"novoandrianovka","country":"ru","lat":47.575278,"lon":39.038611},{"id":2860480,"name":"belenkiy","country":"ua","lat":48.483333,"lon":38.983333},{"id":2501121,"name":"ravnopol","country":"ru","lat":47.758611,"lon":39.076111},{"id":2536584,"name":"timskiy","country":"ru","lat":47.833889,"lon":39.431944},{"id":2886503,"name":"poselok rafailovskoy","country":"ua","lat":48.118444,"lon":39.201145},{"id":2472878,"name":"novo-dmitriyevskiy","country":"ru","lat":47.683333,"lon":39.35},{"id":2897754,"name":"volnukhino","country":"ua","lat":48.339444,"lon":39.281667},{"id":2475109,"name":"novospasovka","country":"ru","lat":47.711667,"lon":39.081111},{"id":2403384,"name":"grebennikov","country":"ru","lat":47.5625,"lon":39.000833},{"id":2884520,"name":"pelageevski","country":"ua","lat":48.107524,"lon":38.613378},{"id":2527938,"name":"stepanovskiy","country":"ru","lat":47.536369,"lon":38.805118},{"id":2863742,"name":"chernov","country":"ua","lat":48.285,"lon":39.351667},{"id":2519347,"name":"skorokhod","country":"ru","lat":47.519508,"lon":38.705125},{"id":2866739,"name":"gannovka","country":"ua","lat":48.48058,"lon":38.54638},{"id":2891469,"name":"sofiyevskiy","country":"ua","lat":48.215187,"lon":38.873948},{"id":2866459,"name":"finogeyeva","country":"ua","lat":48.238889,"lon":39.18},{"id":2871993,"name":"klenovyy","country":"ua","lat":48.119341,"lon":39.458797},{"id":2866932,"name":"gerasimova","country":"ua","lat":47.972778,"lon":38.846111},{"id":2886420,"name":"poselok alekseyevnagolchenskiy","country":"ua","lat":48.017359,"lon":39.073425},{"id":2874161,"name":"krasnopolye","country":"ua","lat":48.483333,"lon":38.65},{"id":2881606,"name":"novobulakhovka","country":"ua","lat":48.298057,"lon":39.087277},{"id":2414765,"name":"kartasheva","country":"ru","lat":47.761944,"lon":39.135833},{"id":2899526,"name":"yesaulovka","country":"ua","lat":48.051955,"lon":39.024282},{"id":2884547,"name":"peradriyeyo","country":"ua","lat":48.006657,"lon":38.906642},{"id":2879189,"name":"millerovo","country":"ua","lat":48.151389,"lon":39.166389},{"id":2373770,"name":"bogatyrev","country":"ru","lat":47.5,"lon":38.95},{"id":2876550,"name":"lomanchuk","country":"ua","lat":48.016035,"lon":38.823989},{"id":2881812,"name":"novokrasnovka","country":"ua","lat":47.935152,"lon":39.286442},{"id":2866495,"name":"fominovka","country":"ua","lat":48.117222,"lon":39.113056},{"id":2888592,"name":"rudnichnyy","country":"ua","lat":48.066667,"lon":39.066667},{"id":2880810,"name":"nikolayevka","country":"ua","lat":48.164711,"lon":39.467388},{"id":2508340,"name":"sarmatskiy","country":"ru","lat":47.52725,"lon":38.605668},{"id":2888313,"name":"rovnoye","country":"ua","lat":48.102804,"lon":38.585377},{"id":2881623,"name":"novodaryevka","country":"ua","lat":47.96373,"lon":39.381577},{"id":2877808,"name":"maloivanovka","country":"ua","lat":48.383732,"lon":38.643853},{"id":2870521,"name":"kazakovka","country":"ua","lat":48.218535,"lon":39.024034},{"id":2889348,"name":"sbornaya","country":"ua","lat":48.486667,"lon":39.114722},{"id":2860229,"name":"baronskoye","country":"ua","lat":48.384805,"lon":38.545199},{"id":2872176,"name":"knyaginevka","country":"ua","lat":48.117606,"lon":38.85224},{"id":2493360,"name":"polozov","country":"ru","lat":47.529167,"lon":38.725833},{"id":2897646,"name":"volchiy","country":"ua","lat":48.420833,"lon":38.866389},{"id":2437440,"name":"kulbakovo","country":"ru","lat":47.687877,"lon":38.92312},{"id":2899737,"name":"yuzhnaya lomovatka","country":"ua","lat":48.438237,"lon":38.530216},{"id":2864060,"name":"chervonyy zhovten","country":"ua","lat":47.971735,"lon":38.734097},{"id":2888993,"name":"sadovokhrustalnenskiy","country":"ua","lat":48.151041,"lon":38.727987},{"id":2893250,"name":"surorovka","country":"ua","lat":48.358611,"lon":39.325278},{"id":2479963,"name":"olkhovyy","country":"ru","lat":47.807266,"lon":38.859073},{"id":2390198,"name":"denisovo-nikolayevka","country":"ru","lat":47.758056,"lon":39.283333},{"id":2890028,"name":"shchetovo","country":"ua","lat":48.18146,"lon":39.11381},{"id":2529602,"name":"sukhaya-krynka","country":"ru","lat":47.7,"lon":38.65},{"id":2865027,"name":"dmitrievka","country":"ua","lat":47.936113,"lon":38.936607},{"id":2874542,"name":"krinichki","country":"ua","lat":47.867128,"lon":38.704111},{"id":2365231,"name":"avilo-uspenskiy","country":"ru","lat":47.639167,"lon":38.676667},{"id":2387401,"name":"chistopolye","country":"ru","lat":47.522778,"lon":39.445278},{"id":2487064,"name":"pervaya","country":"ru","lat":47.503333,"lon":38.995},{"id":2502207,"name":"reshetovka","country":"ru","lat":47.661944,"lon":39.166944},{"id":2555612,"name":"volna revolyutsii","country":"ru","lat":47.830833,"lon":39.170278},{"id":2897550,"name":"vodino","country":"ua","lat":48.392778,"lon":39.123611},{"id":2869127,"name":"isakovo","country":"ua","lat":48.469722,"lon":38.903333},{"id":2875916,"name":"lenina","country":"ua","lat":48.429444,"lon":39.145556},{"id":2900047,"name":"zalesnoye","country":"ua","lat":48.031045,"lon":38.809343},{"id":2892638,"name":"stepanivka","country":"ua","lat":47.922137,"lon":38.805813},{"id":2469939,"name":"nizhniy-vodyany","country":"ru","lat":47.653611,"lon":39.4075},{"id":2874357,"name":"krasnyy luch","country":"ua","lat":47.876315,"lon":38.618606},{"id":2892971,"name":"stryukovo","country":"ua","lat":48.180927,"lon":38.588744},{"id":2548796,"name":"vasilyevo-tuzlovskiy","country":"ru","lat":47.8325,"lon":39.405278},{"id":2876969,"name":"lutugino","country":"ua","lat":48.40507,"lon":39.226754},{"id":2885075,"name":"petrovpavlovka","country":"ua","lat":47.673024,"lon":38.562335},{"id":2899610,"name":"yulino pervoye","country":"ua","lat":48.278889,"lon":38.926111},{"id":2899166,"name":"yashchikovo","country":"ua","lat":48.40287,"lon":38.737832},{"id":2888301,"name":"rovenki","country":"ua","lat":48.083315,"lon":39.377638},{"id":2861269,"name":"biryuchiy","country":"ua","lat":47.865833,"lon":39.234167},{"id":2899394,"name":"yelenovka","country":"ua","lat":48.40726,"lon":38.573877},{"id":2896378,"name":"velikokamenka","country":"ua","lat":48.14202,"lon":39.439391},{"id":2874029,"name":"krasnaya zorka","country":"ua","lat":48.083333,"lon":38.7},{"id":2489523,"name":"pisarevka","country":"ru","lat":47.718611,"lon":38.787222},{"id":2898375,"name":"vydernoy","country":"ua","lat":48.445278,"lon":38.623889},{"id":2523101,"name":"sovet","country":"ru","lat":47.507222,"lon":39.247778},{"id":2882132,"name":"novoselovka","country":"ua","lat":48.387708,"lon":38.697842},{"id":2861697,"name":"boldyrevo","country":"ua","lat":48.016667,"lon":38.7},{"id":2899345,"name":"yegorovka","country":"ua","lat":47.980472,"lon":39.191347},{"id":2402680,"name":"gorskaya porada","country":"ru","lat":47.5275,"lon":39.283333},{"id":2869018,"name":"imeni rozylyuksemburg","country":"ua","lat":48.291111,"lon":39.402222},{"id":2566976,"name":"zakadychnoye","country":"ru","lat":47.600754,"lon":38.740458},{"id":2881320,"name":"novaya lyubimovka","country":"ua","lat":48.014722,"lon":39.38},{"id":2474835,"name":"novoselovskiy","country":"ru","lat":47.516944,"lon":38.849444},{"id":2865850,"name":"dubrovskiy","country":"ua","lat":47.949167,"lon":39.126944},{"id":2570107,"name":"zevinov","country":"ru","lat":47.566667,"lon":38.783333},{"id":2366922,"name":"balka","country":"ru","lat":47.553611,"lon":39.446389},{"id":2869680,"name":"kalinovo","country":"ua","lat":47.754429,"lon":38.69686},{"id":2885406,"name":"plakidno","country":"ua","lat":48.233056,"lon":39.469444},{"id":2872711,"name":"kolpakovo","country":"ua","lat":48.199518,"lon":39.11455},{"id":2473792,"name":"novo-maryevka","country":"ru","lat":47.666667,"lon":39.05},{"id":2890314,"name":"shinshinovka","country":"ua","lat":48.439297,"lon":38.989269},{"id":2875924,"name":"leninfeld","country":"ua","lat":48.393056,"lon":39.424444},{"id":2889519,"name":"semenivske","country":"ua","lat":47.851664,"lon":38.755425},{"id":2868920,"name":"illiriya","country":"ua","lat":48.403607,"lon":38.990623},{"id":2868964,"name":"imeni demchenko","country":"ua","lat":48.350556,"lon":38.572778},{"id":2519113,"name":"skelyanskiy","country":"ru","lat":47.782049,"lon":38.911389},{"id":2873834,"name":"kozhevnya","country":"ua","lat":47.880495,"lon":38.927554},{"id":2506964,"name":"salantyr","country":"ru","lat":47.728889,"lon":39.451389},{"id":2893176,"name":"sukhovskoy","country":"ua","lat":48.061502,"lon":38.717262},{"id":2861367,"name":"blagovka","country":"ua","lat":47.959402,"lon":39.356378},{"id":2879828,"name":"moskovskoye","country":"ua","lat":48.111028,"lon":38.543946},{"id":2859684,"name":"artemovsk","country":"ua","lat":48.44061,"lon":38.732003},{"id":2880943,"name":"nizhnekrinskoye","country":"ua","lat":47.784683,"lon":38.626934},{"id":2529801,"name":"sukhorechenskiy","country":"ru","lat":47.534122,"lon":38.863538},{"id":2504142,"name":"rubanovskiy","country":"ru","lat":47.733889,"lon":39.237778},{"id":2512931,"name":"shaposhnikova","country":"ru","lat":47.585779,"lon":38.805727},{"id":2875467,"name":"kutserbovka","country":"ua","lat":48.410278,"lon":39.199167},{"id":2463747,"name":"muzykin","country":"ru","lat":47.616667,"lon":38.566667},{"id":2866860,"name":"gayevka","country":"ua","lat":48.395833,"lon":39.302222},{"id":2887835,"name":"removskiye rudniki","country":"ua","lat":47.978729,"lon":38.808972},{"id":2862470,"name":"brazhino","country":"ua","lat":47.997574,"lon":38.837613},{"id":2879278,"name":"mirnyy","country":"ua","lat":48.4,"lon":39.133333},{"id":2898122,"name":"vostochnyy","country":"ua","lat":48.4,"lon":38.8},{"id":2884718,"name":"perevalsk","country":"ua","lat":48.437789,"lon":38.843836},{"id":2876500,"name":"lobovskiy","country":"ua","lat":48.165556,"lon":39.101944},{"id":2391025,"name":"dmitriyenko","country":"ru","lat":47.734167,"lon":39.123333},{"id":2901258,"name":"zhuravlevka","country":"ua","lat":48.224167,"lon":38.983889},{"id":2410151,"name":"izotkin","country":"ru","lat":47.633333,"lon":38.633333},{"id":2493090,"name":"poliyev","country":"ru","lat":47.507297,"lon":38.711764},{"id":2502020,"name":"repenkov","country":"ru","lat":47.671111,"lon":39.2275},{"id":2389900,"name":"demidovka","country":"ru","lat":47.59985,"lon":38.798332},{"id":2859405,"name":"anisimovka","country":"ua","lat":48.385,"lon":38.913333},{"id":2471923,"name":"novaya ukraina","country":"ru","lat":47.613333,"lon":39.291111},{"id":2888299,"name":"rovenetskiy","country":"ua","lat":48.068889,"lon":39.456667},{"id":2894906,"name":"tsentralnobokovskiy","country":"ua","lat":48.133189,"lon":39.074698},{"id":2859669,"name":"artemivka","country":"ua","lat":47.871985,"lon":38.637774},{"id":2868989,"name":"imeni karla marksa","country":"ua","lat":48.143056,"lon":39.403611},{"id":2389210,"name":"daraganov","country":"ru","lat":47.568387,"lon":38.776596},{"id":2490858,"name":"pochtovyy yar","country":"ru","lat":47.599167,"lon":39.283056},{"id":2883341,"name":"olkhovskiy zavod","country":"ua","lat":48.406111,"lon":39.143056},{"id":2493039,"name":"politofdelskoye","country":"ru","lat":47.532222,"lon":39.0675},{"id":2870348,"name":"kartushinskiy","country":"ua","lat":48.185556,"lon":39.464167},{"id":2868980,"name":"imeni kalinina","country":"ua","lat":48.099167,"lon":39.488056},{"id":2401108,"name":"golubovskiy","country":"ru","lat":47.783333,"lon":39.25},{"id":2891903,"name":"spartak","country":"ua","lat":48.216111,"lon":39.330556},{"id":2889881,"name":"shakhtersk","country":"ua","lat":48.062518,"lon":38.516649}]});