callback({"markets":[{"id":1960250,"name":"mutapa","country":"mz","lat":-16.5241667,"lon":39.5869444},{"id":1949957,"name":"chefe pinho","country":"mz","lat":-16.5361111,"lon":39.5938889},{"id":1950036,"name":"chefe saile","country":"mz","lat":-16.5508333,"lon":39.5038889},{"id":1949141,"name":"chefe jamal","country":"mz","lat":-16.5469444,"lon":39.5725},{"id":1948727,"name":"chefe amade","country":"mz","lat":-16.51,"lon":39.6519444},{"id":1948955,"name":"chefe cinco","country":"mz","lat":-16.6205556,"lon":39.5202778},{"id":1949193,"name":"chefe lourenco","country":"mz","lat":-16.5830556,"lon":39.5822222},{"id":1963569,"name":"regulo matapa","country":"mz","lat":-16.5327778,"lon":39.5761111},{"id":1951737,"name":"coropoa","country":"mz","lat":-16.5333333,"lon":39.6833333},{"id":1945489,"name":"abel","country":"mz","lat":-16.5869444,"lon":39.5313889},{"id":1965448,"name":"topito","country":"mz","lat":-16.5333333,"lon":39.6666667},{"id":1948834,"name":"chefe cassimo","country":"mz","lat":-16.5977778,"lon":39.5416667},{"id":1950035,"name":"chefe saide","country":"mz","lat":-16.5497222,"lon":39.5386111},{"id":1960384,"name":"muzoma","country":"mz","lat":-16.5619444,"lon":39.515}]});