callback({"markets":[{"id":2538018,"name":"torgunskiy","country":"ru","lat":50.154362,"lon":46.407166},{"id":2420317,"name":"khreshchatyy","country":"ru","lat":49.7,"lon":45.866667},{"id":2493052,"name":"politotdelskoye","country":"ru","lat":50.202329,"lon":45.711439},{"id":2455949,"name":"matreyev","country":"ru","lat":49.583333,"lon":45.616667},{"id":2468457,"name":"nizhne dobrinka","country":"ru","lat":50.313732,"lon":45.702716},{"id":2521550,"name":"soldatsko-stepnoye","country":"ru","lat":49.52511,"lon":45.508698},{"id":2517769,"name":"shvetsov","country":"ru","lat":49.8,"lon":45.766667},{"id":2403152,"name":"grachev","country":"ru","lat":49.566667,"lon":45.866667},{"id":2517759,"name":"shvendeg","country":"ru","lat":49.566667,"lon":45.966667},{"id":2373960,"name":"bogodushin","country":"ru","lat":50.266667,"lon":46.0},{"id":2513894,"name":"shcherbatovka","country":"ru","lat":50.48922,"lon":45.687665},{"id":2382501,"name":"burykin","country":"ru","lat":49.583333,"lon":45.933333},{"id":2409307,"name":"ivanov","country":"ru","lat":49.583333,"lon":45.85},{"id":2489330,"name":"pinnekera","country":"ru","lat":49.983333,"lon":45.933333},{"id":2407299,"name":"imeni frunze","country":"ru","lat":50.016667,"lon":45.75},{"id":2400974,"name":"golshteyn","country":"ru","lat":50.41754,"lon":45.700664},{"id":2533995,"name":"tatarenko","country":"ru","lat":49.966667,"lon":45.966667},{"id":2439128,"name":"kurnayevka","country":"ru","lat":50.388542,"lon":45.934434},{"id":2467545,"name":"nikolayevskiy","country":"ru","lat":49.914973,"lon":46.0612},{"id":2407414,"name":"imeni krupskoy","country":"ru","lat":49.933333,"lon":45.9},{"id":2392790,"name":"dreyshpitts","country":"ru","lat":50.370637,"lon":45.656707},{"id":2539316,"name":"trubachev","country":"ru","lat":49.65,"lon":45.833333},{"id":2443220,"name":"leninets","country":"ru","lat":49.872109,"lon":45.700486},{"id":2426664,"name":"kommuna-borba","country":"ru","lat":50.383333,"lon":46.433333},{"id":2493041,"name":"politotdelets","country":"ru","lat":50.0,"lon":45.566667},{"id":2430148,"name":"kosteno","country":"ru","lat":49.683333,"lon":45.583333},{"id":2435020,"name":"kriulin","country":"ru","lat":49.6,"lon":45.916667},{"id":2573569,"name":"zygalov","country":"ru","lat":49.716667,"lon":45.666667},{"id":2525144,"name":"staraya poltavka","country":"ru","lat":50.477148,"lon":46.481443},{"id":2438119,"name":"kumysolechebnitsa","country":"ru","lat":49.905841,"lon":46.003577},{"id":2511177,"name":"seregin sad","country":"ru","lat":49.566667,"lon":45.983333},{"id":2457889,"name":"meshcheryakov","country":"ru","lat":49.583333,"lon":45.9},{"id":2386944,"name":"chiguny","country":"ru","lat":49.703685,"lon":46.404688},{"id":2407644,"name":"imeni zhdanova","country":"ru","lat":50.103593,"lon":45.764016},{"id":2414613,"name":"karpov","country":"ru","lat":49.683333,"lon":46.183333},{"id":2544357,"name":"upryamovka","country":"ru","lat":49.933333,"lon":46.45},{"id":2498147,"name":"prudentov","country":"ru","lat":49.648718,"lon":46.302423},{"id":2558936,"name":"vyselki","country":"ru","lat":50.3,"lon":46.116667},{"id":2365758,"name":"babenko","country":"ru","lat":49.633333,"lon":45.75},{"id":2547951,"name":"valuyevka","country":"ru","lat":50.355933,"lon":46.418586},{"id":2381773,"name":"bulukhtinskaya","country":"ru","lat":49.5,"lon":46.366667},{"id":2502964,"name":"rogovoy","country":"ru","lat":49.566667,"lon":45.566667},{"id":2468108,"name":"nikuykovo","country":"ru","lat":50.2,"lon":45.666667},{"id":2425478,"name":"kolesnichenko","country":"ru","lat":49.633333,"lon":45.566667},{"id":2458224,"name":"mezhov","country":"ru","lat":49.55,"lon":45.916667},{"id":2564165,"name":"yershev","country":"ru","lat":49.767696,"lon":46.286562},{"id":2432826,"name":"krasnogvardeyets","country":"ru","lat":49.727678,"lon":45.983958},{"id":2528027,"name":"stepnovskiy","country":"ru","lat":49.94314,"lon":45.814874},{"id":2403385,"name":"grebennikov","country":"ru","lat":49.833333,"lon":45.666667},{"id":2564920,"name":"yudin","country":"ru","lat":49.541061,"lon":45.551935},{"id":2393796,"name":"dudkin","country":"ru","lat":49.992836,"lon":46.202748},{"id":2472190,"name":"novikov","country":"ru","lat":49.9,"lon":46.35},{"id":2403041,"name":"gotskov","country":"ru","lat":49.616667,"lon":45.6},{"id":2438516,"name":"kurakin","country":"ru","lat":49.65,"lon":45.666667},{"id":2446130,"name":"lomakin","country":"ru","lat":49.666667,"lon":45.95},{"id":2508953,"name":"savosin","country":"ru","lat":49.5,"lon":45.633333},{"id":2384347,"name":"chebotarev","country":"ru","lat":49.6,"lon":45.816667},{"id":2425894,"name":"kolomytsenko","country":"ru","lat":49.633333,"lon":45.85},{"id":2502204,"name":"reshetnyakov","country":"ru","lat":49.7,"lon":45.533333},{"id":2513495,"name":"shaykin","country":"ru","lat":49.683333,"lon":45.533333},{"id":2480309,"name":"onopriyenko","country":"ru","lat":49.716667,"lon":45.833333},{"id":2373771,"name":"bogatyrev","country":"ru","lat":49.816667,"lon":45.816667},{"id":2402073,"name":"gormakov","country":"ru","lat":49.656871,"lon":46.094853},{"id":2457485,"name":"melovoye","country":"ru","lat":50.099685,"lon":46.142588},{"id":2538360,"name":"traktorist","country":"ru","lat":50.116667,"lon":45.7},{"id":2386252,"name":"chernyshev","country":"ru","lat":49.797467,"lon":46.280079},{"id":2426825,"name":"komsomolets","country":"ru","lat":49.958458,"lon":45.640819},{"id":2572698,"name":"zolotari","country":"ru","lat":49.762811,"lon":46.449935},{"id":2502304,"name":"revenko","country":"ru","lat":49.616667,"lon":45.533333},{"id":2512948,"name":"shapovalov","country":"ru","lat":49.65,"lon":45.683333},{"id":2517731,"name":"shvab","country":"ru","lat":50.422049,"lon":45.856446},{"id":2411326,"name":"kalinino","country":"ru","lat":50.483333,"lon":46.2},{"id":2409608,"name":"ivantsovka","country":"ru","lat":49.664136,"lon":45.85875},{"id":2434291,"name":"krasnyy poselok","country":"ru","lat":49.533333,"lon":45.683333},{"id":2513839,"name":"shcherbachenko","country":"ru","lat":49.616667,"lon":45.633333},{"id":2495742,"name":"potemkino","country":"ru","lat":50.300973,"lon":45.929218},{"id":2399340,"name":"germysh","country":"ru","lat":49.65,"lon":45.566667},{"id":2369941,"name":"belogurov","country":"ru","lat":49.766667,"lon":46.35},{"id":2486030,"name":"pelikhov","country":"ru","lat":49.55,"lon":45.766667},{"id":2504585,"name":"rulevoy","country":"ru","lat":50.021246,"lon":45.859777},{"id":2398251,"name":"galki","country":"ru","lat":50.376603,"lon":45.797313},{"id":2443384,"name":"leninskoye","country":"ru","lat":50.040805,"lon":45.543234},{"id":2487604,"name":"peschanaya balka","country":"ru","lat":49.630615,"lon":45.812092},{"id":2404579,"name":"gryanchenko","country":"ru","lat":49.733333,"lon":45.55},{"id":2517191,"name":"shulga","country":"ru","lat":49.9,"lon":45.916667},{"id":2428114,"name":"kopyly","country":"ru","lat":49.716667,"lon":45.966667},{"id":2425676,"name":"koloberdin","country":"ru","lat":49.733333,"lon":45.716667},{"id":2421949,"name":"kirgizy","country":"ru","lat":49.733333,"lon":45.933333},{"id":2465810,"name":"nedogreyev","country":"ru","lat":49.75,"lon":45.85},{"id":2556462,"name":"voronin","country":"ru","lat":49.533333,"lon":45.666667},{"id":2487838,"name":"peski","country":"ru","lat":49.9,"lon":46.066667},{"id":2460944,"name":"molchanovka","country":"ru","lat":50.2,"lon":45.85},{"id":2486476,"name":"perepelitsa","country":"ru","lat":49.633333,"lon":45.716667},{"id":2444318,"name":"levchunovka","country":"ru","lat":50.133333,"lon":45.583333},{"id":2433025,"name":"krasnoselets","country":"ru","lat":49.662052,"lon":45.739428},{"id":2479728,"name":"oleynikov","country":"ru","lat":49.716667,"lon":45.633333},{"id":2371063,"name":"berezhnovka","country":"ru","lat":50.283333,"lon":45.833333},{"id":2434579,"name":"kraynev","country":"ru","lat":49.65,"lon":45.983333},{"id":2512925,"name":"shaporalov","country":"ru","lat":49.766667,"lon":45.8},{"id":2536512,"name":"timoshenko","country":"ru","lat":49.683333,"lon":45.933333},{"id":2434562,"name":"kravtsy","country":"ru","lat":49.717152,"lon":46.349083},{"id":2437659,"name":"kulikov","country":"ru","lat":49.583333,"lon":45.766667},{"id":2385194,"name":"cheremushkin","country":"ru","lat":49.666667,"lon":46.4},{"id":2363784,"name":"arkhipov","country":"ru","lat":49.6,"lon":45.633333},{"id":2434125,"name":"krasnyy meliorator","country":"ru","lat":50.025862,"lon":46.094338},{"id":2425029,"name":"koka","country":"ru","lat":49.716667,"lon":45.866667},{"id":2435011,"name":"kritily","country":"ru","lat":49.866667,"lon":46.433333},{"id":2378660,"name":"bondarenko","country":"ru","lat":49.5,"lon":45.55},{"id":2407509,"name":"imeni pervogo maya","country":"ru","lat":49.566667,"lon":46.166667},{"id":2516877,"name":"shpatsy","country":"ru","lat":50.133333,"lon":46.333333},{"id":2367427,"name":"baranovka","country":"ru","lat":49.984896,"lon":46.165644},{"id":2396365,"name":"fedorovka","country":"ru","lat":49.588525,"lon":45.521891},{"id":2508020,"name":"sapunkov","country":"ru","lat":49.845198,"lon":46.382686},{"id":2373219,"name":"blok","country":"ru","lat":50.100747,"lon":46.118978},{"id":2564630,"name":"yevtushenko","country":"ru","lat":49.666667,"lon":45.55},{"id":2542112,"name":"tyshchenko","country":"ru","lat":49.616667,"lon":45.75},{"id":2439138,"name":"kurni","country":"ru","lat":50.028172,"lon":46.324265},{"id":2407445,"name":"imeni libknekhta","country":"ru","lat":50.074043,"lon":46.398912},{"id":2456325,"name":"maydanov","country":"ru","lat":49.783333,"lon":45.833333},{"id":2370527,"name":"belyayevka","country":"ru","lat":50.306907,"lon":46.220773},{"id":2471678,"name":"novaya poltavka","country":"ru","lat":50.430782,"lon":46.391391},{"id":2489416,"name":"piramidalnyy","country":"ru","lat":49.914118,"lon":46.141589},{"id":2462179,"name":"mosiyenko","country":"ru","lat":49.95,"lon":45.983333},{"id":2485340,"name":"pavlenko","country":"ru","lat":49.666667,"lon":45.866667},{"id":2518518,"name":"sinitsyn","country":"ru","lat":49.816667,"lon":46.333333},{"id":2426329,"name":"kolyshkino","country":"ru","lat":50.445599,"lon":45.918514}]});