callback({"markets":[{"id":2425475,"name":"koleshchatovka","country":"ru","lat":49.58331,"lon":39.880491},{"id":2511589,"name":"serpanki","country":"ru","lat":50.427954,"lon":39.559834},{"id":2450589,"name":"malaya mezhenka","country":"ru","lat":50.119502,"lon":39.755233},{"id":2415062,"name":"kashcheyev","country":"ru","lat":49.718056,"lon":39.603889},{"id":2419945,"name":"khorshiy","country":"ru","lat":49.627222,"lon":40.14},{"id":2440093,"name":"kuvshin","country":"ru","lat":50.353028,"lon":39.990591},{"id":2365871,"name":"babka","country":"ru","lat":50.232039,"lon":39.722167},{"id":2539804,"name":"tsapkova","country":"ru","lat":50.0266,"lon":40.1594},{"id":2371794,"name":"beshchiy","country":"ru","lat":50.289866,"lon":39.512379},{"id":2876296,"name":"lipovoye","country":"ua","lat":49.544722,"lon":39.862222},{"id":2475155,"name":"novostepanovskiy","country":"ru","lat":49.570195,"lon":40.268109},{"id":2360403,"name":"alekseyevka","country":"ru","lat":49.593056,"lon":40.400278},{"id":2426545,"name":"komatov","country":"ru","lat":50.303889,"lon":39.758056},{"id":2473820,"name":"novo-miikhaylovka","country":"ru","lat":49.7475,"lon":40.412222},{"id":2480498,"name":"orakov","country":"ru","lat":49.521389,"lon":40.056389},{"id":2515863,"name":"shirinovka","country":"ru","lat":49.733187,"lon":40.391621},{"id":2492582,"name":"pokrovka","country":"ru","lat":49.6625,"lon":40.481944},{"id":2444963,"name":"lipchanka","country":"ru","lat":49.784213,"lon":40.466222},{"id":2434732,"name":"kreshchatnik","country":"ru","lat":50.248889,"lon":39.880278},{"id":2864935,"name":"dibrivnyy","country":"ua","lat":49.548056,"lon":40.062222},{"id":2532968,"name":"taly","country":"ru","lat":49.859185,"lon":40.076061},{"id":2523416,"name":"spartak","country":"ru","lat":49.790278,"lon":39.993889},{"id":2380233,"name":"bratolyubov","country":"ru","lat":49.95,"lon":40.141389},{"id":2543279,"name":"ukrainskiy","country":"ru","lat":49.738333,"lon":40.060556},{"id":2537770,"name":"topilo","country":"ru","lat":50.217118,"lon":39.949264},{"id":2492697,"name":"pokrovskiy","country":"ru","lat":50.338395,"lon":39.604267},{"id":2401241,"name":"golyy","country":"ru","lat":49.995278,"lon":40.326944},{"id":2870403,"name":"kaskov","country":"ua","lat":49.669722,"lon":39.568056},{"id":2547752,"name":"vakulovka","country":"ru","lat":50.303222,"lon":39.785295},{"id":2471156,"name":"novaya bugayevka","country":"ru","lat":49.719444,"lon":40.350556},{"id":2416389,"name":"kazinka","country":"ru","lat":50.25,"lon":40.0899},{"id":2471391,"name":"novaya kochevan","country":"ru","lat":49.859722,"lon":39.704722},{"id":2455424,"name":"maryevka","country":"ru","lat":49.736117,"lon":40.362301},{"id":2481258,"name":"osetrovka","country":"ru","lat":50.142,"lon":40.4733},{"id":2401010,"name":"golubaya krinitsa","country":"ru","lat":50.074015,"lon":39.894995},{"id":2487228,"name":"pervomayskiy","country":"ru","lat":49.650833,"lon":40.433056},{"id":2397314,"name":"fisenkovo","country":"ru","lat":49.901869,"lon":39.832239},{"id":2876219,"name":"limarev","country":"ua","lat":49.591111,"lon":39.730278},{"id":2519747,"name":"slavyanka","country":"ru","lat":50.17434,"lon":39.792517},{"id":2491068,"name":"podgorenskiy","country":"ru","lat":50.404976,"lon":39.642953},{"id":2391949,"name":"dolotinovka","country":"ru","lat":49.5525,"lon":40.404167},{"id":2407645,"name":"imeni zhdanova","country":"ru","lat":50.4902,"lon":40.0946},{"id":2554620,"name":"vitebsk","country":"ru","lat":50.422584,"lon":39.932802},{"id":2497992,"name":"prosyanyy","country":"ru","lat":49.610278,"lon":40.168611},{"id":2572490,"name":"zmiyevy prudy","country":"ru","lat":50.204536,"lon":39.749817},{"id":2459776,"name":"mishkin","country":"ru","lat":49.660278,"lon":40.4375},{"id":2516400,"name":"shkurlat","country":"ru","lat":50.3637,"lon":40.2405},{"id":2449342,"name":"makarovka","country":"ru","lat":50.194167,"lon":40.11},{"id":2547811,"name":"valentinovka","country":"ru","lat":49.935383,"lon":39.748971},{"id":2513600,"name":"shchedrovka","country":"ru","lat":49.500412,"lon":40.299728},{"id":2420316,"name":"khreshchatyy","country":"ru","lat":49.570556,"lon":40.204167},{"id":2367866,"name":"barsuki","country":"ru","lat":49.828889,"lon":40.277222},{"id":2393883,"name":"dukhovoye","country":"ru","lat":50.304511,"lon":39.948078},{"id":2471627,"name":"novaya pavlovka","country":"ru","lat":49.957133,"lon":39.693261},{"id":2548280,"name":"varlaamovskiy","country":"ru","lat":49.5375,"lon":40.163611},{"id":2427857,"name":"kopanki","country":"ru","lat":50.280235,"lon":39.512766},{"id":2521890,"name":"solontsy","country":"ru","lat":49.929642,"lon":39.714761},{"id":2572932,"name":"zorkiy","country":"ru","lat":49.973611,"lon":40.155},{"id":2535219,"name":"teplinka","country":"ru","lat":49.683056,"lon":40.4325},{"id":2490478,"name":"plotnitskiy","country":"ru","lat":50.321111,"lon":39.507778},{"id":2398855,"name":"gavrilovka","country":"ru","lat":50.430833,"lon":40.356944},{"id":2487565,"name":"pervyy shirokiy","country":"ru","lat":49.5525,"lon":40.209722},{"id":2369930,"name":"belogorye","country":"ru","lat":50.4904,"lon":40.0095},{"id":2366266,"name":"bakay","country":"ru","lat":49.530669,"lon":40.280095},{"id":2472765,"name":"novo-buylovka","country":"ru","lat":50.366944,"lon":40.242778},{"id":2392265,"name":"donskoy","country":"ru","lat":50.0886,"lon":40.1859},{"id":2492210,"name":"pogorelov","country":"ru","lat":50.444823,"lon":39.803496},{"id":2490634,"name":"pobedinskaya","country":"ru","lat":50.38096,"lon":39.698593},{"id":2872413,"name":"koleshchatovka","country":"ua","lat":49.582193,"lon":39.886213},{"id":2880502,"name":"nekhav","country":"ua","lat":49.533333,"lon":39.933333},{"id":2896885,"name":"verkhnyaya","country":"ua","lat":49.597222,"lon":40.101944},{"id":2398660,"name":"gartmashevka","country":"ru","lat":49.652995,"lon":40.071452},{"id":2432702,"name":"krasnodar","country":"ru","lat":49.8958,"lon":40.243757},{"id":2570560,"name":"zheldokov","country":"ru","lat":50.326389,"lon":40.010278},{"id":2409121,"name":"ivanchenkov","country":"ru","lat":50.24991,"lon":39.711906},{"id":2491140,"name":"podgornoye","country":"ru","lat":50.182586,"lon":39.522129},{"id":2467820,"name":"nikolskiy","country":"ru","lat":49.778056,"lon":40.2175},{"id":2370675,"name":"belyy kolodets","country":"ru","lat":49.98689,"lon":40.234736},{"id":2447237,"name":"lugovoye","country":"ru","lat":49.909167,"lon":40.365},{"id":2484956,"name":"pasekovo","country":"ru","lat":49.866265,"lon":39.726409},{"id":2472409,"name":"novo-aleksandrovka","country":"ru","lat":49.723056,"lon":40.361944},{"id":2567818,"name":"zaoserednyye sady","country":"ru","lat":50.4836,"lon":40.1287},{"id":2413355,"name":"karachun","country":"ru","lat":50.204167,"lon":39.802778},{"id":2519170,"name":"sknarovka","country":"ru","lat":49.823817,"lon":39.942217},{"id":2553349,"name":"vershiny","country":"ru","lat":50.220632,"lon":39.683409},{"id":2402545,"name":"gorokhovka","country":"ru","lat":50.1061,"lon":40.1801},{"id":2536778,"name":"titarev","country":"ru","lat":49.740569,"lon":40.152826},{"id":2437525,"name":"kuleshovka","country":"ru","lat":50.399167,"lon":39.632778},{"id":2359218,"name":"akhor","country":"ru","lat":49.893056,"lon":39.780278},{"id":2866940,"name":"geraskov","country":"ua","lat":49.607778,"lon":39.543889},{"id":2561579,"name":"yasinovatyy","country":"ru","lat":49.743333,"lon":39.617778},{"id":2507816,"name":"sanino","country":"ru","lat":50.3771,"lon":40.369},{"id":2861737,"name":"bolotnyy","country":"ua","lat":49.566667,"lon":40.133333},{"id":2420880,"name":"khutor kolesnikov","country":"ru","lat":49.618333,"lon":40.184722},{"id":2505073,"name":"russkoye buyvolovo","country":"ru","lat":50.3631,"lon":40.0687},{"id":2411481,"name":"kalinov","country":"ru","lat":49.805278,"lon":39.68},{"id":2386271,"name":"chernyshevka","country":"ru","lat":50.143782,"lon":39.53967},{"id":2434981,"name":"krinichnyy","country":"ru","lat":49.670205,"lon":40.334923},{"id":2424307,"name":"knyazhev","country":"ru","lat":50.4966,"lon":40.2139},{"id":2471494,"name":"novaya melnitsa","country":"ru","lat":50.089912,"lon":39.945072},{"id":2516930,"name":"shtanov","country":"ru","lat":50.4212,"lon":40.0243},{"id":2413011,"name":"kantemirovka","country":"ru","lat":49.708871,"lon":39.859222},{"id":2887004,"name":"prosyanoye","country":"ua","lat":49.592222,"lon":39.665556},{"id":2491630,"name":"podorozhnyy","country":"ru","lat":50.0147,"lon":40.0575},{"id":2434241,"name":"krasnyy pakhar","country":"ru","lat":50.151804,"lon":39.667364},{"id":2570814,"name":"zhelyayevka","country":"ru","lat":50.283333,"lon":40.216667},{"id":2434968,"name":"krinichnaya","country":"ru","lat":50.012749,"lon":39.84247},{"id":2511279,"name":"sergeyevka","country":"ru","lat":49.657906,"lon":40.216693},{"id":2894139,"name":"ternovoy","country":"ua","lat":49.606389,"lon":40.125556},{"id":2507995,"name":"saprina","country":"ru","lat":50.37751,"lon":39.885337},{"id":2528642,"name":"strelka","country":"ru","lat":49.537778,"lon":40.426111},{"id":2528187,"name":"stetsenkov","country":"ru","lat":49.961302,"lon":40.126691},{"id":2368291,"name":"basovka","country":"ru","lat":50.4353,"lon":40.0678},{"id":2556657,"name":"voroshikova","country":"ru","lat":50.039722,"lon":39.615278},{"id":2427902,"name":"kopenkina","country":"ru","lat":50.05192,"lon":39.553323},{"id":2500902,"name":"rassvet","country":"ru","lat":50.4904,"lon":40.2045},{"id":2865198,"name":"dobrova","country":"ua","lat":49.581677,"lon":40.109912},{"id":2494115,"name":"popasnoye","country":"ru","lat":49.680517,"lon":39.650905},{"id":2443650,"name":"leshchenkov","country":"ru","lat":49.959703,"lon":40.021943},{"id":2891659,"name":"solonivka","country":"ua","lat":49.594167,"lon":40.059167},{"id":2470093,"name":"nizhnyaya gnilusha","country":"ru","lat":50.2169,"lon":40.4863},{"id":2492191,"name":"pogorelovka","country":"ru","lat":49.664444,"lon":39.926944},{"id":2531884,"name":"sychev","country":"ru","lat":50.45,"lon":39.75},{"id":2562359,"name":"yegrafskiy","country":"ru","lat":50.322222,"lon":39.526111},{"id":2510478,"name":"semeyki","country":"ru","lat":50.332872,"lon":39.962016},{"id":2430410,"name":"kostyukhin","country":"ru","lat":50.2725,"lon":40.2255},{"id":2516938,"name":"shtepovka","country":"ru","lat":49.643671,"lon":40.256414},{"id":2456216,"name":"mavor-grekovskiy","country":"ru","lat":49.626111,"lon":40.203889},{"id":2393250,"name":"dubki","country":"ru","lat":49.978056,"lon":39.538889},{"id":2493676,"name":"polyanka","country":"ru","lat":50.1297,"lon":40.3718},{"id":2529416,"name":"sudyevka-nikolayevka","country":"ru","lat":50.356331,"lon":39.611146},{"id":2566922,"name":"zaikin","country":"ru","lat":49.728889,"lon":40.326944},{"id":2420794,"name":"khutor bugayev","country":"ru","lat":49.643206,"lon":39.752507},{"id":2900109,"name":"zalotarevka","country":"ua","lat":49.9,"lon":39.783333},{"id":2572992,"name":"zrub","country":"ru","lat":49.587222,"lon":40.334444},{"id":2501207,"name":"raynovskiy","country":"ru","lat":50.053492,"lon":39.662116},{"id":2415384,"name":"kasyanov","country":"ru","lat":49.741667,"lon":39.79},{"id":2572369,"name":"zlatopol","country":"ru","lat":49.876509,"lon":39.600246},{"id":2391197,"name":"dmitrovka","country":"ru","lat":49.741667,"lon":40.3},{"id":2383104,"name":"byk","country":"ru","lat":49.619322,"lon":40.028339},{"id":2390853,"name":"dikuny","country":"ru","lat":49.624722,"lon":40.178889},{"id":2516908,"name":"shramovka","country":"ru","lat":49.921945,"lon":39.574841},{"id":2411529,"name":"kalinovskiy","country":"ru","lat":49.748333,"lon":40.036111},{"id":2391989,"name":"dolzhik","country":"ru","lat":50.467155,"lon":39.810254},{"id":2431801,"name":"kramarevka","country":"ru","lat":49.759167,"lon":40.096667},{"id":2358535,"name":"afanasyevka","country":"ru","lat":49.645556,"lon":40.176944},{"id":2440230,"name":"kuyshir","country":"ru","lat":50.349167,"lon":40.005278},{"id":2439336,"name":"kursnyy","country":"ru","lat":50.348438,"lon":39.838396},{"id":2454010,"name":"mamonovka","country":"ru","lat":50.198889,"lon":40.488611},{"id":2450389,"name":"malaya kazinka","country":"ru","lat":50.391,"lon":40.2966},{"id":2467076,"name":"nikanorovka","country":"ru","lat":50.221682,"lon":39.796062},{"id":2442746,"name":"lebedinka","country":"ru","lat":49.654941,"lon":40.434747},{"id":2435949,"name":"krutonkiy","country":"ru","lat":49.774444,"lon":39.605556},{"id":2471674,"name":"novaya pokrovka","country":"ru","lat":49.767222,"lon":40.374167},{"id":2500038,"name":"radchenskoye","country":"ru","lat":49.804495,"lon":40.49043},{"id":2859795,"name":"aydar","country":"ua","lat":49.683333,"lon":39.5},{"id":2409360,"name":"ivanovka","country":"ru","lat":49.723332,"lon":40.320928},{"id":2388080,"name":"chumakovka","country":"ru","lat":49.764444,"lon":40.465278},{"id":2503197,"name":"romanovka","country":"ru","lat":50.366667,"lon":40.116667},{"id":2449695,"name":"makorta","country":"ru","lat":49.556389,"lon":40.358333},{"id":2541817,"name":"tverdokhlebova","country":"ru","lat":49.938333,"lon":40.349444},{"id":2423770,"name":"klubkovka","country":"ru","lat":49.702222,"lon":40.304444},{"id":2428404,"name":"korennoy","country":"ru","lat":50.396588,"lon":39.742204},{"id":2522928,"name":"sotnitskaya","country":"ru","lat":50.290833,"lon":39.613889},{"id":2491096,"name":"podgornaya","country":"ru","lat":50.414295,"lon":39.616395},{"id":2390282,"name":"deresovatka","country":"ru","lat":49.965568,"lon":39.954529},{"id":2491187,"name":"podgornyy","country":"ru","lat":50.1532,"lon":40.4376},{"id":2400511,"name":"golaya","country":"ru","lat":49.85,"lon":39.783333},{"id":2374816,"name":"bolshaya dmitrovka","country":"ru","lat":50.487836,"lon":39.647061},{"id":2524943,"name":"staraya grishevka","country":"ru","lat":50.442661,"lon":39.515601},{"id":2420811,"name":"khutor dmitrovskiy","country":"ru","lat":49.516389,"lon":40.148611},{"id":2521033,"name":"sofiyevka","country":"ru","lat":49.963448,"lon":39.6069},{"id":2460032,"name":"mitrofanovka","country":"ru","lat":49.970833,"lon":39.693889},{"id":2539829,"name":"tsarevka","country":"ru","lat":50.4076,"lon":40.3148},{"id":2480491,"name":"opyt","country":"ru","lat":50.435914,"lon":39.554092},{"id":2481030,"name":"orobinskiy","country":"ru","lat":50.0366,"lon":40.2292},{"id":2415381,"name":"kasyanovka","country":"ru","lat":49.74415,"lon":39.763244},{"id":2445862,"name":"lofitskoye","country":"ru","lat":49.900611,"lon":40.448387},{"id":2374018,"name":"bogonosovka","country":"ru","lat":50.110036,"lon":39.56876},{"id":2468556,"name":"nizhne-kiyevskoye","country":"ru","lat":50.263889,"lon":39.824722},{"id":2423639,"name":"klinovskiy","country":"ru","lat":49.549931,"lon":40.170927},{"id":2510495,"name":"semibratskiy","country":"ru","lat":50.2684,"lon":40.2559},{"id":2389095,"name":"danilovka","country":"ru","lat":49.774722,"lon":39.800278},{"id":2569307,"name":"zaytsevka","country":"ru","lat":49.694305,"lon":39.972592},{"id":2425486,"name":"kolesnikovka","country":"ru","lat":49.669672,"lon":40.117051},{"id":2486532,"name":"pereshchepnoy","country":"ru","lat":50.028504,"lon":39.562836},{"id":2387594,"name":"chmyr","country":"ru","lat":50.012222,"lon":39.545556},{"id":2503568,"name":"rossokhovatyy","country":"ru","lat":49.608889,"lon":39.972222},{"id":2411292,"name":"kalinin","country":"ru","lat":49.745833,"lon":39.984167},{"id":2518756,"name":"sirotovka","country":"ru","lat":50.431389,"lon":39.939167},{"id":2475361,"name":"novo-troitskiy","country":"ru","lat":50.065469,"lon":39.841409},{"id":2485559,"name":"pavlovskiy","country":"ru","lat":50.461944,"lon":40.417222},{"id":2410373,"name":"juravka","country":"ru","lat":49.796299,"lon":39.777554},{"id":2495607,"name":"posyukov","country":"ru","lat":49.813394,"lon":39.705341},{"id":2407168,"name":"ilyushevka","country":"ru","lat":50.08155,"lon":39.867663},{"id":2874253,"name":"krasnoye pole","country":"ua","lat":49.669444,"lon":39.516944},{"id":2445229,"name":"lipovyy","country":"ru","lat":49.586667,"lon":40.229167},{"id":2416393,"name":"kazinochka","country":"ru","lat":50.299,"lon":40.2542},{"id":2434128,"name":"krasnyy molot","country":"ru","lat":49.834167,"lon":39.655},{"id":2569870,"name":"zelenyy","country":"ru","lat":50.035,"lon":39.930278},{"id":2554546,"name":"visitskiy","country":"ru","lat":50.257826,"lon":39.573551},{"id":2386575,"name":"chervony gay","country":"ru","lat":49.634722,"lon":39.803889},{"id":2437655,"name":"kulikovka","country":"ru","lat":49.851766,"lon":39.518053},{"id":2555204,"name":"vodyanov","country":"ru","lat":50.275302,"lon":39.771369},{"id":2558584,"name":"vyazovyy","country":"ru","lat":50.483333,"lon":39.766667},{"id":2427394,"name":"konnyy luzhok","country":"ru","lat":50.230994,"lon":39.555832},{"id":2471330,"name":"novaya ivanovka","country":"ru","lat":49.98818,"lon":39.579886},{"id":2425365,"name":"kolbinsk","country":"ru","lat":50.104594,"lon":39.733734},{"id":2543250,"name":"ukrainets","country":"ru","lat":50.223404,"lon":39.7127},{"id":2374224,"name":"bogrovskiy","country":"ru","lat":49.548611,"lon":40.415},{"id":2553407,"name":"vervekovka","country":"ru","lat":49.921915,"lon":40.476161},{"id":2496479,"name":"preobrazhenka","country":"ru","lat":50.4146,"lon":40.2092},{"id":2387024,"name":"chikun","country":"ru","lat":49.586944,"lon":40.282778},{"id":2430836,"name":"kovalenkovskiy","country":"ru","lat":49.663611,"lon":40.1475},{"id":2559099,"name":"vysochanovka","country":"ru","lat":49.768056,"lon":39.648611},{"id":2390332,"name":"derevnya","country":"ru","lat":50.407778,"lon":40.330556},{"id":2503573,"name":"rossosch","country":"ru","lat":50.198277,"lon":39.567263},{"id":2562971,"name":"yelizavetovka","country":"ru","lat":50.4608,"lon":40.1954},{"id":2442818,"name":"lebyadinovka","country":"ru","lat":49.654722,"lon":40.488611},{"id":2543267,"name":"ukrainskaya buylovka","country":"ru","lat":50.4005,"lon":40.0458},{"id":2429038,"name":"korotovka","country":"ru","lat":49.748889,"lon":39.809167},{"id":2386561,"name":"chervonets","country":"ru","lat":49.763333,"lon":39.840556},{"id":2880861,"name":"nikolskoe","country":"ua","lat":49.52493,"lon":39.957083},{"id":2374234,"name":"bogucharka","country":"ru","lat":49.977778,"lon":40.401944},{"id":2422156,"name":"kirov","country":"ru","lat":50.306889,"lon":39.885042},{"id":2393352,"name":"dubovikovo","country":"ru","lat":50.015833,"lon":40.306111},{"id":2551858,"name":"verkhniy mamon","country":"ru","lat":50.1635,"lon":40.3832},{"id":2511567,"name":"serobabin","country":"ru","lat":49.9525,"lon":39.8025},{"id":2491005,"name":"poddubnovka","country":"ru","lat":50.051655,"lon":39.845591},{"id":2381293,"name":"buguchar","country":"ru","lat":49.9575,"lon":40.218889},{"id":2504351,"name":"rudayeva","country":"ru","lat":49.775313,"lon":40.108384},{"id":2472493,"name":"novo-alekseyevskoye","country":"ru","lat":50.084298,"lon":39.57994},{"id":2888255,"name":"rossokhovatyy","country":"ua","lat":49.546593,"lon":40.06151},{"id":2407560,"name":"imeni stalina","country":"ru","lat":50.065833,"lon":39.785556},{"id":2396366,"name":"fedorovka","country":"ru","lat":49.71034,"lon":40.142603},{"id":2461218,"name":"molot","country":"ru","lat":49.843889,"lon":39.691944},{"id":2520180,"name":"smagleyevka","country":"ru","lat":49.804406,"lon":39.888915},{"id":2431539,"name":"kozlov","country":"ru","lat":49.781111,"lon":40.307778},{"id":2388917,"name":"dalniy","country":"ru","lat":49.618889,"lon":39.9725},{"id":2494119,"name":"popasnyy","country":"ru","lat":49.594722,"lon":40.473889},{"id":2871521,"name":"khutor rudovo","country":"ua","lat":49.633611,"lon":39.571944},{"id":2389199,"name":"dantsevka","country":"ru","lat":49.900477,"lon":40.21849},{"id":2881040,"name":"nizhnyaya dubrova","country":"ua","lat":49.589444,"lon":40.0975},{"id":2419433,"name":"kholodnyy","country":"ru","lat":49.704722,"lon":39.701389},{"id":2423241,"name":"klenovyy","country":"ru","lat":49.575833,"lon":39.811944},{"id":2533084,"name":"tamilyanka","country":"ru","lat":49.640278,"lon":40.492778},{"id":2529269,"name":"subbotin","country":"ru","lat":50.208511,"lon":39.694022},{"id":2434686,"name":"krenichnyy","country":"ru","lat":49.67036,"lon":40.337273},{"id":2531589,"name":"svoboda","country":"ru","lat":50.0307,"lon":40.4458},{"id":2404484,"name":"grushevyy","country":"ru","lat":49.661944,"lon":40.189722},{"id":2471342,"name":"novaya kalitva","country":"ru","lat":50.078214,"lon":40.010233},{"id":2511099,"name":"sereda","country":"ru","lat":49.6025,"lon":40.306667},{"id":2426481,"name":"komarov","country":"ru","lat":50.051389,"lon":39.916667},{"id":2507550,"name":"samoylenkov","country":"ru","lat":50.372657,"lon":39.516709},{"id":2860170,"name":"barannikovka","country":"ua","lat":49.666667,"lon":39.833333},{"id":2554104,"name":"viktorovka","country":"ru","lat":49.694086,"lon":40.241839},{"id":2504993,"name":"russkiy","country":"ru","lat":50.416667,"lon":40.35},{"id":2898531,"name":"vysochinovka","country":"ua","lat":49.702688,"lon":39.552503},{"id":2524963,"name":"staraya kalitva","country":"ru","lat":50.13853,"lon":39.984494},{"id":2474160,"name":"novonikolskoye","country":"ru","lat":49.625305,"lon":40.385282},{"id":2507942,"name":"sapelovka","country":"ru","lat":50.1734,"lon":40.0978},{"id":2529415,"name":"sudyevka-ivanovka","country":"ru","lat":50.338333,"lon":39.622778},{"id":2489037,"name":"pidiono-talnovka","country":"ru","lat":50.265278,"lon":39.768056},{"id":2897036,"name":"veseloye","country":"ua","lat":49.513643,"lon":39.833376},{"id":2467465,"name":"nikolayevka","country":"ru","lat":50.280294,"lon":39.992182},{"id":2489528,"name":"pisarevka","country":"ru","lat":49.885447,"lon":40.185194},{"id":2390377,"name":"derezovka","country":"ru","lat":50.078611,"lon":40.306111},{"id":2561373,"name":"yartsevo","country":"ru","lat":50.3693,"lon":40.0191},{"id":2469596,"name":"nizhniy karabut","country":"ru","lat":50.266799,"lon":39.966163},{"id":2403926,"name":"grigoryevka","country":"ru","lat":50.027549,"lon":39.832829},{"id":2481530,"name":"osinovka vysokaya","country":"ru","lat":49.667185,"lon":40.272435},{"id":2524739,"name":"stanovoy","country":"ru","lat":50.340571,"lon":39.854015},{"id":2434475,"name":"krasnyy yar","country":"ru","lat":50.244722,"lon":40.375278},{"id":2474283,"name":"novopavlovka","country":"ru","lat":49.737342,"lon":40.00404},{"id":2559206,"name":"vysokiy","country":"ru","lat":49.976944,"lon":40.113333},{"id":2548773,"name":"vasilyevka","country":"ru","lat":49.936525,"lon":39.655047},{"id":2363745,"name":"arkhangelskoye","country":"ru","lat":50.295238,"lon":39.863947},{"id":2398909,"name":"gavrilskiye sady","country":"ru","lat":50.4317,"lon":40.1766},{"id":2403253,"name":"grakov","country":"ru","lat":50.011944,"lon":39.726789},{"id":2412364,"name":"kamensk","country":"ru","lat":50.4596,"lon":40.4174},{"id":2413126,"name":"kaplin","country":"ru","lat":49.795305,"lon":40.227566},{"id":2564490,"name":"yevdokiyevka","country":"ru","lat":49.967509,"lon":39.724792},{"id":2391704,"name":"dolgiy","country":"ru","lat":49.938611,"lon":40.178889},{"id":2425034,"name":"kokarevka","country":"ru","lat":50.258479,"lon":39.587257},{"id":2455143,"name":"mars","country":"ru","lat":50.362587,"lon":39.647415},{"id":2437380,"name":"kulakovka","country":"ru","lat":50.2284,"lon":40.0538},{"id":2407444,"name":"imeni lenina","country":"ru","lat":50.214444,"lon":39.6275},{"id":2454975,"name":"markovka","country":"ru","lat":49.707922,"lon":39.663388},{"id":2381054,"name":"budennyy","country":"ru","lat":50.403889,"lon":39.564722},{"id":2564607,"name":"yevstratovskiy","country":"ru","lat":50.128371,"lon":39.742338},{"id":2515054,"name":"shevchenko","country":"ru","lat":50.021974,"lon":39.742182},{"id":2367167,"name":"bani","country":"ru","lat":49.628889,"lon":40.163611},{"id":2362155,"name":"andryushevka","country":"ru","lat":49.684954,"lon":40.223244},{"id":2364798,"name":"atamanovskiy","country":"ru","lat":49.932222,"lon":39.9675},{"id":2362477,"name":"anna-rebrikovskaya","country":"ru","lat":49.612358,"lon":40.205445},{"id":2551273,"name":"verkhniy biryuchinskiy","country":"ru","lat":49.519722,"lon":40.167222},{"id":2407344,"name":"imeni kalinina","country":"ru","lat":50.054444,"lon":39.7525},{"id":2566768,"name":"zagorskiy","country":"ru","lat":50.483889,"lon":39.590833},{"id":2552356,"name":"verkhnyaya gnilusha","country":"ru","lat":50.2584,"lon":40.3738},{"id":2525170,"name":"staraya rossosh","country":"ru","lat":50.173333,"lon":39.609444},{"id":2878269,"name":"markivka","country":"ua","lat":49.522896,"lon":39.570548},{"id":2461812,"name":"morozovka","country":"ru","lat":50.141191,"lon":39.642134},{"id":2407563,"name":"imeni stalinskoy kontstitutsii","country":"ru","lat":50.477222,"lon":40.140556},{"id":2362588,"name":"annovka","country":"ru","lat":50.241444,"lon":39.800274},{"id":2548456,"name":"varvarovka","country":"ru","lat":49.73939,"lon":40.442681},{"id":2548693,"name":"vasilkov","country":"ru","lat":50.283333,"lon":39.783333},{"id":2871516,"name":"khutor rossokhovatyy","country":"ua","lat":49.543611,"lon":39.643333},{"id":2436105,"name":"krutyak","country":"ru","lat":49.574444,"lon":40.379444},{"id":2485585,"name":"pavlovsk","country":"ru","lat":50.457778,"lon":40.108056},{"id":2861354,"name":"blagodatnyy","country":"ua","lat":49.590271,"lon":40.058781},{"id":2558051,"name":"vtoroy shirokiy","country":"ru","lat":49.559167,"lon":40.176111},{"id":2471996,"name":"novaya yasinovka","country":"ru","lat":49.793611,"lon":39.517222},{"id":2400426,"name":"godyuchye","country":"ru","lat":50.05,"lon":40.45},{"id":2490134,"name":"plesnovka","country":"ru","lat":49.648889,"lon":40.493056},{"id":2430054,"name":"kosovka","country":"ru","lat":49.915556,"lon":39.898333},{"id":2398150,"name":"galdin-melovsnoy","country":"ru","lat":49.506355,"lon":40.079608},{"id":2894922,"name":"tserkovnyy","country":"ua","lat":49.561667,"lon":40.098889},{"id":2420845,"name":"khutor kadamov","country":"ru","lat":49.524789,"lon":40.349642},{"id":2446579,"name":"loshchina","country":"ru","lat":49.64,"lon":40.145},{"id":2415398,"name":"kasyan-poselok","country":"ru","lat":49.746111,"lon":39.753333},{"id":2397221,"name":"filonovo","country":"ru","lat":50.0417,"lon":40.4943},{"id":2458413,"name":"mikhailovka","country":"ru","lat":49.890322,"lon":39.636814},{"id":2406657,"name":"ilich","country":"ru","lat":49.996389,"lon":39.636111},{"id":2521596,"name":"solenyy","country":"ru","lat":49.939722,"lon":40.056389},{"id":2422236,"name":"kirpichi","country":"ru","lat":50.476944,"lon":40.023056},{"id":2530088,"name":"sulimovka","country":"ru","lat":49.709444,"lon":40.276667},{"id":2494293,"name":"popovka","country":"ru","lat":49.795833,"lon":40.182778},{"id":2442700,"name":"lebedev","country":"ru","lat":49.876294,"lon":39.733284},{"id":2434974,"name":"krinichnoye","country":"ru","lat":49.996389,"lon":39.849167},{"id":2420318,"name":"khreshchatyy","country":"ru","lat":49.618591,"lon":39.701033},{"id":2450860,"name":"malaya sudyevka","country":"ru","lat":50.384715,"lon":39.585662}]});