callback({"markets":[{"id":1208589,"name":"kondemie","country":"id","lat":-6.8,"lon":139.466667},{"id":1144202,"name":"baramai","country":"id","lat":-6.933333,"lon":139.133333},{"id":1187724,"name":"jaoemoeka","country":"id","lat":-7.416667,"lon":138.633333},{"id":1305562,"name":"waserai","country":"id","lat":-7.133333,"lon":139.15},{"id":1225540,"name":"mappi post","country":"id","lat":-7.116667,"lon":139.383333},{"id":1199846,"name":"kassoee","country":"id","lat":-7.0,"lon":139.216667},{"id":1268789,"name":"sarabih-anim","country":"id","lat":-6.733333,"lon":138.916667},{"id":1168769,"name":"dagimon","country":"id","lat":-6.75,"lon":139.383333},{"id":1303325,"name":"wab","country":"id","lat":-7.233333,"lon":139.333333},{"id":1144889,"name":"basigeh","country":"id","lat":-6.9,"lon":139.05},{"id":1223468,"name":"maki","country":"id","lat":-7.25,"lon":138.833333},{"id":1133074,"name":"aineramu","country":"id","lat":-6.733333,"lon":139.4},{"id":1307353,"name":"winie","country":"id","lat":-6.9,"lon":139.416667},{"id":1222663,"name":"mabee","country":"id","lat":-7.166667,"lon":139.0},{"id":1204716,"name":"kepi","country":"id","lat":-6.533333,"lon":139.316667},{"id":1307163,"name":"wiamon","country":"id","lat":-6.9,"lon":139.3},{"id":1147150,"name":"beiji","country":"id","lat":-7.233333,"lon":139.183333},{"id":1207871,"name":"koenneebi","country":"id","lat":-7.016667,"lon":139.466667},{"id":1150065,"name":"biroh","country":"id","lat":-7.266667,"lon":139.466667},{"id":1168815,"name":"dah","country":"id","lat":-7.4,"lon":138.983333},{"id":1302968,"name":"ura","country":"id","lat":-6.75,"lon":139.483333},{"id":1278731,"name":"soeam","country":"id","lat":-7.4,"lon":138.666667},{"id":1233865,"name":"nangkunde","country":"id","lat":-7.233333,"lon":139.316667},{"id":1197082,"name":"kapo","country":"id","lat":-7.033333,"lon":139.383333},{"id":1132445,"name":"abube","country":"id","lat":-6.716667,"lon":139.4},{"id":1185030,"name":"heitske","country":"id","lat":-7.133333,"lon":138.8},{"id":1186067,"name":"ilmek","country":"id","lat":-7.366667,"lon":138.983333},{"id":1239385,"name":"orejabo","country":"id","lat":-7.016667,"lon":139.266667},{"id":1237573,"name":"noeweh","country":"id","lat":-7.2,"lon":139.133333},{"id":1185972,"name":"iesemer","country":"id","lat":-6.8,"lon":139.4},{"id":1279512,"name":"solengka","country":"id","lat":-7.183333,"lon":139.0},{"id":1232739,"name":"nabajomme","country":"id","lat":-6.916667,"lon":139.216667},{"id":1289614,"name":"taroea-anim","country":"id","lat":-6.583333,"lon":138.65},{"id":1265765,"name":"sabariba","country":"id","lat":-7.0,"lon":139.233333},{"id":1268790,"name":"sarabih","country":"id","lat":-6.666667,"lon":138.916667},{"id":1298198,"name":"toba","country":"id","lat":-6.583333,"lon":139.35},{"id":1134286,"name":"ambeba","country":"id","lat":-7.483333,"lon":138.516667},{"id":1273165,"name":"serayam","country":"id","lat":-6.966667,"lon":139.183333},{"id":1208921,"name":"koro anim","country":"id","lat":-6.533333,"lon":139.416667},{"id":1208962,"name":"koromboeak","country":"id","lat":-7.083333,"lon":139.366667},{"id":1207626,"name":"koboeneboeo","country":"id","lat":-6.7,"lon":139.366667}]});