callback({"markets":[{"id":2976529,"name":"grovespring","country":"us","lat":37.3997222,"lon":-92.6094444},{"id":2977548,"name":"new grove","country":"us","lat":37.2447222,"lon":-92.6633333},{"id":2976361,"name":"garber","country":"us","lat":36.6916667,"lon":-93.2988889},{"id":2975245,"name":"bassville","country":"us","lat":37.3444444,"lon":-93.1322222},{"id":2975513,"name":"bumgarden ford","country":"us","lat":37.2683333,"lon":-92.9786111},{"id":2976729,"name":"holman","country":"us","lat":37.2730556,"lon":-93.0530556},{"id":2978056,"name":"ridgedale","country":"us","lat":36.5038889,"lon":-93.2236111},{"id":2977637,"name":"oak grove heights","country":"us","lat":37.1738889,"lon":-93.1183333},{"id":2975979,"name":"depew","country":"us","lat":37.0225,"lon":-92.8627778},{"id":2978547,"name":"terrell","country":"us","lat":37.0827778,"lon":-93.4188889},{"id":2978284,"name":"shady grove","country":"us","lat":36.9747222,"lon":-93.1355556},{"id":2977269,"name":"marvel cave","country":"us","lat":36.6997222,"lon":-93.3366667},{"id":2976649,"name":"henderson","country":"us","lat":37.1411111,"lon":-93.0597222},{"id":2976942,"name":"kimberling city","country":"us","lat":36.6333333,"lon":-93.4166667},{"id":2977886,"name":"pleasant hope","country":"us","lat":37.4630556,"lon":-93.2725},{"id":2978582,"name":"tin town","country":"us","lat":37.4538889,"lon":-93.1930556},{"id":2976198,"name":"expansion","country":"us","lat":37.135,"lon":-93.1986111},{"id":2975670,"name":"chadwick","country":"us","lat":36.93,"lon":-93.0566667},{"id":2977594,"name":"nixa","country":"us","lat":37.0433333,"lon":-93.2941667},{"id":2976292,"name":"forsyth","country":"us","lat":36.685,"lon":-93.1197222},{"id":2978404,"name":"springfield","country":"us","lat":37.2152778,"lon":-93.2980556},{"id":2977661,"name":"odin","country":"us","lat":37.2683333,"lon":-92.6183333},{"id":2976611,"name":"haseltine","country":"us","lat":37.2094444,"lon":-93.3858333},{"id":2976682,"name":"high prairie","country":"us","lat":37.2952778,"lon":-92.765},{"id":2975549,"name":"caddo","country":"us","lat":37.3419444,"lon":-93.0469444},{"id":2975430,"name":"branson west","country":"us","lat":36.6969444,"lon":-93.3691667},{"id":2978533,"name":"tauria","country":"us","lat":36.8058333,"lon":-93.3458333},{"id":2978882,"name":"witty","country":"us","lat":36.8558333,"lon":-92.8936111},{"id":2977930,"name":"powersite","country":"us","lat":36.6555556,"lon":-93.1211111},{"id":2976498,"name":"green mound ridge","country":"us","lat":36.8922222,"lon":-93.2505556},{"id":2978071,"name":"ritter","country":"us","lat":37.2636111,"lon":-93.3836111},{"id":2978687,"name":"velsor","country":"us","lat":37.0202778,"lon":-93.0355556},{"id":2978499,"name":"swan","country":"us","lat":36.7952778,"lon":-93.0625},{"id":2977658,"name":"ocie","country":"us","lat":36.5586111,"lon":-92.7588889},{"id":2977595,"name":"noble","country":"us","lat":36.7475,"lon":-92.5697222},{"id":2977486,"name":"mount zion","country":"us","lat":37.0133333,"lon":-92.6608333},{"id":2977582,"name":"niangua","country":"us","lat":37.3872222,"lon":-92.8325},{"id":2978487,"name":"summit city","country":"us","lat":36.7391667,"lon":-92.6136111},{"id":2975088,"name":"alsup","country":"us","lat":37.3980556,"lon":-93.3052778},{"id":2976253,"name":"finley falls","country":"us","lat":37.1386111,"lon":-92.84},{"id":2975646,"name":"cedar gap","country":"us","lat":37.1055556,"lon":-92.6694444},{"id":2976569,"name":"hammond","country":"us","lat":36.6755556,"lon":-92.6441667},{"id":2978931,"name":"zenda","country":"us","lat":37.0175,"lon":-92.6936111},{"id":2977675,"name":"old merritt","country":"us","lat":36.8997222,"lon":-92.8872222},{"id":2977989,"name":"radical","country":"us","lat":36.6227778,"lon":-93.4188889},{"id":2977911,"name":"pontiac","country":"us","lat":36.5155556,"lon":-92.6036111},{"id":2978112,"name":"rogersville","country":"us","lat":37.1146,"lon":-93.0587},{"id":2977119,"name":"linden","country":"us","lat":37.0463889,"lon":-93.1338889},{"id":2978566,"name":"thorpe","country":"us","lat":37.4858333,"lon":-92.9980556},{"id":2977276,"name":"mascot","country":"us","lat":37.2627778,"lon":-93.2966667},{"id":2976820,"name":"indian point","country":"us","lat":36.6283333,"lon":-93.3436111},{"id":2976967,"name":"kissick","country":"us","lat":37.1077778,"lon":-93.2572222},{"id":2977166,"name":"longrun","country":"us","lat":36.6491667,"lon":-92.7230556},{"id":2976352,"name":"galena","country":"us","lat":36.8052778,"lon":-93.4663889},{"id":2977920,"name":"possum trot","country":"us","lat":36.9786111,"lon":-93.4288889},{"id":2975769,"name":"cody","country":"us","lat":37.1186111,"lon":-93.1191667},{"id":2976885,"name":"johnston ford","country":"us","lat":37.3605556,"lon":-92.7958333},{"id":2978845,"name":"willhoit","country":"us","lat":36.6833333,"lon":-92.5066667},{"id":2978100,"name":"rock prairie","country":"us","lat":37.4830556,"lon":-93.2025},{"id":2977508,"name":"nance","country":"us","lat":36.6108333,"lon":-92.8},{"id":2977812,"name":"pearl","country":"us","lat":37.3516667,"lon":-93.4863889},{"id":2978116,"name":"rome","country":"us","lat":36.8413889,"lon":-92.7733333},{"id":2978750,"name":"wasola","country":"us","lat":36.7936111,"lon":-92.5755556},{"id":2975879,"name":"cross way","country":"us","lat":37.3713889,"lon":-93.0555556},{"id":2977646,"name":"oakmont","country":"us","lat":36.5325,"lon":-93.2783333},{"id":2975037,"name":"abesville","country":"us","lat":36.8397222,"lon":-93.3705556},{"id":2977339,"name":"melva","country":"us","lat":36.5769444,"lon":-93.2119444},{"id":2976960,"name":"kirbyville","country":"us","lat":36.6230556,"lon":-93.1638889},{"id":2975297,"name":"bengal","country":"us","lat":36.9005556,"lon":-93.3097222},{"id":2978237,"name":"school","country":"us","lat":36.965,"lon":-93.4672222},{"id":2976663,"name":"hest","country":"us","lat":36.8958333,"lon":-92.6811111},{"id":2975998,"name":"dillia","country":"us","lat":36.6208333,"lon":-92.6091667},{"id":2977257,"name":"marmaros","country":"us","lat":36.6191667,"lon":-93.4538889},{"id":2975492,"name":"bryant","country":"us","lat":37.0388889,"lon":-92.6105556},{"id":2975798,"name":"conklin","country":"us","lat":37.3852778,"lon":-93.0188889},{"id":2978736,"name":"walnut shade","country":"us","lat":36.7325,"lon":-93.1933333},{"id":2977857,"name":"pine ridge","country":"us","lat":36.8372222,"lon":-93.1130556},{"id":2977172,"name":"loring","country":"us","lat":37.3447222,"lon":-92.5744444},{"id":2978779,"name":"west bend","country":"us","lat":37.4575,"lon":-93.4608333},{"id":2978576,"name":"tigris","country":"us","lat":37.0227778,"lon":-92.7711111},{"id":2978471,"name":"stutts","country":"us","lat":36.7652778,"lon":-93.3472222},{"id":2977374,"name":"mildred","country":"us","lat":36.6369444,"lon":-93.0991667},{"id":2975744,"name":"clever","country":"us","lat":37.0302778,"lon":-93.4727778},{"id":2975422,"name":"bradleyville","country":"us","lat":36.7836111,"lon":-92.9080556},{"id":2978018,"name":"red top","country":"us","lat":37.2997222,"lon":-93.0102778},{"id":2975637,"name":"cave spring","country":"us","lat":37.3513889,"lon":-93.4633333},{"id":2978225,"name":"saunders","country":"us","lat":36.8722222,"lon":-93.1058333},{"id":2977237,"name":"mansfield","country":"us","lat":37.1066667,"lon":-92.5805556},{"id":2977050,"name":"larissa","country":"us","lat":36.9319444,"lon":-92.5763889},{"id":2976041,"name":"dugginsville","country":"us","lat":36.5097222,"lon":-92.6952778},{"id":2977460,"name":"morrisville","country":"us","lat":37.4811111,"lon":-93.4272222},{"id":2976118,"name":"elkland","country":"us","lat":37.4430556,"lon":-93.0308333},{"id":2977988,"name":"rader","country":"us","lat":37.4602778,"lon":-92.7188889},{"id":2978146,"name":"rueter","country":"us","lat":36.6083333,"lon":-92.8688889},{"id":2975981,"name":"dermott","country":"us","lat":37.3833333,"lon":-92.9372222},{"id":2977730,"name":"oto","country":"us","lat":36.8586111,"lon":-93.4547222},{"id":2978930,"name":"zenar","country":"us","lat":37.095,"lon":-92.9702778},{"id":2975936,"name":"day","country":"us","lat":36.8130556,"lon":-93.2436111},{"id":2978410,"name":"squires","country":"us","lat":36.8513889,"lon":-92.6247222},{"id":2977616,"name":"northview","country":"us","lat":37.2866667,"lon":-92.9963889},{"id":2978676,"name":"vance","country":"us","lat":37.4394444,"lon":-92.7797222},{"id":2976430,"name":"glidewell","country":"us","lat":37.3044444,"lon":-93.3269444},{"id":2977200,"name":"lutie","country":"us","lat":36.5872222,"lon":-92.6975},{"id":2977397,"name":"mincy","country":"us","lat":36.5641667,"lon":-93.11},{"id":2978525,"name":"taneyville","country":"us","lat":36.7413889,"lon":-93.0341667},{"id":2977760,"name":"palmetto","country":"us","lat":37.1422222,"lon":-93.0952778},{"id":2975429,"name":"branson","country":"us","lat":36.6436111,"lon":-93.2183333},{"id":2976686,"name":"highlandville","country":"us","lat":36.9327778,"lon":-93.2802778},{"id":2975242,"name":"basher","country":"us","lat":36.9966667,"lon":-92.6058333},{"id":2978129,"name":"roseville","country":"us","lat":37.2644444,"lon":-93.265},{"id":2978359,"name":"smittle","country":"us","lat":37.4191667,"lon":-92.5097222},{"id":2978141,"name":"roy","country":"us","lat":36.8902778,"lon":-92.8036111},{"id":2975420,"name":"bracken","country":"us","lat":37.3405556,"lon":-92.7861111},{"id":2978224,"name":"sarvis point","country":"us","lat":37.1052778,"lon":-92.8388889},{"id":2977745,"name":"ozark beach","country":"us","lat":36.6588889,"lon":-93.1386111},{"id":2977121,"name":"lindstrew ford","country":"us","lat":37.2652778,"lon":-92.9216667},{"id":2975877,"name":"cross roads","country":"us","lat":36.8502778,"lon":-92.8541667},{"id":2977626,"name":"notch","country":"us","lat":36.6761111,"lon":-93.3383333},{"id":2976441,"name":"goodhope","country":"us","lat":36.9088889,"lon":-92.8075},{"id":2978102,"name":"rockaway beach","country":"us","lat":36.6991667,"lon":-93.1597222},{"id":2976876,"name":"jerico","country":"us","lat":37.1747222,"lon":-92.6727778},{"id":2976521,"name":"griffin","country":"us","lat":37.0805556,"lon":-93.3780556},{"id":2976044,"name":"duncan","country":"us","lat":37.2816667,"lon":-92.6916667},{"id":2977764,"name":"panther valley","country":"us","lat":37.1888889,"lon":-93.0175},{"id":2975797,"name":"coney island","country":"us","lat":36.5930556,"lon":-93.3969444},{"id":2978503,"name":"sweden","country":"us","lat":36.8775,"lon":-92.5008333},{"id":2975192,"name":"ava","country":"us","lat":36.9519444,"lon":-92.6602778},{"id":2977308,"name":"mccracken","country":"us","lat":37.0175,"lon":-93.1577778},{"id":2977585,"name":"nichols","country":"us","lat":37.2177778,"lon":-93.3619444},{"id":2976794,"name":"hurley","country":"us","lat":36.9313889,"lon":-93.4988889},{"id":2976412,"name":"girdner","country":"us","lat":36.8538889,"lon":-92.5869444},{"id":2978855,"name":"wilsons creek","country":"us","lat":37.0975,"lon":-93.4038889},{"id":2976275,"name":"foil","country":"us","lat":36.7561111,"lon":-92.6352778},{"id":2977627,"name":"nottinghill","country":"us","lat":36.6683333,"lon":-92.5744444},{"id":2975454,"name":"brighton","country":"us","lat":37.4577778,"lon":-93.3477778},{"id":2976830,"name":"irma","country":"us","lat":36.7458333,"lon":-93.2811111},{"id":2978453,"name":"stoneridge","country":"us","lat":36.6666667,"lon":-93.4125},{"id":2975072,"name":"all","country":"us","lat":37.1805556,"lon":-93.0358333},{"id":2977181,"name":"low gap","country":"us","lat":36.8669444,"lon":-93.1047222},{"id":2975510,"name":"bull creek","country":"us","lat":36.715,"lon":-93.2033333},{"id":2975475,"name":"brownbranch","country":"us","lat":36.7944444,"lon":-92.8305556},{"id":2976544,"name":"hackney","country":"us","lat":37.345,"lon":-93.3952778},{"id":2978844,"name":"willard","country":"us","lat":37.305,"lon":-93.4283333},{"id":2977494,"name":"mumford","country":"us","lat":37.1877778,"lon":-93.2005556},{"id":2978330,"name":"silver dollar city","country":"us","lat":36.6677778,"lon":-93.3394444},{"id":2977684,"name":"oldfield","country":"us","lat":36.9783333,"lon":-93.04},{"id":2978497,"name":"susanna","country":"us","lat":37.3794444,"lon":-92.7302778},{"id":2975194,"name":"avalon park","country":"us","lat":37.3261111,"lon":-93.2625},{"id":2975597,"name":"carico","country":"us","lat":36.7944444,"lon":-93.4111111},{"id":2976325,"name":"fremont hills","country":"us","lat":37.065,"lon":-93.2486111},{"id":2978013,"name":"red bank","country":"us","lat":36.9383333,"lon":-92.8105556},{"id":2977689,"name":"olive","country":"us","lat":37.4591667,"lon":-93.1086111},{"id":2977671,"name":"olathia","country":"us","lat":37.0272222,"lon":-92.5194444},{"id":2976201,"name":"fair grove","country":"us","lat":37.3838889,"lon":-93.1511111},{"id":2975698,"name":"chestnutridge","country":"us","lat":36.8366667,"lon":-93.2516667},{"id":2977583,"name":"niangua junction","country":"us","lat":37.3966667,"lon":-92.8447222},{"id":2978114,"name":"romance","country":"us","lat":36.7169444,"lon":-92.5025},{"id":2977038,"name":"lampe","country":"us","lat":36.5636111,"lon":-93.4377778},{"id":2978628,"name":"turners","country":"us","lat":37.1808333,"lon":-93.1552778},{"id":2976053,"name":"durbin","country":"us","lat":37.3758333,"lon":-92.5013889},{"id":2978279,"name":"seymour","country":"us","lat":37.1463889,"lon":-92.7686111},{"id":2976094,"name":"edgewater beach","country":"us","lat":36.6613889,"lon":-93.1416667},{"id":2976849,"name":"jackson mill","country":"us","lat":36.8972222,"lon":-92.7733333},{"id":2975254,"name":"beach","country":"us","lat":37.4311111,"lon":-92.9588889},{"id":2978672,"name":"valley water mills","country":"us","lat":37.2658333,"lon":-93.2477778},{"id":2976683,"name":"high prarie","country":"us","lat":37.2938889,"lon":-92.7625},{"id":2976462,"name":"granada","country":"us","lat":37.0277778,"lon":-92.7363889},{"id":2975708,"name":"christian center","country":"us","lat":36.9408333,"lon":-93.1666667},{"id":2977045,"name":"langston","country":"us","lat":37.1811111,"lon":-93.2438889},{"id":2977598,"name":"nogo","country":"us","lat":37.2527778,"lon":-93.1652778},{"id":2977696,"name":"ongo","country":"us","lat":36.9905556,"lon":-92.8938889},{"id":2977910,"name":"pondfork","country":"us","lat":36.7,"lon":-92.7097222},{"id":2976355,"name":"galloway","country":"us","lat":37.1366667,"lon":-93.2377778},{"id":2976859,"name":"jamesville","country":"us","lat":36.96,"lon":-93.3708333},{"id":2975135,"name":"arden","country":"us","lat":36.9852778,"lon":-92.8044444},{"id":2978334,"name":"silverton","country":"us","lat":36.8172222,"lon":-92.5652778},{"id":2976291,"name":"forkners hill","country":"us","lat":37.4727778,"lon":-92.9088889},{"id":2975485,"name":"bruner","country":"us","lat":37.0147222,"lon":-92.9858333},{"id":2977144,"name":"locust","country":"us","lat":36.5636111,"lon":-92.5422222},{"id":2976965,"name":"kissee mills","country":"us","lat":36.6836111,"lon":-93.0497222},{"id":2977164,"name":"long beach","country":"us","lat":36.7072222,"lon":-93.1297222},{"id":2976726,"name":"hollister","country":"us","lat":36.6211111,"lon":-93.2152778},{"id":2975085,"name":"almartha","country":"us","lat":36.7641667,"lon":-92.5169444},{"id":2976082,"name":"ebenezer","country":"us","lat":37.3402778,"lon":-93.3069444},{"id":2976668,"name":"hickory barren","country":"us","lat":37.3477778,"lon":-93.2211111},{"id":2978489,"name":"sundown","country":"us","lat":36.5663889,"lon":-92.6366667},{"id":2976283,"name":"fordland","country":"us","lat":37.1575,"lon":-92.9405556},{"id":2975415,"name":"boyer","country":"us","lat":37.3161111,"lon":-92.5513889},{"id":2977488,"name":"mountain dale","country":"us","lat":37.1888889,"lon":-92.7538889},{"id":2978272,"name":"sequiota","country":"us","lat":37.1475,"lon":-93.2388889},{"id":2976737,"name":"homer","country":"us","lat":36.5208333,"lon":-93.3958333},{"id":2976520,"name":"gretna","country":"us","lat":36.6602778,"lon":-93.2677778},{"id":2976920,"name":"keltner","country":"us","lat":36.9688889,"lon":-92.9480556},{"id":2976144,"name":"elwood","country":"us","lat":37.2280556,"lon":-93.4311111},{"id":2978161,"name":"sacville","country":"us","lat":37.3938889,"lon":-93.4288889},{"id":2976011,"name":"dogwood","country":"us","lat":37.0377778,"lon":-92.8308333},{"id":2976115,"name":"elkhead","country":"us","lat":37.0136111,"lon":-92.9302778},{"id":2977352,"name":"merriam woods","country":"us","lat":36.7138889,"lon":-93.1616667},{"id":2975382,"name":"boaz","country":"us","lat":37.0186111,"lon":-93.4002778},{"id":2977306,"name":"mcclurg","country":"us","lat":36.7844444,"lon":-92.7747222},{"id":2978393,"name":"spokane","country":"us","lat":36.8680556,"lon":-93.2966667},{"id":2976534,"name":"guin","country":"us","lat":37.0872222,"lon":-93.3452778},{"id":2976656,"name":"hercules","country":"us","lat":36.7075,"lon":-92.8727778},{"id":2977262,"name":"marshfield","country":"us","lat":37.3386111,"lon":-92.9069444},{"id":2978265,"name":"selmore","country":"us","lat":36.9680556,"lon":-93.23},{"id":2976370,"name":"garrison","country":"us","lat":36.8388889,"lon":-93.0194444},{"id":2978074,"name":"riverdale","country":"us","lat":36.9952778,"lon":-93.2897222},{"id":2977031,"name":"lakeview","country":"us","lat":36.6966667,"lon":-93.3686111},{"id":2977687,"name":"olga","country":"us","lat":37.0886111,"lon":-92.9066667},{"id":2976444,"name":"goodnight","country":"us","lat":37.4458333,"lon":-93.2263889},{"id":2975621,"name":"cassidy","country":"us","lat":37.0675,"lon":-93.2461111},{"id":2976838,"name":"isabella","country":"us","lat":36.5808333,"lon":-92.6125},{"id":2977155,"name":"lon","country":"us","lat":37.1836111,"lon":-93.0591667},{"id":2978386,"name":"sparta","country":"us","lat":37.0011111,"lon":-93.0813889},{"id":2978555,"name":"thelma","country":"us","lat":36.7425,"lon":-93.3694444},{"id":2977353,"name":"merritt","country":"us","lat":36.8986111,"lon":-92.8691667},{"id":2977347,"name":"mentor","country":"us","lat":37.1061111,"lon":-93.1988889},{"id":2975993,"name":"dickens","country":"us","lat":36.7275,"lon":-93.0472222},{"id":2975250,"name":"battlefield","country":"us","lat":37.1155556,"lon":-93.37},{"id":2975848,"name":"cowan","country":"us","lat":37.0780556,"lon":-93.1727778},{"id":2978646,"name":"umpire","country":"us","lat":37.1797222,"lon":-92.6058333},{"id":2976633,"name":"heady","country":"us","lat":37.3852778,"lon":-93.3680556},{"id":2978556,"name":"theodosia","country":"us","lat":36.5827778,"lon":-92.6758333},{"id":2975885,"name":"crown","country":"us","lat":37.2644444,"lon":-92.9511111},{"id":2978460,"name":"strafford","country":"us","lat":37.2683333,"lon":-93.1169444},{"id":2975036,"name":"abadyl","country":"us","lat":37.0383333,"lon":-92.9469444},{"id":2975117,"name":"antrim","country":"us","lat":37.19,"lon":-92.6483333},{"id":2978035,"name":"republic","country":"us","lat":37.12,"lon":-93.48},{"id":2975653,"name":"cedarcreek","country":"us","lat":36.5788889,"lon":-92.9975},{"id":2977707,"name":"origanna","country":"us","lat":37.4783333,"lon":-92.5113889},{"id":2977907,"name":"ponce de leon","country":"us","lat":36.8933,"lon":-93.3723},{"id":2975468,"name":"brookline","country":"us","lat":37.1633333,"lon":-93.42},{"id":2978027,"name":"reeds spring","country":"us","lat":36.7497222,"lon":-93.3777778},{"id":2978076,"name":"riverpark","country":"us","lat":37.0977778,"lon":-93.2830556},{"id":2977744,"name":"ozark","country":"us","lat":37.0208333,"lon":-93.2058333},{"id":2977438,"name":"montague","country":"us","lat":36.9280556,"lon":-93.3277778},{"id":2975995,"name":"diggins","country":"us","lat":37.1725,"lon":-92.8541667},{"id":2978207,"name":"sampson","country":"us","lat":37.4416667,"lon":-92.8422222},{"id":2977818,"name":"pembina","country":"us","lat":37.0669444,"lon":-93.1216667},{"id":2978352,"name":"smallett","country":"us","lat":36.8486111,"lon":-92.7138889},{"id":2978564,"name":"thornfield","country":"us","lat":36.7086111,"lon":-92.6591667},{"id":2977958,"name":"protem","country":"us","lat":36.5288889,"lon":-92.8586111},{"id":2977814,"name":"pease","country":"us","lat":37.4947222,"lon":-92.6325},{"id":2975152,"name":"arno","country":"us","lat":36.9397222,"lon":-92.7469444},{"id":2976604,"name":"hartville","country":"us","lat":37.2508333,"lon":-92.5102778}]});