callback({"markets":[{"id":1790500,"name":"salara","country":"mg","lat":-22.5833333,"lon":43.2833333},{"id":1785951,"name":"fitsitika","country":"mg","lat":-22.9666667,"lon":43.4666667},{"id":1791771,"name":"tsifota","country":"mg","lat":-22.8166667,"lon":43.3666667},{"id":1791695,"name":"tsiandamba","country":"mg","lat":-22.6833333,"lon":43.3333333},{"id":1785897,"name":"fierenamasay","country":"mg","lat":-22.9166667,"lon":43.4166667},{"id":1788357,"name":"manombo atsimo","country":"mg","lat":-22.95,"lon":43.4666667},{"id":1778164,"name":"ampitsinjovandriaka","country":"mg","lat":-22.5,"lon":43.3333333}]});