callback({"markets":[{"id":1279997,"name":"sorebi","country":"id","lat":-2.15,"lon":137.3},{"id":1133256,"name":"aisau","country":"id","lat":-1.733333,"lon":136.716667},{"id":1278742,"name":"soebaroe","country":"id","lat":-2.05,"lon":137.4},{"id":1194829,"name":"kamar sano","country":"id","lat":-2.2,"lon":137.0},{"id":1232764,"name":"nabuai","country":"id","lat":-2.25,"lon":136.533333},{"id":1303319,"name":"wabo","country":"id","lat":-1.866667,"lon":136.6},{"id":1262140,"name":"randowaja","country":"id","lat":-1.866667,"lon":136.516667},{"id":1269306,"name":"sasora","country":"id","lat":-2.166667,"lon":137.166667},{"id":1305255,"name":"warponwar","country":"id","lat":-1.733333,"lon":136.566667},{"id":1272482,"name":"sendei","country":"id","lat":-1.866667,"lon":136.65},{"id":1148299,"name":"benoeki","country":"id","lat":-2.066667,"lon":137.4},{"id":1211980,"name":"kurunui","country":"id","lat":-1.816667,"lon":136.766667},{"id":1304971,"name":"wansema","country":"id","lat":-1.75,"lon":136.8},{"id":1308329,"name":"wonti","country":"id","lat":-2.283333,"lon":136.65},{"id":1173008,"name":"dombo","country":"id","lat":-1.883333,"lon":137.1},{"id":1265236,"name":"rori","country":"id","lat":-1.783333,"lon":136.866667},{"id":1207900,"name":"koeroedoe","country":"id","lat":-1.833333,"lon":137.033333},{"id":1224064,"name":"mamboei","country":"id","lat":-2.266667,"lon":136.516667},{"id":1242848,"name":"pamdai","country":"id","lat":-1.95,"lon":137.4},{"id":1277877,"name":"siromi","country":"id","lat":-2.3,"lon":137.0},{"id":1267344,"name":"samberbaba","country":"id","lat":-1.833333,"lon":136.7},{"id":1245861,"name":"paradoi","country":"id","lat":-2.216667,"lon":136.5},{"id":1307662,"name":"woinoei","country":"id","lat":-2.266667,"lon":136.55},{"id":1269629,"name":"sawai","country":"id","lat":-1.766667,"lon":137.25},{"id":1170632,"name":"demba","country":"id","lat":-2.266667,"lon":136.7},{"id":1245747,"name":"paparoe","country":"id","lat":-1.783333,"lon":136.85},{"id":1268128,"name":"sangenafa","country":"id","lat":-2.25,"lon":136.983333},{"id":1266310,"name":"sajeti","country":"id","lat":-2.283333,"lon":136.583333}]});