callback({"markets":[{"id":693954,"name":"mamey chico","country":"cu","lat":22.4833333,"lon":-83.5666667},{"id":694862,"name":"paso marin","country":"cu","lat":21.9572222,"lon":-84.0538889},{"id":694982,"name":"pica pica","country":"cu","lat":22.4391667,"lon":-83.9283333},{"id":692789,"name":"la manila","country":"cu","lat":22.25,"lon":-83.6833333},{"id":695027,"name":"pinar del rio","country":"cu","lat":22.4175,"lon":-83.6980556},{"id":697588,"name":"zarzal","country":"cu","lat":22.2166667,"lon":-84.0833333},{"id":692255,"name":"la cana","country":"cu","lat":22.2133333,"lon":-84.1097222},{"id":689889,"name":"coloradas","country":"cu","lat":22.4608333,"lon":-83.8816667},{"id":693241,"name":"las martinas","country":"cu","lat":21.9666667,"lon":-84.1461111},{"id":696865,"name":"siempre viva","country":"cu","lat":22.3166667,"lon":-83.65},{"id":689818,"name":"coloma","country":"cu","lat":22.2416667,"lon":-83.5761111},{"id":690642,"name":"el guayabo","country":"cu","lat":22.4166667,"lon":-83.7833333},{"id":689167,"name":"calientes","country":"cu","lat":22.4166667,"lon":-83.9333333},{"id":695036,"name":"pino gordo","country":"cu","lat":22.3227778,"lon":-84.3275},{"id":691997,"name":"jocuma","country":"cu","lat":22.4,"lon":-83.6},{"id":695847,"name":"rosario","country":"cu","lat":22.3666667,"lon":-83.65},{"id":694454,"name":"mulo","country":"cu","lat":22.4563889,"lon":-83.8594444},{"id":692602,"name":"laguna santa lucia","country":"cu","lat":22.1791667,"lon":-84.3127778},{"id":695429,"name":"punta la sierra","country":"cu","lat":22.3141667,"lon":-83.9977778},{"id":694377,"name":"monte alegre","country":"cu","lat":22.4666667,"lon":-83.6166667},{"id":695766,"name":"rio feo","country":"cu","lat":22.3513889,"lon":-83.7552778},{"id":692123,"name":"junta numero 2","country":"cu","lat":22.3,"lon":-83.7833333},{"id":697264,"name":"valle san juan","country":"cu","lat":21.9352778,"lon":-84.3497222},{"id":695346,"name":"pueblo nuevo","country":"cu","lat":22.4619444,"lon":-84.2144444},{"id":688968,"name":"boroallo","country":"cu","lat":22.4,"lon":-83.9666667},{"id":694973,"name":"pesquero","country":"cu","lat":22.3822222,"lon":-84.0272222},{"id":693355,"name":"las verbenas","country":"cu","lat":22.2166667,"lon":-83.8833333},{"id":696311,"name":"san laureano","country":"cu","lat":22.4166667,"lon":-83.95},{"id":691479,"name":"guajani","country":"cu","lat":22.4833333,"lon":-83.7166667},{"id":690915,"name":"el rancho","country":"cu","lat":22.4,"lon":-83.7833333},{"id":690467,"name":"el cayo","country":"cu","lat":22.2297222,"lon":-83.7744444},{"id":690734,"name":"el mamey","country":"cu","lat":21.9830556,"lon":-84.1819444},{"id":691262,"name":"finca la majagua","country":"cu","lat":22.3669444,"lon":-83.9580556},{"id":691671,"name":"hacienda oliva","country":"cu","lat":22.4166667,"lon":-84.2666667},{"id":692859,"name":"la nelsa","country":"cu","lat":22.2816667,"lon":-83.6811111},{"id":692644,"name":"la jagua","country":"cu","lat":22.1,"lon":-84.0833333},{"id":696332,"name":"san luis","country":"cu","lat":22.2786111,"lon":-83.7611111},{"id":695324,"name":"progreso","country":"cu","lat":22.3833333,"lon":-83.5333333},{"id":688591,"name":"babineyes","country":"cu","lat":21.9666667,"lon":-84.0166667},{"id":694762,"name":"palo blanco","country":"cu","lat":22.4833333,"lon":-83.8833333},{"id":690928,"name":"el resolladero","country":"cu","lat":22.4333333,"lon":-83.9333333},{"id":691345,"name":"galafre viejo","country":"cu","lat":22.2055556,"lon":-83.8752778},{"id":692069,"name":"juan gomez","country":"cu","lat":22.2,"lon":-84.1666667},{"id":695419,"name":"punta de la sierra","country":"cu","lat":22.3127778,"lon":-83.9991667},{"id":694726,"name":"palmarito","country":"cu","lat":21.9577778,"lon":-84.1113889},{"id":691314,"name":"fraile","country":"cu","lat":21.9833333,"lon":-84.4333333},{"id":696597,"name":"santa isabel 2","country":"cu","lat":22.4166667,"lon":-83.5166667},{"id":691757,"name":"hondones","country":"cu","lat":22.3175,"lon":-83.8033333},{"id":689607,"name":"central carmen","country":"cu","lat":22.2,"lon":-83.8833333},{"id":689433,"name":"casanova","country":"cu","lat":22.25,"lon":-83.7333333},{"id":693335,"name":"las tres marias","country":"cu","lat":22.35,"lon":-83.85},{"id":692558,"name":"la granada","country":"cu","lat":22.4666667,"lon":-83.5666667},{"id":688908,"name":"blanquizal","country":"cu","lat":22.4166667,"lon":-83.6166667},{"id":694634,"name":"oprimado","country":"cu","lat":22.3333333,"lon":-83.8},{"id":689330,"name":"caobillas","country":"cu","lat":22.2166667,"lon":-83.65},{"id":696617,"name":"santa juana","country":"cu","lat":22.3333333,"lon":-83.7},{"id":693140,"name":"las cumbres","country":"cu","lat":22.2333333,"lon":-83.9},{"id":692213,"name":"la bajada","country":"cu","lat":21.9216667,"lon":-84.4844444},{"id":691301,"name":"foello","country":"cu","lat":22.1469444,"lon":-84.0375},{"id":693485,"name":"la yana","country":"cu","lat":21.9583333,"lon":-84.0},{"id":695747,"name":"rincon hondo","country":"cu","lat":22.2666667,"lon":-83.65},{"id":690136,"name":"cueva del toro","country":"cu","lat":21.9552778,"lon":-84.1975},{"id":689901,"name":"competencia","country":"cu","lat":22.4,"lon":-83.55},{"id":690881,"name":"el porvenir","country":"cu","lat":22.35,"lon":-83.75},{"id":690350,"name":"el agis","country":"cu","lat":22.18,"lon":-84.2686111},{"id":692828,"name":"la mayolica","country":"cu","lat":22.45,"lon":-83.55},{"id":688398,"name":"aniceto","country":"cu","lat":22.3166667,"lon":-83.8333333},{"id":690462,"name":"el carril","country":"cu","lat":21.9833333,"lon":-84.1833333},{"id":696160,"name":"san francisco","country":"cu","lat":22.1363889,"lon":-84.05},{"id":694358,"name":"molina","country":"cu","lat":22.15,"lon":-84.0666667},{"id":692161,"name":"la aida","country":"cu","lat":22.25,"lon":-83.8},{"id":689229,"name":"campo alegre","country":"cu","lat":22.3666667,"lon":-83.7833333},{"id":694866,"name":"paso real de mendoza","country":"cu","lat":22.1627778,"lon":-84.0988889},{"id":695329,"name":"providencia","country":"cu","lat":22.2355556,"lon":-83.83},{"id":690745,"name":"el manaiu","country":"cu","lat":22.2166667,"lon":-83.75},{"id":697303,"name":"vega moron","country":"cu","lat":22.1333333,"lon":-84.0833333},{"id":692440,"name":"la eloisa","country":"cu","lat":22.25,"lon":-83.8333333},{"id":692531,"name":"la gallina","country":"cu","lat":22.1666667,"lon":-84.05},{"id":693667,"name":"los cocos","country":"cu","lat":22.2833333,"lon":-83.8166667},{"id":692746,"name":"la loma","country":"cu","lat":22.1761111,"lon":-84.1111111},{"id":691352,"name":"gallega","country":"cu","lat":22.45,"lon":-83.65},{"id":689445,"name":"caserio de playa vieja","country":"cu","lat":22.1666667,"lon":-83.9},{"id":692632,"name":"la inocencia","country":"cu","lat":22.1833333,"lon":-83.95},{"id":694363,"name":"moncada","country":"cu","lat":22.4833333,"lon":-83.8166667},{"id":697475,"name":"vista hermosa","country":"cu","lat":22.3769444,"lon":-83.7672222},{"id":692969,"name":"la primavera","country":"cu","lat":22.35,"lon":-83.7333333},{"id":690886,"name":"el potrero de los bueyes","country":"cu","lat":22.2261111,"lon":-83.6508333},{"id":689381,"name":"carinosa","country":"cu","lat":22.3166667,"lon":-83.6833333},{"id":693467,"name":"la virginia","country":"cu","lat":22.2666667,"lon":-83.7833333},{"id":688608,"name":"bagazar","country":"cu","lat":22.1833333,"lon":-84.1166667},{"id":695590,"name":"regalo","country":"cu","lat":22.25,"lon":-84.05},{"id":689494,"name":"catalina","country":"cu","lat":22.1,"lon":-84.0666667},{"id":690653,"name":"el hato","country":"cu","lat":22.1772222,"lon":-84.2083333},{"id":691379,"name":"gausas","country":"cu","lat":22.2333333,"lon":-84.05},{"id":689062,"name":"cabeza","country":"cu","lat":22.4763889,"lon":-83.8622222},{"id":692493,"name":"la fe","country":"cu","lat":22.0408333,"lon":-84.2705556},{"id":690522,"name":"el corojal","country":"cu","lat":22.3666667,"lon":-83.5},{"id":690140,"name":"cugo","country":"cu","lat":22.3666667,"lon":-83.7},{"id":690598,"name":"el encino","country":"cu","lat":22.3,"lon":-83.75},{"id":697305,"name":"vega nueva","country":"cu","lat":22.2530556,"lon":-83.7366667},{"id":689242,"name":"cana alta","country":"cu","lat":22.4166667,"lon":-83.7333333},{"id":692302,"name":"la casulidad","country":"cu","lat":22.4,"lon":-83.5333333},{"id":692596,"name":"laguna de santa maria","country":"cu","lat":22.3,"lon":-83.7166667},{"id":691023,"name":"el tomas","country":"cu","lat":22.4333333,"lon":-83.5333333},{"id":689172,"name":"calixto lopez","country":"cu","lat":22.3333333,"lon":-83.7833333},{"id":689231,"name":"campo alegre de las canas","country":"cu","lat":22.35,"lon":-83.7666667},{"id":690534,"name":"el corral","country":"cu","lat":22.2166667,"lon":-83.95},{"id":688755,"name":"batey la barrigona","country":"cu","lat":22.2130556,"lon":-83.7769444},{"id":692181,"name":"la andreita","country":"cu","lat":22.3488889,"lon":-83.7538889},{"id":693002,"name":"la redonda","country":"cu","lat":22.4666667,"lon":-83.5166667},{"id":694016,"name":"manguito","country":"cu","lat":22.2166667,"lon":-83.7166667},{"id":692184,"name":"la angelita","country":"cu","lat":22.3,"lon":-83.65},{"id":689772,"name":"coba rubia","country":"cu","lat":22.4333333,"lon":-83.6666667},{"id":691576,"name":"guatana","country":"cu","lat":22.3377778,"lon":-83.6602778},{"id":690767,"name":"el martillo","country":"cu","lat":22.1833333,"lon":-83.9166667},{"id":688220,"name":"aida","country":"cu","lat":22.3333333,"lon":-83.6833333},{"id":692541,"name":"la gloria","country":"cu","lat":22.4333333,"lon":-83.5666667},{"id":696679,"name":"santa nidia","country":"cu","lat":22.2833333,"lon":-83.7833333},{"id":689555,"name":"cayo piedra","country":"cu","lat":22.4833333,"lon":-83.6166667},{"id":691043,"name":"el valle","country":"cu","lat":22.1166667,"lon":-84.0666667},{"id":693033,"name":"la rosa","country":"cu","lat":22.4,"lon":-83.5833333},{"id":693662,"name":"los ciego","country":"cu","lat":22.3061111,"lon":-84.3663889},{"id":690375,"name":"el amparo","country":"cu","lat":22.2333333,"lon":-83.7166667},{"id":694106,"name":"maria antonia","country":"cu","lat":22.2683333,"lon":-83.8080556},{"id":691748,"name":"hogar del nino","country":"cu","lat":22.4425,"lon":-83.6844444},{"id":696478,"name":"sansuena","country":"cu","lat":22.1666667,"lon":-84.1166667},{"id":693499,"name":"lazaro","country":"cu","lat":22.4833333,"lon":-83.55},{"id":688275,"name":"almacigos","country":"cu","lat":22.3833333,"lon":-83.5},{"id":688936,"name":"boca galafre","country":"cu","lat":22.1833333,"lon":-83.9},{"id":691138,"name":"espanto suenos","country":"cu","lat":22.2666667,"lon":-83.6833333},{"id":691702,"name":"hato viejo","country":"cu","lat":22.1730556,"lon":-84.2388889},{"id":689602,"name":"ceniza","country":"cu","lat":22.4166667,"lon":-83.6666667},{"id":691730,"name":"hermanos saiz","country":"cu","lat":22.25,"lon":-83.7833333},{"id":691137,"name":"espanta suenos","country":"cu","lat":22.2833333,"lon":-83.6833333},{"id":688257,"name":"alexis","country":"cu","lat":22.3,"lon":-83.7666667},{"id":690726,"name":"el macio","country":"cu","lat":22.25,"lon":-83.75},{"id":694659,"name":"ovas","country":"cu","lat":22.4316667,"lon":-83.5941667},{"id":688584,"name":"babiney","country":"cu","lat":21.9733333,"lon":-84.0333333},{"id":693829,"name":"lucilla","country":"cu","lat":22.2,"lon":-84.3166667},{"id":690241,"name":"dimas","country":"cu","lat":22.4833333,"lon":-84.2333333},{"id":692649,"name":"la jarrata","country":"cu","lat":21.9722222,"lon":-84.2666667},{"id":692365,"name":"la conchita","country":"cu","lat":22.1666667,"lon":-83.9166667},{"id":691526,"name":"guane","country":"cu","lat":22.2025,"lon":-84.0875},{"id":689821,"name":"colon","country":"cu","lat":22.3166667,"lon":-83.5333333},{"id":690766,"name":"el maranon","country":"cu","lat":22.3666667,"lon":-83.75},{"id":688435,"name":"antun","country":"cu","lat":22.2716667,"lon":-84.26},{"id":697070,"name":"tejar","country":"cu","lat":22.45,"lon":-83.6166667},{"id":693731,"name":"los malcasados","country":"cu","lat":22.3166667,"lon":-84.3},{"id":688859,"name":"benito","country":"cu","lat":21.9647222,"lon":-84.1605556},{"id":695519,"name":"ramona","country":"cu","lat":22.1983333,"lon":-84.1941667},{"id":689073,"name":"cabrera","country":"cu","lat":22.3,"lon":-83.8},{"id":691468,"name":"guaicanano","country":"cu","lat":22.3166667,"lon":-83.7833333},{"id":690305,"name":"dos hermanos","country":"cu","lat":22.2166667,"lon":-83.8277778},{"id":692796,"name":"la maquina","country":"cu","lat":22.2958333,"lon":-83.7322222},{"id":691692,"name":"hato guane","country":"cu","lat":22.1863889,"lon":-84.2677778},{"id":697032,"name":"tairona","country":"cu","lat":22.35,"lon":-83.6666667},{"id":697224,"name":"tumbadero","country":"cu","lat":22.2719444,"lon":-84.0513889},{"id":696296,"name":"san juan","country":"cu","lat":22.1,"lon":-84.05},{"id":691253,"name":"finca del medio","country":"cu","lat":22.3833333,"lon":-83.95},{"id":690747,"name":"el mandadero","country":"cu","lat":22.2430556,"lon":-83.8461111},{"id":695411,"name":"punta de cartas","country":"cu","lat":22.17,"lon":-83.8291667},{"id":697576,"name":"zamacois","country":"cu","lat":22.3333333,"lon":-83.7333333},{"id":692571,"name":"la guardia","country":"cu","lat":22.25,"lon":-83.85},{"id":693089,"name":"las canas","country":"cu","lat":22.0833333,"lon":-84.05},{"id":696049,"name":"san antonio","country":"cu","lat":22.2461111,"lon":-83.7413889},{"id":696543,"name":"santa damiana","country":"cu","lat":22.3,"lon":-83.8166667},{"id":695338,"name":"puchata","country":"cu","lat":22.3666667,"lon":-83.7333333},{"id":696295,"name":"san juan","country":"cu","lat":22.1333333,"lon":-84.0666667},{"id":694995,"name":"piedra","country":"cu","lat":22.4333333,"lon":-83.7666667},{"id":696489,"name":"santa ana","country":"cu","lat":22.4294444,"lon":-84.2002778},{"id":688960,"name":"boquerones","country":"cu","lat":22.1166667,"lon":-84.1166667},{"id":695892,"name":"sabana lamar","country":"cu","lat":22.1597222,"lon":-83.9508333},{"id":692238,"name":"la caimana","country":"cu","lat":22.2283333,"lon":-83.7044444},{"id":696683,"name":"santa rita","country":"cu","lat":22.3191667,"lon":-84.0091667},{"id":693563,"name":"limon","country":"cu","lat":21.9680556,"lon":-84.0336111},{"id":692821,"name":"la matilde","country":"cu","lat":22.2833333,"lon":-83.75},{"id":690020,"name":"covadonga","country":"cu","lat":21.955,"lon":-84.0702778},{"id":689118,"name":"caimito","country":"cu","lat":22.3,"lon":-84.2833333},{"id":692266,"name":"la caoba","country":"cu","lat":22.35,"lon":-83.8166667},{"id":692162,"name":"la albertar","country":"cu","lat":22.3166667,"lon":-83.7666667},{"id":697426,"name":"villamil","country":"cu","lat":22.3166667,"lon":-83.8166667},{"id":697407,"name":"vigia","country":"cu","lat":22.3258333,"lon":-84.3438889},{"id":694549,"name":"nuestra senora del carmen","country":"cu","lat":22.2833333,"lon":-83.8666667},{"id":692901,"name":"la paloma","country":"cu","lat":22.2166667,"lon":-83.8},{"id":696081,"name":"san carlos","country":"cu","lat":22.4036111,"lon":-83.9336111},{"id":689388,"name":"carlota","country":"cu","lat":22.2238889,"lon":-83.8433333},{"id":692218,"name":"la bayoneta","country":"cu","lat":22.45,"lon":-83.5833333},{"id":696933,"name":"sobrantes de santa maria","country":"cu","lat":22.3166667,"lon":-83.7},{"id":691115,"name":"envidia","country":"cu","lat":22.4166667,"lon":-83.8},{"id":695342,"name":"pueblo la gloria","country":"cu","lat":22.3166667,"lon":-83.8},{"id":695368,"name":"puerta de golpe","country":"cu","lat":22.4527778,"lon":-83.5452778},{"id":693540,"name":"lima","country":"cu","lat":22.4166667,"lon":-83.6},{"id":694041,"name":"mantua","country":"cu","lat":22.2888889,"lon":-84.2844444},{"id":689754,"name":"ciudad sandino","country":"cu","lat":22.0794444,"lon":-84.2055556},{"id":695900,"name":"sabana","country":"cu","lat":22.3,"lon":-83.6666667},{"id":692308,"name":"la ceiba","country":"cu","lat":22.1666667,"lon":-83.95},{"id":692425,"name":"la dolores","country":"cu","lat":22.3333333,"lon":-83.75},{"id":694112,"name":"maria la gorda","country":"cu","lat":21.8166667,"lon":-84.4994444},{"id":697141,"name":"tongonina","country":"cu","lat":22.1644444,"lon":-84.2652778},{"id":692967,"name":"la pradera","country":"cu","lat":22.2833333,"lon":-83.8333333},{"id":692569,"name":"la guapa","country":"cu","lat":22.2833333,"lon":-83.65},{"id":697176,"name":"tres caminos","country":"cu","lat":22.25,"lon":-83.6666667},{"id":695086,"name":"playa de galafre","country":"cu","lat":22.1677778,"lon":-83.9763889},{"id":696798,"name":"san victor","country":"cu","lat":22.3047222,"lon":-83.7197222},{"id":696156,"name":"san francisco de los ensenados","country":"cu","lat":22.1944444,"lon":-84.3486111},{"id":696606,"name":"santa isabel","country":"cu","lat":22.2333333,"lon":-83.7666667},{"id":691660,"name":"hacienda camarones","country":"cu","lat":22.4066667,"lon":-84.2619444},{"id":692842,"name":"la montanesa","country":"cu","lat":22.2666667,"lon":-83.8333333},{"id":691747,"name":"hogar del anciano","country":"cu","lat":22.4402778,"lon":-83.695},{"id":694529,"name":"nino","country":"cu","lat":22.1666667,"lon":-84.1},{"id":696399,"name":"san nicolas","country":"cu","lat":22.3380556,"lon":-83.7872222},{"id":692696,"name":"la julia","country":"cu","lat":22.2,"lon":-83.9166667},{"id":693122,"name":"las cruces de avalo","country":"cu","lat":22.1833333,"lon":-84.3166667},{"id":693777,"name":"los pinos","country":"cu","lat":22.2333333,"lon":-83.85},{"id":693409,"name":"la union","country":"cu","lat":22.2833333,"lon":-83.7333333},{"id":694906,"name":"pedroso","country":"cu","lat":22.2916667,"lon":-83.8241667},{"id":693286,"name":"la soledad","country":"cu","lat":22.3144444,"lon":-83.6877778},{"id":690393,"name":"el barro","country":"cu","lat":22.1,"lon":-84.1166667},{"id":692820,"name":"la mati de barbacoas","country":"cu","lat":22.3166667,"lon":-83.7333333},{"id":690439,"name":"el cangre","country":"cu","lat":22.4430556,"lon":-83.7688889},{"id":691353,"name":"galope","country":"cu","lat":22.2166667,"lon":-83.8666667},{"id":695787,"name":"rio verde","country":"cu","lat":22.1,"lon":-84.2},{"id":690656,"name":"el hondon","country":"cu","lat":22.1,"lon":-84.0},{"id":693114,"name":"las clavellinas","country":"cu","lat":22.2394444,"lon":-84.3655556},{"id":697413,"name":"viguetal","country":"cu","lat":22.1,"lon":-84.1},{"id":696635,"name":"santa lutgarda","country":"cu","lat":22.4,"lon":-83.9833333},{"id":691092,"name":"encina","country":"cu","lat":22.4166667,"lon":-83.5333333},{"id":693377,"name":"la teneria","country":"cu","lat":22.1833333,"lon":-84.2166667},{"id":695241,"name":"portilla","country":"cu","lat":22.1833333,"lon":-83.9333333},{"id":693085,"name":"las calabacillas","country":"cu","lat":22.2144444,"lon":-83.89},{"id":692658,"name":"la jaula","country":"cu","lat":21.96,"lon":-84.415},{"id":689996,"name":"corralito","country":"cu","lat":22.2333333,"lon":-83.95},{"id":694463,"name":"naranjal","country":"cu","lat":22.1833333,"lon":-84.1333333},{"id":695322,"name":"progreso","country":"cu","lat":22.3,"lon":-84.0166667},{"id":691060,"name":"el yale","country":"cu","lat":22.31,"lon":-83.7519444},{"id":694252,"name":"melones","country":"cu","lat":22.2833333,"lon":-83.85},{"id":692904,"name":"la panchita","country":"cu","lat":22.3,"lon":-83.7333333},{"id":696652,"name":"santa maria","country":"cu","lat":22.2522222,"lon":-83.7791667},{"id":695360,"name":"puente de cabezas","country":"cu","lat":22.4738889,"lon":-83.8661111},{"id":693143,"name":"las delicias","country":"cu","lat":22.2333333,"lon":-83.7833333},{"id":694675,"name":"padron","country":"cu","lat":22.2666667,"lon":-83.8},{"id":691018,"name":"el tejar","country":"cu","lat":22.2786111,"lon":-83.7352778},{"id":689742,"name":"ciudad bolivar","country":"cu","lat":22.1288889,"lon":-84.2627778},{"id":693124,"name":"las cruces","country":"cu","lat":22.2163889,"lon":-84.1397222},{"id":692579,"name":"la guira","country":"cu","lat":21.9716667,"lon":-84.1744444},{"id":690957,"name":"el sabalo","country":"cu","lat":22.1752778,"lon":-83.9705556},{"id":691263,"name":"finca majagua","country":"cu","lat":22.0166667,"lon":-84.0166667},{"id":691614,"name":"guillen","country":"cu","lat":22.1736111,"lon":-83.8994444},{"id":693459,"name":"la vieja","country":"cu","lat":22.2361111,"lon":-84.0305556},{"id":696305,"name":"san juan y martinez","country":"cu","lat":22.2802778,"lon":-83.8383333},{"id":690636,"name":"el guasimal","country":"cu","lat":22.2666667,"lon":-83.85},{"id":690252,"name":"dolores","country":"cu","lat":22.4333333,"lon":-83.65},{"id":689916,"name":"confederacion","country":"cu","lat":22.0847222,"lon":-83.9969444},{"id":689345,"name":"capo","country":"cu","lat":22.4022222,"lon":-83.6872222},{"id":697068,"name":"teheran","country":"cu","lat":22.2922222,"lon":-83.7769444},{"id":694794,"name":"pancho perez","country":"cu","lat":22.2666667,"lon":-83.8166667},{"id":690334,"name":"echevarria","country":"cu","lat":22.45,"lon":-83.5333333},{"id":693729,"name":"los machos","country":"cu","lat":21.9666667,"lon":-84.2666667},{"id":691631,"name":"guira","country":"cu","lat":22.2166667,"lon":-83.8333333},{"id":688225,"name":"ajiconal","country":"cu","lat":22.4666667,"lon":-83.6},{"id":693112,"name":"las chuchillas de milian","country":"cu","lat":22.3166667,"lon":-83.7166667},{"id":697263,"name":"valle isabel maria","country":"cu","lat":22.4755556,"lon":-83.8052778},{"id":694083,"name":"marcos vazquez","country":"cu","lat":22.4,"lon":-83.5666667},{"id":694716,"name":"palmarejo","country":"cu","lat":22.0833333,"lon":-84.1166667},{"id":690071,"name":"cuajani","country":"cu","lat":22.1666667,"lon":-84.2833333},{"id":690875,"name":"el pitirre","country":"cu","lat":22.3483333,"lon":-83.7886111},{"id":693407,"name":"la tuna","country":"cu","lat":22.3833333,"lon":-83.55},{"id":693247,"name":"las menudas","country":"cu","lat":22.255,"lon":-84.1736111},{"id":690885,"name":"el potrerito","country":"cu","lat":22.3333333,"lon":-83.8333333},{"id":695250,"name":"porvenir","country":"cu","lat":22.25,"lon":-83.8166667},{"id":693921,"name":"majagua","country":"cu","lat":22.35,"lon":-83.8},{"id":695056,"name":"pizarro","country":"cu","lat":22.3333333,"lon":-84.3333333},{"id":694857,"name":"paso las piedras","country":"cu","lat":22.1097222,"lon":-83.9916667},{"id":690525,"name":"el corojo","country":"cu","lat":22.25,"lon":-83.7666667},{"id":691794,"name":"humara","country":"cu","lat":22.35,"lon":-83.7},{"id":689535,"name":"cayo cristobal","country":"cu","lat":22.4936111,"lon":-83.5741667},{"id":696316,"name":"san lorenzo","country":"cu","lat":22.35,"lon":-83.5},{"id":688380,"name":"andresillo","country":"cu","lat":22.1166667,"lon":-84.2166667},{"id":692192,"name":"la antigua","country":"cu","lat":22.1666667,"lon":-84.0833333},{"id":690470,"name":"el cayuco","country":"cu","lat":21.9833333,"lon":-84.2180556},{"id":689578,"name":"ceiba","country":"cu","lat":22.4333333,"lon":-83.75},{"id":692262,"name":"la candita","country":"cu","lat":22.2333333,"lon":-83.8333333},{"id":692867,"name":"la nueva majagua","country":"cu","lat":22.3333333,"lon":-83.9666667},{"id":694770,"name":"palomar","country":"cu","lat":22.35,"lon":-83.65},{"id":688526,"name":"arroyos","country":"cu","lat":22.3455556,"lon":-84.3788889},{"id":695019,"name":"pinal ciego","country":"cu","lat":22.4666667,"lon":-84.25},{"id":692834,"name":"la metuca","country":"cu","lat":22.4833333,"lon":-83.5833333},{"id":694297,"name":"mezano","country":"cu","lat":22.4666667,"lon":-83.55},{"id":695285,"name":"pozo del caiman","country":"cu","lat":22.1691667,"lon":-83.9105556},{"id":696598,"name":"santa isabel de borrego","country":"cu","lat":22.3638889,"lon":-84.29},{"id":696709,"name":"santa rosa","country":"cu","lat":22.1827778,"lon":-84.1258333},{"id":695741,"name":"rincon de la ceiba","country":"cu","lat":22.3666667,"lon":-83.8166667},{"id":690006,"name":"cortes","country":"cu","lat":22.0433333,"lon":-83.9983333},{"id":692523,"name":"la furnia","country":"cu","lat":21.9152778,"lon":-84.0466667},{"id":697001,"name":"sumidero","country":"cu","lat":22.4491667,"lon":-83.9038889},{"id":695432,"name":"punta san juan","country":"cu","lat":22.4666667,"lon":-83.6333333},{"id":690389,"name":"el baga","country":"cu","lat":21.9713889,"lon":-84.1230556},{"id":690666,"name":"el ingles","country":"cu","lat":22.2547222,"lon":-83.6225},{"id":693396,"name":"la tranquilidad","country":"cu","lat":22.3166667,"lon":-83.85},{"id":697017,"name":"tabares","country":"cu","lat":22.2666667,"lon":-83.7666667},{"id":691067,"name":"el yayal","country":"cu","lat":22.25,"lon":-83.9666667},{"id":692258,"name":"la candelaria","country":"cu","lat":22.2833333,"lon":-83.6666667},{"id":692608,"name":"lagunillas","country":"cu","lat":22.3333333,"lon":-83.845},{"id":691824,"name":"irenes","country":"cu","lat":21.975,"lon":-84.2183333},{"id":697048,"name":"tarabico","country":"cu","lat":22.2833333,"lon":-83.8},{"id":691025,"name":"el toro","country":"cu","lat":22.4166667,"lon":-83.5833333},{"id":694362,"name":"molino de viento","country":"cu","lat":22.15,"lon":-83.9833333},{"id":688516,"name":"arroyo mamacas","country":"cu","lat":22.4833333,"lon":-83.5333333},{"id":693968,"name":"manacas","country":"cu","lat":22.2333333,"lon":-83.8833333},{"id":692852,"name":"la mulata","country":"cu","lat":22.3333333,"lon":-83.7666667},{"id":690508,"name":"el colmenar","country":"cu","lat":22.3166667,"lon":-84.0666667},{"id":693486,"name":"la yaya","country":"cu","lat":22.2666667,"lon":-83.8666667},{"id":694587,"name":"numero cuatro","country":"cu","lat":22.4833333,"lon":-83.6},{"id":696069,"name":"san benito","country":"cu","lat":22.2519444,"lon":-83.8197222},{"id":694693,"name":"palizadas","country":"cu","lat":22.2255556,"lon":-83.6647222},{"id":696423,"name":"san pedro","country":"cu","lat":22.2166667,"lon":-84.05},{"id":693357,"name":"las virgenes","country":"cu","lat":22.3936111,"lon":-83.9919444},{"id":691430,"name":"gramales","country":"cu","lat":22.4663889,"lon":-83.9572222},{"id":690929,"name":"el retiro","country":"cu","lat":22.15,"lon":-83.95},{"id":692247,"name":"la campana","country":"cu","lat":22.3377778,"lon":-83.7505556},{"id":688664,"name":"barbacoas","country":"cu","lat":22.3166667,"lon":-83.75},{"id":697435,"name":"villaverde","country":"cu","lat":22.1833333,"lon":-84.0833333},{"id":697081,"name":"tenaria","country":"cu","lat":22.2780556,"lon":-84.0233333},{"id":690501,"name":"el coco","country":"cu","lat":22.2833333,"lon":-83.7666667},{"id":694292,"name":"mestanza","country":"cu","lat":22.45,"lon":-83.7833333},{"id":696251,"name":"san jose","country":"cu","lat":22.1930556,"lon":-84.1522222},{"id":691943,"name":"jibaro","country":"cu","lat":22.25,"lon":-83.8666667},{"id":690834,"name":"el palmar","country":"cu","lat":22.2,"lon":-83.65},{"id":689532,"name":"cayo bonito","country":"cu","lat":22.2166667,"lon":-84.2}]});