callback({"markets":[{"id":2191591,"name":"haji khairo","country":"pk","lat":30.476432,"lon":66.696846},{"id":2201903,"name":"khajuri","country":"pk","lat":29.745353,"lon":67.327884},{"id":2240855,"name":"umerani kund","country":"pk","lat":29.566959,"lon":66.688774},{"id":2243661,"name":"ziarat rahat nika","country":"pk","lat":30.292778,"lon":66.972778},{"id":2242666,"name":"wuch murghi kota","country":"pk","lat":30.364167,"lon":66.999722},{"id":2181019,"name":"ghundak","country":"pk","lat":30.354167,"lon":67.135556},{"id":2211718,"name":"malik abdullah jan","country":"pk","lat":30.217222,"lon":66.980278},{"id":2204594,"name":"kili malik paind khan","country":"pk","lat":30.227776,"lon":66.984732},{"id":2152609,"name":"arbab kili","country":"pk","lat":30.344444,"lon":66.898333},{"id":2215211,"name":"mirdil","country":"pk","lat":30.087705,"lon":66.763209},{"id":2201386,"name":"kechi","country":"pk","lat":29.783335,"lon":67.012618},{"id":2198154,"name":"kachahri","country":"pk","lat":30.197657,"lon":67.011383},{"id":2243196,"name":"zakriyazai","country":"pk","lat":30.458942,"lon":66.518354},{"id":2173074,"name":"dasht levy post","country":"pk","lat":29.916667,"lon":67.1},{"id":2156791,"name":"barj aziz khan","country":"pk","lat":30.307324,"lon":66.596865},{"id":2225379,"name":"qasim","country":"pk","lat":30.411944,"lon":66.992778},{"id":2218205,"name":"musazai","country":"pk","lat":30.362294,"lon":66.510091},{"id":2204743,"name":"kili shadi khan","country":"pk","lat":30.221235,"lon":66.971838},{"id":2204813,"name":"killi gul mohammad","country":"pk","lat":30.242201,"lon":66.981979},{"id":2230476,"name":"sarang khan","country":"pk","lat":29.85547,"lon":67.054605},{"id":2156956,"name":"barozai","country":"pk","lat":30.221451,"lon":66.805253},{"id":2151527,"name":"ali sher kili","country":"pk","lat":30.023056,"lon":66.966111},{"id":2228842,"name":"said alam","country":"pk","lat":29.928841,"lon":66.741917},{"id":2233269,"name":"sharif muhmmad","country":"pk","lat":29.630556,"lon":66.702778},{"id":2235016,"name":"snaheza","country":"pk","lat":29.771623,"lon":66.83051},{"id":2235466,"name":"sori","country":"pk","lat":29.6778,"lon":67.3696},{"id":2214902,"name":"mihrabzai","country":"pk","lat":30.196822,"lon":66.791534},{"id":2204506,"name":"kili ismail","country":"pk","lat":30.215653,"lon":66.998723},{"id":2205283,"name":"kongarh","country":"pk","lat":29.783642,"lon":66.83829},{"id":2195760,"name":"jangi","country":"pk","lat":29.900228,"lon":66.971521},{"id":2204751,"name":"kili shaikhan","country":"pk","lat":30.178932,"lon":66.988813},{"id":2232249,"name":"shah nawaz kili","country":"pk","lat":29.807691,"lon":66.692329},{"id":2223033,"name":"patti bagh","country":"pk","lat":29.833975,"lon":66.823203},{"id":2228735,"name":"sahibzada","country":"pk","lat":30.267442,"lon":67.166944},{"id":2204109,"name":"khush","country":"pk","lat":29.921463,"lon":66.84964},{"id":2217382,"name":"muhammed hussaini kili","country":"pk","lat":29.934701,"lon":66.71418},{"id":2235889,"name":"suinai","country":"pk","lat":29.663889,"lon":66.716667},{"id":2241090,"name":"usman khan","country":"pk","lat":29.901504,"lon":66.967568},{"id":2220390,"name":"new baluch colony","country":"pk","lat":30.16092,"lon":67.015846},{"id":2229561,"name":"salih muhammad","country":"pk","lat":29.984973,"lon":67.053193},{"id":2198313,"name":"kadai kach","country":"pk","lat":30.450126,"lon":67.34134},{"id":2217346,"name":"muhammad wal","country":"pk","lat":29.774906,"lon":66.675038},{"id":2156681,"name":"barezai chingai","country":"pk","lat":30.493376,"lon":67.391066},{"id":2193656,"name":"hudda","country":"pk","lat":30.206423,"lon":66.990443},{"id":2206631,"name":"kot malik","country":"pk","lat":30.194375,"lon":66.992991},{"id":2228965,"name":"saifullah karez","country":"pk","lat":30.298,"lon":66.922225},{"id":2164017,"name":"chah-i-mast","country":"pk","lat":29.586933,"lon":66.568728},{"id":2236378,"name":"surab khan","country":"pk","lat":30.022039,"lon":67.122964},{"id":2204543,"name":"kili khuda abad","country":"pk","lat":30.18589,"lon":66.983718},{"id":2233719,"name":"sher khan kili","country":"pk","lat":29.867281,"lon":66.846195},{"id":2219463,"name":"narwari","country":"pk","lat":30.028109,"lon":67.358896},{"id":2216572,"name":"moza kili","country":"pk","lat":29.940161,"lon":66.749286},{"id":2169851,"name":"chaukal garjabad","country":"pk","lat":29.795066,"lon":66.819603},{"id":2222713,"name":"parsu","country":"pk","lat":29.886187,"lon":66.791054},{"id":2237776,"name":"tarin shahr","country":"pk","lat":30.252631,"lon":67.017034},{"id":2192851,"name":"hasani","country":"pk","lat":30.018759,"lon":66.955581},{"id":2230534,"name":"sarawat","country":"pk","lat":30.450798,"lon":67.120019},{"id":2208895,"name":"landai shahr","country":"pk","lat":29.894868,"lon":66.509616},{"id":2210174,"name":"luwar karez","country":"pk","lat":30.158874,"lon":66.992503},{"id":2225580,"name":"qila rahm gul","country":"pk","lat":30.275833,"lon":66.905556},{"id":2239709,"name":"tlerai","country":"pk","lat":30.480556,"lon":67.002778},{"id":2211630,"name":"malazai","country":"pk","lat":30.311263,"lon":66.930222},{"id":2214368,"name":"mehtar zai","country":"pk","lat":30.288889,"lon":66.893056},{"id":2227757,"name":"rodingi","country":"pk","lat":29.635851,"lon":66.613135},{"id":2234634,"name":"sikozai","country":"pk","lat":29.888662,"lon":66.967784},{"id":2233488,"name":"sheikh wasil","country":"pk","lat":29.895101,"lon":66.618452},{"id":2237865,"name":"tarkman","country":"pk","lat":29.85775,"lon":66.976069},{"id":2169498,"name":"chappar rift","country":"pk","lat":30.323174,"lon":67.493371},{"id":2194358,"name":"ishking","country":"pk","lat":29.80871,"lon":66.86327},{"id":2235481,"name":"soru","country":"pk","lat":29.926617,"lon":66.673335},{"id":2229810,"name":"sam khel","country":"pk","lat":30.341667,"lon":66.921944},{"id":2231903,"name":"shah beg goth","country":"pk","lat":29.97108,"lon":66.927585},{"id":2172563,"name":"daragh","country":"pk","lat":29.583487,"lon":66.737957},{"id":2217731,"name":"mumin","country":"pk","lat":30.471111,"lon":66.620278},{"id":2209277,"name":"lashkar khan kili","country":"pk","lat":30.009722,"lon":66.931667},{"id":2231296,"name":"sayed wal","country":"pk","lat":29.966667,"lon":66.75},{"id":2231331,"name":"seggi","country":"pk","lat":30.468333,"lon":66.511944},{"id":2220610,"name":"nilai","country":"pk","lat":30.43053,"lon":67.056856},{"id":2173069,"name":"dasht ambo","country":"pk","lat":29.703125,"lon":66.818448},{"id":2220383,"name":"newangaon","country":"pk","lat":30.236492,"lon":67.020914},{"id":2240740,"name":"umar dhor","country":"pk","lat":29.821935,"lon":66.987293},{"id":2225149,"name":"qadir khan lahri","country":"pk","lat":29.851292,"lon":66.860127},{"id":2203302,"name":"khilji colony","country":"pk","lat":30.140934,"lon":66.993164},{"id":2171469,"name":"college of medical technologies colony","country":"pk","lat":30.165681,"lon":66.99618},{"id":2236469,"name":"surizai","country":"pk","lat":30.128889,"lon":66.972222},{"id":2238085,"name":"tauq ali","country":"pk","lat":29.91584,"lon":67.057324},{"id":2176179,"name":"dilmurad","country":"pk","lat":29.975995,"lon":66.992058},{"id":2214423,"name":"memon abad","country":"pk","lat":30.140859,"lon":66.988268},{"id":2180885,"name":"ghulam nabi goth","country":"pk","lat":29.885357,"lon":67.094484},{"id":2232673,"name":"shailkhan kile","country":"pk","lat":30.442912,"lon":67.023213},{"id":2203968,"name":"khuni parao","country":"pk","lat":29.92219,"lon":67.089895},{"id":2190851,"name":"habib kalai","country":"pk","lat":30.20787,"lon":66.995063},{"id":2204384,"name":"kili betani","country":"pk","lat":29.924198,"lon":66.757733},{"id":2153480,"name":"azo kili","country":"pk","lat":30.214444,"lon":66.820556},{"id":2207866,"name":"kuzbagh","country":"pk","lat":30.168333,"lon":66.976111},{"id":2153478,"name":"az murgo","country":"pk","lat":30.303165,"lon":67.492106},{"id":2228017,"name":"rumbak","country":"pk","lat":29.600927,"lon":66.852685},{"id":2227504,"name":"reki buz","country":"pk","lat":29.611489,"lon":66.744854},{"id":2156405,"name":"baqi","country":"pk","lat":30.008861,"lon":66.755511},{"id":2154675,"name":"bahram shahi","country":"pk","lat":29.793992,"lon":66.855022},{"id":2153017,"name":"as tangi","country":"pk","lat":30.015911,"lon":67.348979},{"id":2229489,"name":"saleh muhammad kili","country":"pk","lat":29.805739,"lon":66.51088},{"id":2194073,"name":"imam bakhsh","country":"pk","lat":29.9695,"lon":67.0313},{"id":2242733,"name":"yakhao","country":"pk","lat":30.194029,"lon":66.984513},{"id":2235653,"name":"spinzalai","country":"pk","lat":30.332219,"lon":67.494368},{"id":2233653,"name":"sherdil","country":"pk","lat":29.980729,"lon":67.069641},{"id":2227647,"name":"rijah","country":"pk","lat":29.639672,"lon":66.709322},{"id":2240782,"name":"umar khan","country":"pk","lat":29.917617,"lon":67.015125},{"id":2235679,"name":"sra gurg","country":"pk","lat":30.283889,"lon":67.02},{"id":2221143,"name":"nur khan","country":"pk","lat":30.004255,"lon":67.091022},{"id":2225685,"name":"quetta cantonment","country":"pk","lat":30.213737,"lon":67.028889},{"id":2233049,"name":"shamozai","country":"pk","lat":30.114722,"lon":66.950833},{"id":2204739,"name":"kili shabu","country":"pk","lat":30.225699,"lon":66.990656},{"id":2151391,"name":"\u0027ali muhammad","country":"pk","lat":29.896938,"lon":66.866897},{"id":2202166,"name":"khanai","country":"pk","lat":30.496944,"lon":67.125556},{"id":2200379,"name":"karez-i-sultan","country":"pk","lat":29.855795,"lon":66.767206},{"id":2200892,"name":"kasi","country":"pk","lat":30.18721,"lon":67.01872},{"id":2153629,"name":"babri","country":"pk","lat":29.905928,"lon":66.709269},{"id":2214097,"name":"mazar khan","country":"pk","lat":29.921301,"lon":67.06829},{"id":2204557,"name":"kili kotwal","country":"pk","lat":30.235268,"lon":67.002708},{"id":2216013,"name":"mohammad shahi","country":"pk","lat":30.061667,"lon":66.745},{"id":2213805,"name":"mati tar","country":"pk","lat":29.832071,"lon":66.71085},{"id":2214919,"name":"milanda","country":"pk","lat":29.917434,"lon":66.95121},{"id":2180930,"name":"ghulam rasul kili","country":"pk","lat":30.001667,"lon":66.914444},{"id":2217106,"name":"muhammad kheli","country":"pk","lat":30.005556,"lon":66.572222},{"id":2195099,"name":"jalal khan dolia","country":"pk","lat":30.09,"lon":66.720556},{"id":2209503,"name":"les","country":"pk","lat":30.067186,"lon":67.266282},{"id":2153666,"name":"babu zai","country":"pk","lat":30.241953,"lon":66.823836},{"id":2235448,"name":"sorange","country":"pk","lat":30.170278,"lon":67.218611},{"id":2203810,"name":"khudi","country":"pk","lat":29.591106,"lon":66.842221},{"id":2213435,"name":"marriabad","country":"pk","lat":30.1794,"lon":67.033},{"id":2233446,"name":"sheikh hussainr kili","country":"pk","lat":29.936643,"lon":66.744674},{"id":2150618,"name":"ahmadum","country":"pk","lat":30.490976,"lon":67.369387},{"id":2217192,"name":"muhammad qasim","country":"pk","lat":29.971619,"lon":67.074445},{"id":2215937,"name":"model town","country":"pk","lat":30.2073,"lon":67.0055},{"id":2207087,"name":"kuchlagh","country":"pk","lat":30.362954,"lon":66.947279},{"id":2201595,"name":"khadarzai","country":"pk","lat":30.386944,"lon":66.98},{"id":2213287,"name":"mari bashid khan","country":"pk","lat":29.828782,"lon":66.848531},{"id":2157118,"name":"basham","country":"pk","lat":30.076713,"lon":66.758165},{"id":2241611,"name":"wahdat colony","country":"pk","lat":30.191578,"lon":66.991345},{"id":2150388,"name":"ahad ali","country":"pk","lat":29.833709,"lon":67.00456},{"id":2150174,"name":"aï¿½dgah","country":"pk","lat":29.8655,"lon":67.3307},{"id":2180312,"name":"ghaus bakhsh","country":"pk","lat":29.964943,"lon":66.745776},{"id":2241865,"name":"wali muhammad kili","country":"pk","lat":29.969003,"lon":66.720459},{"id":2234117,"name":"shiraz abad","country":"pk","lat":30.181776,"lon":66.982515},{"id":2193632,"name":"hotizal","country":"pk","lat":29.789065,"lon":66.833731},{"id":2232648,"name":"shaikh taqi","country":"pk","lat":29.809795,"lon":66.846006},{"id":2216713,"name":"mughutian","country":"pk","lat":30.393889,"lon":66.986111},{"id":2235685,"name":"sra khezai","country":"pk","lat":30.455511,"lon":67.46744},{"id":2176205,"name":"dilwani","country":"pk","lat":30.180847,"lon":67.398276},{"id":2242802,"name":"yar ali","country":"pk","lat":29.938121,"lon":67.030674},{"id":2222866,"name":"pateanzai","country":"pk","lat":29.525708,"lon":66.57593},{"id":2195741,"name":"jangan","country":"pk","lat":29.757856,"lon":67.015661},{"id":2195374,"name":"jamal zai kili","country":"pk","lat":29.927153,"lon":66.72811},{"id":2149791,"name":"abdullah khan","country":"pk","lat":30.435,"lon":66.904167},{"id":2243539,"name":"zerkash kili","country":"pk","lat":29.928933,"lon":66.66954},{"id":2213650,"name":"mastan khan","country":"pk","lat":29.812846,"lon":67.034755},{"id":2150937,"name":"akhunzada","country":"pk","lat":30.405,"lon":66.989722},{"id":2151392,"name":"ali muhammad","country":"pk","lat":29.924728,"lon":67.081465},{"id":2242784,"name":"yaqub khan ziarat","country":"pk","lat":29.611737,"lon":67.038536},{"id":2242912,"name":"yaru","country":"pk","lat":29.981931,"lon":66.759233},{"id":2177401,"name":"dund karez","country":"pk","lat":29.819486,"lon":66.850464},{"id":2153836,"name":"badalza","country":"pk","lat":30.432104,"lon":66.647938},{"id":2152266,"name":"anawal","country":"pk","lat":29.549229,"lon":66.555796},{"id":2243163,"name":"zairin chungi","country":"pk","lat":30.492533,"lon":67.384486},{"id":2234015,"name":"shinglun","country":"pk","lat":30.343889,"lon":67.109167},{"id":2211740,"name":"malik baluch khan","country":"pk","lat":30.260777,"lon":66.508033},{"id":2207486,"name":"kund mas","country":"pk","lat":29.53538,"lon":66.795605},{"id":2149907,"name":"abdulzai","country":"pk","lat":30.161045,"lon":66.797297},{"id":2241933,"name":"wam kotli","country":"pk","lat":30.4381,"lon":67.449137},{"id":2210376,"name":"madazai","country":"pk","lat":29.693561,"lon":67.057399},{"id":2228733,"name":"sahibzada kili","country":"pk","lat":30.379722,"lon":66.961111},{"id":2200380,"name":"karez kadi kili","country":"pk","lat":29.814021,"lon":66.786718},{"id":2207317,"name":"kulozai","country":"pk","lat":29.670229,"lon":66.764022},{"id":2204780,"name":"kili takri raza","country":"pk","lat":29.932471,"lon":66.756762},{"id":2162697,"name":"bor kili","country":"pk","lat":29.83929,"lon":67.362214},{"id":2223250,"name":"phait","country":"pk","lat":29.867464,"lon":67.116522},{"id":2205253,"name":"koli","country":"pk","lat":30.017773,"lon":66.768525},{"id":2194097,"name":"imamdad khan","country":"pk","lat":29.872853,"lon":66.995955},{"id":2234778,"name":"sinjidi","country":"pk","lat":30.106963,"lon":67.273447},{"id":2204737,"name":"kili shabak","country":"pk","lat":30.291667,"lon":67.067222},{"id":2221672,"name":"pahind kasht","country":"pk","lat":29.967602,"lon":66.767677},{"id":2199835,"name":"kaneti","country":"pk","lat":29.678961,"lon":66.641126},{"id":2224257,"name":"pir kanai","country":"pk","lat":30.376685,"lon":66.631111},{"id":2190852,"name":"habib kandwali","country":"pk","lat":30.293021,"lon":66.753738},{"id":2171094,"name":"chori","country":"pk","lat":29.604847,"lon":66.610334},{"id":2213834,"name":"matora","country":"pk","lat":30.005556,"lon":66.914722},{"id":2211908,"name":"malkan kili","country":"pk","lat":29.967116,"lon":66.722081},{"id":2230217,"name":"saniwa","country":"pk","lat":29.854554,"lon":67.113832},{"id":2212344,"name":"mandan","country":"pk","lat":30.473889,"lon":66.955556},{"id":2226134,"name":"rais gul muhammad","country":"pk","lat":29.604054,"lon":66.900937},{"id":2218013,"name":"murgha kili","country":"pk","lat":29.823723,"lon":66.844498},{"id":2149849,"name":"abdul nahi","country":"pk","lat":30.116115,"lon":66.969326},{"id":2150907,"name":"akhtmar","country":"pk","lat":30.4375,"lon":67.295833},{"id":2192159,"name":"hakim khan kili","country":"pk","lat":30.009444,"lon":66.910556},{"id":2239219,"name":"thul i darya khan","country":"pk","lat":29.803884,"lon":66.825183},{"id":2152808,"name":"arz muhammad","country":"pk","lat":30.020333,"lon":67.089351},{"id":2149769,"name":"abdullah","country":"pk","lat":29.965735,"lon":67.066881},{"id":2176729,"name":"dolai","country":"pk","lat":30.065278,"lon":66.715556},{"id":2238334,"name":"thalkh kavi","country":"pk","lat":29.669313,"lon":66.984748},{"id":2218084,"name":"mursal","country":"pk","lat":29.680268,"lon":66.7463},{"id":2231848,"name":"shah bakhah","country":"pk","lat":29.983743,"lon":67.066364},{"id":2225633,"name":"quaidabad","country":"pk","lat":30.192116,"lon":67.022942},{"id":2230570,"name":"sardar abdur rehman kili","country":"pk","lat":30.35352,"lon":66.686697},{"id":2224260,"name":"pir kanu","country":"pk","lat":29.791339,"lon":66.851091},{"id":2178111,"name":"fauj ali","country":"pk","lat":29.937178,"lon":66.944526},{"id":2204466,"name":"kili haji manna khan","country":"pk","lat":29.976898,"lon":66.708618},{"id":2156473,"name":"baraich colony","country":"pk","lat":30.153176,"lon":67.015671},{"id":2243769,"name":"zor karez","country":"pk","lat":30.195556,"lon":66.806667},{"id":2153042,"name":"atakzai","country":"pk","lat":30.258056,"lon":67.144167},{"id":2191264,"name":"haji amir khan","country":"pk","lat":29.879295,"lon":66.567239},{"id":2207705,"name":"kurram","country":"pk","lat":30.116482,"lon":66.52382},{"id":2216016,"name":"mohammad waris","country":"pk","lat":30.1075,"lon":66.731389},{"id":2191851,"name":"haji nika","country":"pk","lat":30.450908,"lon":66.518764},{"id":2150312,"name":"afzal khan","country":"pk","lat":29.840533,"lon":67.039658},{"id":2204612,"name":"kili mili zia abad","country":"pk","lat":30.240716,"lon":67.050924},{"id":2200187,"name":"karak","country":"pk","lat":30.328056,"lon":66.898611},{"id":2197534,"name":"jio","country":"pk","lat":30.171345,"lon":66.973916},{"id":2151842,"name":"allu","country":"pk","lat":29.90961,"lon":66.865866},{"id":2221879,"name":"pakistan mineral development corporation colony","country":"pk","lat":30.0675,"lon":67.218056},{"id":2232514,"name":"shaikh ali karez","country":"pk","lat":30.270556,"lon":66.964722},{"id":2198459,"name":"kahnak","country":"pk","lat":29.946242,"lon":66.708381},{"id":2224219,"name":"pir ismail ziarat","country":"pk","lat":30.04314,"lon":67.433542},{"id":2204163,"name":"khwaja ibrahim","country":"pk","lat":29.843024,"lon":66.857541},{"id":2193538,"name":"hmh colony","country":"pk","lat":30.199722,"lon":67.178611},{"id":2201381,"name":"kech beg","country":"pk","lat":30.131076,"lon":66.971677},{"id":2239643,"name":"tirkha","country":"pk","lat":30.298889,"lon":66.903611},{"id":2195929,"name":"janon khan kili","country":"pk","lat":29.906652,"lon":66.618701},{"id":2229212,"name":"saizai","country":"pk","lat":30.272572,"lon":67.159568},{"id":2232601,"name":"shaikh mandah","country":"pk","lat":30.251376,"lon":66.972009},{"id":2169730,"name":"chatoke","country":"pk","lat":29.757653,"lon":66.823633},{"id":2232217,"name":"shah muhammad","country":"pk","lat":29.965569,"lon":67.020362},{"id":2243350,"name":"zara termi","country":"pk","lat":29.911761,"lon":66.811875},{"id":2209427,"name":"lawang kili","country":"pk","lat":30.38,"lon":66.974444},{"id":2149723,"name":"abdul hakim kili","country":"pk","lat":29.915282,"lon":66.975548},{"id":2204397,"name":"kili deba","country":"pk","lat":30.197582,"lon":66.991885},{"id":2201879,"name":"khaizi","country":"pk","lat":30.238603,"lon":66.953934},{"id":2241887,"name":"wali tangai","country":"pk","lat":30.262397,"lon":67.238831},{"id":2213699,"name":"mastung","country":"pk","lat":29.799358,"lon":66.845053},{"id":2153808,"name":"badail kili","country":"pk","lat":29.843888,"lon":67.360112},{"id":2226857,"name":"rani bagh","country":"pk","lat":30.172418,"lon":66.99558},{"id":2204521,"name":"kili kabir","country":"pk","lat":30.209585,"lon":66.999459},{"id":2192484,"name":"hanna","country":"pk","lat":30.247274,"lon":67.119144},{"id":2215687,"name":"mistri","country":"pk","lat":30.235556,"lon":66.950833},{"id":2212555,"name":"mangalzai","country":"pk","lat":30.477222,"lon":66.512222},{"id":2199674,"name":"kandava","country":"pk","lat":29.89411,"lon":66.816411},{"id":2206983,"name":"kotwal muhammad umar","country":"pk","lat":30.240169,"lon":66.99781},{"id":2231628,"name":"shadeni","country":"pk","lat":30.033716,"lon":66.752716},{"id":2240706,"name":"umai","country":"pk","lat":30.459377,"lon":67.195791},{"id":2174677,"name":"dhingar","country":"pk","lat":29.902888,"lon":66.748364},{"id":2150605,"name":"ahmad shah kili","country":"pk","lat":30.382778,"lon":66.978889},{"id":2226032,"name":"rahm gul kili","country":"pk","lat":30.286667,"lon":66.851389},{"id":2204885,"name":"kirani","country":"pk","lat":30.171888,"lon":66.952663},{"id":2243362,"name":"zardarzai","country":"pk","lat":29.71516,"lon":67.077982},{"id":2229900,"name":"samungli housing society","country":"pk","lat":30.217014,"lon":66.985834},{"id":2224749,"name":"pringabad","country":"pk","lat":29.877727,"lon":66.864551},{"id":2162085,"name":"biijar","country":"pk","lat":30.000084,"lon":66.765861},{"id":2208331,"name":"laka","country":"pk","lat":29.855282,"lon":66.798913},{"id":2201112,"name":"katir","country":"pk","lat":30.345278,"lon":66.934167},{"id":2230606,"name":"sardar khel","country":"pk","lat":29.69391,"lon":67.067281},{"id":2190807,"name":"gwal mandi","country":"pk","lat":30.181338,"lon":67.008567},{"id":2200136,"name":"kaprani abad","country":"pk","lat":30.138659,"lon":66.984975},{"id":2213214,"name":"mar gat","country":"pk","lat":30.117524,"lon":67.28337},{"id":2226806,"name":"rangili thal","country":"pk","lat":29.856491,"lon":66.671871},{"id":2204629,"name":"kili mubarik","country":"pk","lat":30.240668,"lon":66.965968},{"id":2214369,"name":"mehtarzai","country":"pk","lat":30.424444,"lon":67.007222},{"id":2236340,"name":"sungar","country":"pk","lat":29.877138,"lon":66.853325},{"id":2182458,"name":"goth almas","country":"pk","lat":30.257778,"lon":66.973333},{"id":2179943,"name":"ghaibizai","country":"pk","lat":30.178663,"lon":66.776871},{"id":2225922,"name":"rahim colony","country":"pk","lat":30.201681,"lon":67.006576},{"id":2177581,"name":"edil khan","country":"pk","lat":30.248833,"lon":66.526239},{"id":2195055,"name":"jalab gandan","country":"pk","lat":29.926083,"lon":67.110035},{"id":2180234,"name":"gharki","country":"pk","lat":30.493248,"lon":67.182192},{"id":2204559,"name":"kili kulli","country":"pk","lat":29.8823,"lon":67.2735},{"id":2204988,"name":"kirta","country":"pk","lat":29.606956,"lon":67.48801},{"id":2204550,"name":"kili kia zai","country":"pk","lat":30.192177,"lon":66.95108},{"id":2178281,"name":"firoz khan","country":"pk","lat":30.036944,"lon":67.093333},{"id":2231098,"name":"satellite town","country":"pk","lat":30.161658,"lon":67.003508},{"id":2156160,"name":"bangi karez","country":"pk","lat":29.774719,"lon":66.820121},{"id":2230220,"name":"sanjal khan","country":"pk","lat":29.701258,"lon":66.632407},{"id":2212620,"name":"mangi kach","country":"pk","lat":30.370903,"lon":67.460343},{"id":2194286,"name":"isa khan kili","country":"pk","lat":30.393056,"lon":66.958056},{"id":2218287,"name":"mustafa khan","country":"pk","lat":29.90967,"lon":66.964762},{"id":2209895,"name":"lor kach","country":"pk","lat":30.460094,"lon":67.344666},{"id":2232346,"name":"shahr kamal khan","country":"pk","lat":29.596918,"lon":66.89967},{"id":2217345,"name":"muhammadwal karez","country":"pk","lat":29.776863,"lon":66.671312},{"id":2227657,"name":"rindak","country":"pk","lat":29.714775,"lon":66.774153},{"id":2228105,"name":"rustamwal","country":"pk","lat":29.722389,"lon":66.656991},{"id":2151678,"name":"allah dinna","country":"pk","lat":29.617052,"lon":66.746798},{"id":2214089,"name":"mazari","country":"pk","lat":29.97977,"lon":67.057973},{"id":2200794,"name":"karwanda","country":"pk","lat":30.426488,"lon":67.002267},{"id":2204520,"name":"kili jungle bagh","country":"pk","lat":30.168022,"lon":66.982234},{"id":2231082,"name":"satakzai","country":"pk","lat":29.76307,"lon":67.113428},{"id":2204490,"name":"kili haji wahid bakhsh","country":"pk","lat":30.224267,"lon":66.980086},{"id":2236098,"name":"sultan dun","country":"pk","lat":29.60146,"lon":66.738327},{"id":2176992,"name":"dozani","country":"pk","lat":29.942081,"lon":67.187663},{"id":2236995,"name":"takiawal","country":"pk","lat":29.792808,"lon":66.69114},{"id":2195337,"name":"jamal khan kili","country":"pk","lat":30.377601,"lon":66.911155},{"id":2153735,"name":"bachawat","country":"pk","lat":29.790245,"lon":66.833236},{"id":2199332,"name":"kamalu","country":"pk","lat":30.104223,"lon":66.96109},{"id":2195298,"name":"jamalan","country":"pk","lat":29.950505,"lon":67.074351},{"id":2219546,"name":"nasirkilli","country":"pk","lat":30.241667,"lon":67.048333},{"id":2204437,"name":"kili haji abdur razaq","country":"pk","lat":30.298368,"lon":66.927676},{"id":2192947,"name":"hasil khan","country":"pk","lat":29.82582,"lon":67.003212},{"id":2236560,"name":"survey colony","country":"pk","lat":30.190967,"lon":66.98417},{"id":2200290,"name":"karani kach","country":"pk","lat":30.282642,"lon":67.435695},{"id":2151155,"name":"ali abad","country":"pk","lat":29.903292,"lon":66.757225},{"id":2198139,"name":"kabul muhammad","country":"pk","lat":29.676337,"lon":66.778158},{"id":2177635,"name":"etbar khan karez","country":"pk","lat":29.923416,"lon":66.713382},{"id":2178778,"name":"galbraith spinney","country":"pk","lat":30.170278,"lon":66.991667},{"id":2204171,"name":"khwaja khidr","country":"pk","lat":29.783406,"lon":66.817569},{"id":2230492,"name":"saran tangai","country":"pk","lat":30.407136,"lon":67.192683},{"id":2180193,"name":"gharib abad","country":"pk","lat":30.16068,"lon":66.990989},{"id":2204361,"name":"kili almo","country":"pk","lat":30.228352,"lon":66.995488},{"id":2193276,"name":"hazoor bakhsh","country":"pk","lat":30.086667,"lon":67.142222},{"id":2219755,"name":"nau hissar","country":"pk","lat":30.241538,"lon":66.890976},{"id":2232325,"name":"shahr gamanr khan","country":"pk","lat":29.600936,"lon":66.915441},{"id":2235689,"name":"sra-khula","country":"pk","lat":30.276111,"lon":67.071667},{"id":2230580,"name":"sardar dinar khan","country":"pk","lat":29.898966,"lon":67.091863},{"id":2157115,"name":"bashah","country":"pk","lat":30.275612,"lon":66.626183},{"id":2150541,"name":"ahmad khanzai","country":"pk","lat":30.157229,"lon":66.979484},{"id":2180283,"name":"ghate","country":"pk","lat":29.892315,"lon":66.86744},{"id":2222794,"name":"pashtunabad","country":"pk","lat":30.174649,"lon":67.014799},{"id":2204784,"name":"kili tarkha","country":"pk","lat":30.203318,"lon":66.987914},{"id":2242923,"name":"yasinabad","country":"pk","lat":30.176398,"lon":66.972484},{"id":2190130,"name":"gulghazi","country":"pk","lat":30.022076,"lon":66.502457},{"id":2149926,"name":"abdur rahmanzai","country":"pk","lat":30.360381,"lon":66.639279},{"id":2162291,"name":"birao","country":"pk","lat":30.1125,"lon":66.963333},{"id":2215630,"name":"miskinzai","country":"pk","lat":29.59549,"lon":67.076581},{"id":2223552,"name":"phul","country":"pk","lat":29.740691,"lon":67.123298},{"id":2199610,"name":"kanda changal","country":"pk","lat":30.469988,"lon":67.351803},{"id":2214143,"name":"medadzai","country":"pk","lat":30.257464,"lon":67.205402},{"id":2204388,"name":"kili charmai","country":"pk","lat":30.440042,"lon":67.469258},{"id":2173131,"name":"dato","country":"pk","lat":29.786044,"lon":66.829293},{"id":2231896,"name":"shahbaz town","country":"pk","lat":30.211337,"lon":67.00169},{"id":2211818,"name":"malik pir muhammad kili","country":"pk","lat":30.134195,"lon":66.589172},{"id":2178236,"name":"feroz khan kili","country":"pk","lat":29.997752,"lon":66.905322},{"id":2243559,"name":"zhalli","country":"pk","lat":29.736576,"lon":66.82297},{"id":2223438,"name":"phod kili","country":"pk","lat":30.176432,"lon":66.977863},{"id":2153407,"name":"azim khan","country":"pk","lat":29.88286,"lon":66.853987},{"id":2200371,"name":"karez amanullah","country":"pk","lat":29.721053,"lon":66.803374},{"id":2239638,"name":"tirkha gurdit singh","country":"pk","lat":30.301667,"lon":66.894444},{"id":2190433,"name":"gulsilni","country":"pk","lat":29.609745,"lon":66.69976},{"id":2204733,"name":"kili sattara","country":"pk","lat":29.882601,"lon":67.302746},{"id":2204524,"name":"kili karam khan","country":"pk","lat":30.241667,"lon":66.965278},{"id":2210920,"name":"mahmud khan karez","country":"pk","lat":29.840938,"lon":66.770592},{"id":2204210,"name":"khwasam","country":"pk","lat":29.802952,"lon":66.85966},{"id":2243235,"name":"zamin khan","country":"pk","lat":29.962274,"lon":66.717627},{"id":2232277,"name":"shah pasand","country":"pk","lat":30.328889,"lon":66.917222},{"id":2220298,"name":"nebi bakhsh kili","country":"pk","lat":29.97217,"lon":66.99715},{"id":2196557,"name":"jhanda khan","country":"pk","lat":30.005018,"lon":67.082},{"id":2215560,"name":"mirza khan","country":"pk","lat":30.033943,"lon":67.131573},{"id":2232194,"name":"shah miran","country":"pk","lat":29.840112,"lon":66.763153},{"id":2221419,"name":"old mach","country":"pk","lat":29.87756,"lon":67.301814},{"id":2214442,"name":"mengal colony","country":"pk","lat":30.171623,"lon":66.99713},{"id":2237637,"name":"tarakai","country":"pk","lat":30.311111,"lon":67.068056},{"id":2209716,"name":"loe shin magh","country":"pk","lat":30.353624,"lon":67.038626},{"id":2156679,"name":"barezai","country":"pk","lat":30.134076,"lon":66.958007},{"id":2225724,"name":"qutab khan","country":"pk","lat":30.049444,"lon":67.129722},{"id":2204362,"name":"kili amanullah","country":"pk","lat":30.244415,"lon":66.963624},{"id":2200482,"name":"karim dad kili","country":"pk","lat":30.009167,"lon":66.966389},{"id":2155084,"name":"bakhtiar khan","country":"pk","lat":29.966251,"lon":66.730227},{"id":2223193,"name":"peshi","country":"pk","lat":29.7265,"lon":67.4861},{"id":2150290,"name":"afghan kili","country":"pk","lat":29.830418,"lon":66.841626},{"id":2194003,"name":"iftikhar","country":"pk","lat":30.225556,"lon":67.076389},{"id":2210295,"name":"mach","country":"pk","lat":29.86371,"lon":67.329785},{"id":2213700,"name":"mastung road","country":"pk","lat":29.880186,"lon":66.84185},{"id":2207289,"name":"kuli camp","country":"pk","lat":30.208876,"lon":67.061816},{"id":2216632,"name":"muchian","country":"pk","lat":30.3575,"lon":66.958056},{"id":2201514,"name":"ketran","country":"pk","lat":29.821381,"lon":67.009912},{"id":2204576,"name":"kili malak kabir","country":"pk","lat":30.235833,"lon":67.013611},{"id":2213654,"name":"mastarzai","country":"pk","lat":30.470278,"lon":66.933889},{"id":2229668,"name":"samalai","country":"pk","lat":30.329167,"lon":66.924167},{"id":2156555,"name":"barari","country":"pk","lat":29.657203,"lon":67.311011},{"id":2243021,"name":"yusuf khan kili","country":"pk","lat":29.9153,"lon":66.685274},{"id":2162955,"name":"budha zai","country":"pk","lat":29.868773,"lon":66.872168},{"id":2151884,"name":"alo kili","country":"pk","lat":30.385409,"lon":66.946001},{"id":2213486,"name":"marwar","country":"pk","lat":30.057978,"lon":67.4232},{"id":2204378,"name":"kili bangal zai","country":"pk","lat":30.185189,"lon":66.981649},{"id":2204416,"name":"kili ghulam jan","country":"pk","lat":30.245181,"lon":66.969675},{"id":2231875,"name":"shahbaz kach","country":"pk","lat":30.442332,"lon":67.331693},{"id":2193095,"name":"haudakai china","country":"pk","lat":30.350066,"lon":66.995895},{"id":2153416,"name":"azim kili","country":"pk","lat":30.384167,"lon":66.963333},{"id":2203965,"name":"khuni","country":"pk","lat":29.523078,"lon":66.542416},{"id":2235742,"name":"state bank of pakistan colony","country":"pk","lat":30.195083,"lon":67.03145},{"id":2223107,"name":"payao","country":"pk","lat":30.295231,"lon":66.885113},{"id":2181570,"name":"gokurt","country":"pk","lat":29.5576,"lon":67.475},{"id":2204708,"name":"kili sabzal","country":"pk","lat":30.21429,"lon":66.973304},{"id":2169019,"name":"chaman housing society","country":"pk","lat":30.2177,"lon":67.0068},{"id":2204436,"name":"kili haji abdul rehman zai","country":"pk","lat":30.135831,"lon":66.947091},{"id":2163827,"name":"chah bali","country":"pk","lat":29.521734,"lon":66.922218},{"id":2198118,"name":"kabo","country":"pk","lat":29.594753,"lon":66.877172},{"id":2204792,"name":"kili wazir khan","country":"pk","lat":30.168117,"lon":66.972085},{"id":2204379,"name":"kili baqar ali shah","country":"pk","lat":30.185299,"lon":66.963559},{"id":2229901,"name":"samungli","country":"pk","lat":30.240764,"lon":66.93492},{"id":2160142,"name":"bazai","country":"pk","lat":30.259167,"lon":67.147222},{"id":2154676,"name":"bahram shahi kili","country":"pk","lat":29.799695,"lon":66.857616},{"id":2224387,"name":"pir","country":"pk","lat":30.304604,"lon":67.355553},{"id":2154015,"name":"badozai","country":"pk","lat":29.864811,"lon":66.860273},{"id":2170545,"name":"chhuttok","country":"pk","lat":29.66235,"lon":66.727456},{"id":2162010,"name":"bibi nani","country":"pk","lat":29.70976,"lon":67.406826},{"id":2218247,"name":"muslim abad","country":"pk","lat":30.248563,"lon":66.974104},{"id":2149591,"name":"ababki","country":"pk","lat":29.554043,"lon":66.558014},{"id":2204749,"name":"kili shahwani","country":"pk","lat":30.065278,"lon":67.171667},{"id":2162768,"name":"brahimzai","country":"pk","lat":30.187409,"lon":66.995243},{"id":2198740,"name":"kala china","country":"pk","lat":30.459971,"lon":67.365864},{"id":2200440,"name":"kari","country":"pk","lat":29.818564,"lon":66.81927},{"id":2169848,"name":"chauka","country":"pk","lat":30.451667,"lon":67.041389},{"id":2149918,"name":"abdur rahman kili","country":"pk","lat":30.264444,"lon":66.833056},{"id":2151645,"name":"allahdad","country":"pk","lat":30.445778,"lon":67.455465},{"id":2156531,"name":"barani","country":"pk","lat":30.22622,"lon":66.530413},{"id":2150455,"name":"ahmad","country":"pk","lat":30.366944,"lon":66.920278},{"id":2219879,"name":"nawaabad","country":"pk","lat":29.897052,"lon":66.648511},{"id":2155563,"name":"bamkazai","country":"pk","lat":29.514952,"lon":66.771238},{"id":2233178,"name":"shapch","country":"pk","lat":29.504847,"lon":66.521227},{"id":2222827,"name":"pasta skhobai","country":"pk","lat":30.399452,"lon":67.32037},{"id":2208077,"name":"ladha saiyid","country":"pk","lat":29.837398,"lon":66.845858},{"id":2221016,"name":"nun din","country":"pk","lat":30.034672,"lon":67.122703},{"id":2191907,"name":"haji qutab khan","country":"pk","lat":29.648418,"lon":66.757443},{"id":2156845,"name":"barkhurdar","country":"pk","lat":29.92063,"lon":66.968266},{"id":2178479,"name":"gadi ghar","country":"pk","lat":29.704399,"lon":66.79373},{"id":2243366,"name":"zarden","country":"pk","lat":29.740834,"lon":66.970541},{"id":2155218,"name":"balal khan kili","country":"pk","lat":30.048056,"lon":66.938611},{"id":2180896,"name":"ghulam parez","country":"pk","lat":29.772787,"lon":66.836885},{"id":2195043,"name":"jakiawal","country":"pk","lat":29.791667,"lon":66.688889},{"id":2231973,"name":"shahdinzai","country":"pk","lat":30.125703,"lon":66.948522},{"id":2225687,"name":"quetta","country":"pk","lat":30.199004,"lon":67.009708},{"id":2230609,"name":"sardar kili","country":"pk","lat":29.859629,"lon":67.320166},{"id":2194487,"name":"ispethatar","country":"pk","lat":29.531146,"lon":66.787523},{"id":2200529,"name":"kari noth","country":"pk","lat":29.818352,"lon":66.81782},{"id":2194446,"name":"ismail khan","country":"pk","lat":29.802834,"lon":67.018132},{"id":2192519,"name":"haq abad","country":"pk","lat":30.15719,"lon":66.990065},{"id":2208807,"name":"laluzai","country":"pk","lat":29.573807,"lon":67.060698},{"id":2205261,"name":"kolpur bazar","country":"pk","lat":29.9019,"lon":67.1328},{"id":2235794,"name":"subhani","country":"pk","lat":30.136944,"lon":66.951111},{"id":2238182,"name":"tel godam","country":"pk","lat":30.1967,"lon":67.0218},{"id":2213980,"name":"maulo kach","country":"pk","lat":30.346616,"lon":67.364493},{"id":2200385,"name":"karez pumba","country":"pk","lat":29.833179,"lon":66.8021},{"id":2198244,"name":"kachh","country":"pk","lat":30.436831,"lon":67.318559},{"id":2229074,"name":"saiyidabad","country":"pk","lat":30.247105,"lon":66.983776},{"id":2209848,"name":"londa","country":"pk","lat":29.931289,"lon":66.868965},{"id":2198616,"name":"kakar colony","country":"pk","lat":30.164735,"lon":67.015877},{"id":2200378,"name":"karez hindu","country":"pk","lat":29.834516,"lon":66.810571},{"id":2198121,"name":"kabreta","country":"pk","lat":29.590036,"lon":66.744031},{"id":2169850,"name":"chaukai","country":"pk","lat":30.1075,"lon":67.295957},{"id":2230736,"name":"sariab phatak","country":"pk","lat":30.182881,"lon":66.99841},{"id":2172245,"name":"dam kili","country":"pk","lat":29.875959,"lon":66.733851},{"id":2204785,"name":"kili tarkhan","country":"pk","lat":30.219167,"lon":66.970556},{"id":2228712,"name":"sahib khan","country":"pk","lat":29.787616,"lon":67.015891},{"id":2204703,"name":"kili rajab","country":"pk","lat":30.218283,"lon":66.973137},{"id":2181132,"name":"ghwazha","country":"pk","lat":29.502965,"lon":67.036498},{"id":2213623,"name":"massezai","country":"pk","lat":30.385808,"lon":66.538392},{"id":2150903,"name":"akhtarwal","country":"pk","lat":29.522325,"lon":66.557756},{"id":2217262,"name":"muhammad shahi kili","country":"pk","lat":29.814017,"lon":66.865074},{"id":2176775,"name":"domari","country":"pk","lat":30.221667,"lon":66.825556},{"id":2150927,"name":"akhund karez","country":"pk","lat":29.863156,"lon":66.749518},{"id":2243356,"name":"zard abdullah","country":"pk","lat":29.542997,"lon":66.57558},{"id":2149952,"name":"ab-i-gul","country":"pk","lat":29.668919,"lon":66.901947},{"id":2204794,"name":"kili yaaub","country":"pk","lat":29.941551,"lon":66.76167},{"id":2204591,"name":"kili malik muhammad jan","country":"pk","lat":30.233843,"lon":66.955524},{"id":2235002,"name":"smafani colony","country":"pk","lat":29.870188,"lon":67.328873},{"id":2202007,"name":"khali","country":"pk","lat":30.154167,"lon":66.954167},{"id":2216990,"name":"muhammad hussain kili","country":"pk","lat":29.883686,"lon":66.520176},{"id":2224986,"name":"purdil kili","country":"pk","lat":29.854838,"lon":66.825296},{"id":2235569,"name":"spezand junction","country":"pk","lat":29.979631,"lon":66.998586},{"id":2214132,"name":"mazwal","country":"pk","lat":29.86689,"lon":66.81935},{"id":2150670,"name":"ahsan colony","country":"pk","lat":30.143088,"lon":67.009319},{"id":2219827,"name":"nauroz","country":"pk","lat":30.452222,"lon":66.536944},{"id":2202300,"name":"khanezai","country":"pk","lat":30.202054,"lon":66.793048},{"id":2236432,"name":"sur dab","country":"pk","lat":30.481262,"lon":67.070084},{"id":2234069,"name":"shinkozai","country":"pk","lat":30.49681,"lon":66.796206},{"id":2231912,"name":"shah begwal","country":"pk","lat":29.708537,"lon":66.655795},{"id":2237197,"name":"tal toba","country":"pk","lat":29.7449,"lon":67.3872},{"id":2181318,"name":"girdi talao","country":"pk","lat":30.173611,"lon":66.802778},{"id":2218315,"name":"mutribd","country":"pk","lat":29.811816,"lon":66.864789},{"id":2211978,"name":"mall-i-khurma","country":"pk","lat":29.672207,"lon":66.788892},{"id":2243492,"name":"zawar kanr","country":"pk","lat":30.44,"lon":67.171944},{"id":2240431,"name":"turkan","country":"pk","lat":29.853779,"lon":67.0472},{"id":2194493,"name":"isplezai","country":"pk","lat":30.327741,"lon":67.499041},{"id":2169529,"name":"charai","country":"pk","lat":30.477148,"lon":67.489294},{"id":2222465,"name":"panzu","country":"pk","lat":29.965026,"lon":67.005118},{"id":2204680,"name":"kili nihal khan","country":"pk","lat":29.911381,"lon":66.786509},{"id":2176312,"name":"dinna khan","country":"pk","lat":29.932213,"lon":67.040212},{"id":2179953,"name":"ghair abad","country":"pk","lat":30.218791,"lon":66.965384},{"id":2214965,"name":"mines labour welfare colony","country":"pk","lat":30.064156,"lon":67.416905},{"id":2232201,"name":"shah mir","country":"pk","lat":29.945394,"lon":67.030136},{"id":2153598,"name":"bab kani","country":"pk","lat":29.956991,"lon":66.748629},{"id":2235678,"name":"sra grug","country":"pk","lat":30.290596,"lon":67.008345},{"id":2153074,"name":"atar khan","country":"pk","lat":29.785416,"lon":67.006766},{"id":2192044,"name":"haji tawakkal","country":"pk","lat":30.044676,"lon":67.110545},{"id":2151004,"name":"akuri","country":"pk","lat":29.587919,"lon":66.689392},{"id":2233002,"name":"shamezai","country":"pk","lat":29.930203,"lon":66.710629},{"id":2178664,"name":"gait","country":"pk","lat":29.630032,"lon":66.705803},{"id":2204773,"name":"kili sultan","country":"pk","lat":30.221394,"lon":66.971335},{"id":2179770,"name":"gausabad","country":"pk","lat":29.956479,"lon":66.942738},{"id":2211808,"name":"malik murid","country":"pk","lat":30.326667,"lon":66.601111},{"id":2190254,"name":"gulli","country":"pk","lat":29.733135,"lon":66.811645},{"id":2218414,"name":"nabidad","country":"pk","lat":29.644087,"lon":66.753976},{"id":2193625,"name":"hoti chil","country":"pk","lat":29.696149,"lon":66.773247},{"id":2242532,"name":"west pakistan industrial development corporation colony","country":"pk","lat":30.178611,"lon":67.214722},{"id":2243428,"name":"zari","country":"pk","lat":30.350837,"lon":66.924851},{"id":2227503,"name":"rekiboz","country":"pk","lat":29.626626,"lon":66.751177},{"id":2173371,"name":"degari","country":"pk","lat":30.060718,"lon":67.221077},{"id":2162125,"name":"bilal kach","country":"pk","lat":30.303889,"lon":67.130278},{"id":2228835,"name":"saidabad","country":"pk","lat":30.186513,"lon":67.030602},{"id":2149953,"name":"ab-i- gum kili","country":"pk","lat":29.805721,"lon":67.399842},{"id":2211130,"name":"mai lalin ziarat","country":"pk","lat":29.766447,"lon":67.010659},{"id":2229151,"name":"saiyid khair muhammad","country":"pk","lat":29.975177,"lon":66.744392},{"id":2168931,"name":"chakul muhammad murad","country":"pk","lat":30.241944,"lon":66.971667},{"id":2204747,"name":"kili shaho zai","country":"pk","lat":30.192878,"lon":66.985031},{"id":2219572,"name":"nasozi","country":"pk","lat":30.482778,"lon":66.943611},{"id":2181486,"name":"gograi","country":"pk","lat":30.139444,"lon":66.976816},{"id":2165221,"name":"chakarkheli","country":"pk","lat":29.502839,"lon":66.570617},{"id":2241932,"name":"wam korai","country":"pk","lat":30.450833,"lon":67.416111},{"id":2240958,"name":"urak","country":"pk","lat":30.2725,"lon":67.185833},{"id":2197677,"name":"johak","country":"pk","lat":29.702583,"lon":66.640449},{"id":2204713,"name":"kili sahib khan","country":"pk","lat":30.234444,"lon":66.97},{"id":2150986,"name":"akram khan kili","country":"pk","lat":30.026667,"lon":66.966389},{"id":2228940,"name":"said ullah","country":"pk","lat":29.959867,"lon":67.061906},{"id":2206979,"name":"kotwal khanan","country":"pk","lat":30.239758,"lon":67.011776},{"id":2169674,"name":"chashma baleli","country":"pk","lat":30.278056,"lon":66.911389},{"id":2232847,"name":"shaldara","country":"pk","lat":30.181066,"lon":67.019281},{"id":2212540,"name":"mangala","country":"pk","lat":30.377757,"lon":67.175052},{"id":2197669,"name":"jogizai","country":"pk","lat":29.968744,"lon":66.716568},{"id":2176341,"name":"dinu","country":"pk","lat":30.008295,"lon":67.103702},{"id":2177382,"name":"dumran","country":"pk","lat":30.376389,"lon":66.954444},{"id":2218584,"name":"naguman","country":"pk","lat":29.788947,"lon":66.684796},{"id":2204619,"name":"kili mir hasan","country":"pk","lat":29.900507,"lon":66.741858},{"id":2150110,"name":"adam khan kili","country":"pk","lat":30.144834,"lon":66.983918},{"id":2207430,"name":"kundal","country":"pk","lat":30.476143,"lon":66.56568},{"id":2213362,"name":"marjanzai","country":"pk","lat":30.482397,"lon":66.84497},{"id":2214904,"name":"mihrani","country":"pk","lat":30.066031,"lon":66.769739},{"id":2239635,"name":"tiri","country":"pk","lat":29.879434,"lon":66.819141},{"id":2204531,"name":"kili khairati","country":"pk","lat":30.225291,"lon":66.966214},{"id":2176201,"name":"dilwa khan","country":"pk","lat":29.885333,"lon":67.130965},{"id":2240208,"name":"tsahgai","country":"pk","lat":30.388056,"lon":67.03},{"id":2241850,"name":"wali khan","country":"pk","lat":29.876773,"lon":66.841783},{"id":2176529,"name":"doctor kili","country":"pk","lat":30.4425,"lon":67.076389},{"id":2169118,"name":"chanal","country":"pk","lat":29.962568,"lon":66.685341},{"id":2224068,"name":"pirari","country":"pk","lat":29.730243,"lon":67.109417},{"id":2202485,"name":"khanozai","country":"pk","lat":30.42851,"lon":66.555499},{"id":2193631,"name":"hotizai","country":"pk","lat":29.793822,"lon":66.835647},{"id":2211966,"name":"mallazai","country":"pk","lat":30.318333,"lon":66.922222},{"id":2153123,"name":"atozai","country":"pk","lat":30.360278,"lon":66.927222},{"id":2240334,"name":"tul","country":"pk","lat":29.649621,"lon":66.773051}]});