callback({"markets":[{"id":2094193,"name":"lamassa hamlets","country":"pg","lat":-4.6833333,"lon":152.75},{"id":2099750,"name":"ulam","country":"pg","lat":-4.5833333,"lon":153.05},{"id":2098318,"name":"siar","country":"pg","lat":-4.6,"lon":153.0666667},{"id":2094202,"name":"lambom","country":"pg","lat":-4.8,"lon":152.85},{"id":2092279,"name":"kambilal","country":"pg","lat":-4.5166667,"lon":153.0333333},{"id":2088332,"name":"bakop","country":"pg","lat":-4.75,"lon":152.95},{"id":2094205,"name":"lambur","country":"pg","lat":-4.6333333,"lon":152.7166667},{"id":2094827,"name":"maliom","country":"pg","lat":-4.6166667,"lon":153.0333333},{"id":2091996,"name":"kabaman","country":"pg","lat":-4.6,"lon":152.7166667},{"id":2096188,"name":"natar","country":"pg","lat":-4.6833333,"lon":153.0},{"id":2095194,"name":"matatai","country":"pg","lat":-4.8333333,"lon":152.9},{"id":2088671,"name":"beriota","country":"pg","lat":-4.7166667,"lon":152.9666667},{"id":2097515,"name":"pukenmi","country":"pg","lat":-4.5666667,"lon":153.0666667},{"id":2088335,"name":"bakum","country":"pg","lat":-4.5333333,"lon":153.0666667},{"id":2093816,"name":"kumparum","country":"pg","lat":-4.5,"lon":153.0333333},{"id":2094194,"name":"lamassa","country":"pg","lat":-4.6833333,"lon":152.7666667},{"id":2095212,"name":"matkumlagir","country":"pg","lat":-4.6666667,"lon":153.0166667}]});