callback({"markets":[{"id":1936693,"name":"kampung pulau setulu","country":"my","lat":5.0956,"lon":101.9737},{"id":1921373,"name":"kampong batu kapor","country":"my","lat":5.375468,"lon":102.027},{"id":1933979,"name":"kampung kuala balah","country":"my","lat":5.416667,"lon":101.916667},{"id":1926757,"name":"kampong pelar","country":"my","lat":5.083333,"lon":101.866667},{"id":1934503,"name":"kampung lebir","country":"my","lat":5.0149,"lon":102.3985},{"id":1932369,"name":"kampung che hussin","country":"my","lat":5.012,"lon":102.3847},{"id":1932363,"name":"kampung chas","country":"my","lat":4.9312,"lon":101.7863},{"id":1930470,"name":"kampong ulu wier","country":"my","lat":5.0067,"lon":102.3838},{"id":1920236,"name":"fort hau","country":"my","lat":4.8107,"lon":101.5607},{"id":1938357,"name":"kampung tanggang","country":"my","lat":4.703,"lon":102.0056},{"id":1926574,"name":"kampong pasir tah","country":"my","lat":5.383333,"lon":102.05},{"id":1926931,"name":"kampong perak","country":"my","lat":5.1117,"lon":101.9735},{"id":1939240,"name":"kampung tunggal","country":"my","lat":5.283333,"lon":102.05},{"id":1935955,"name":"kampung pasir besar","country":"my","lat":4.9937,"lon":102.3783},{"id":1941290,"name":"pahi","country":"my","lat":5.466667,"lon":102.216667},{"id":1924138,"name":"kampong kiar","country":"my","lat":4.9975,"lon":102.378},{"id":1931666,"name":"kampung berawing","country":"my","lat":4.9881,"lon":102.378},{"id":1926283,"name":"kampong panchor bedru","country":"my","lat":5.4,"lon":102.016667},{"id":1925281,"name":"kampong lulut","country":"my","lat":5.15,"lon":102.1},{"id":1932137,"name":"kampung bukit tok ali","country":"my","lat":5.4645,"lon":101.9049},{"id":1941950,"name":"pos dakoh","country":"my","lat":4.9567,"lon":101.5045},{"id":1921314,"name":"kampong batu chagok","country":"my","lat":4.783654,"lon":102.293287},{"id":1941705,"name":"perkampungan jelawang","country":"my","lat":5.3485,"lon":101.9813},{"id":1920346,"name":"gua musang","country":"my","lat":4.8823,"lon":101.9644},{"id":1941697,"name":"perkampungan biak b","country":"my","lat":5.4179,"lon":101.9583},{"id":1934551,"name":"kampung lepan jaya","country":"my","lat":4.7891,"lon":102.0111},{"id":1922294,"name":"kampong bunut sai","country":"my","lat":5.433333,"lon":102.216667},{"id":1939641,"name":"kemajuan tanah jeram tekoh","country":"my","lat":5.0018,"lon":102.064},{"id":1939416,"name":"kampung wias","country":"my","lat":5.092,"lon":101.846},{"id":1921419,"name":"kampong batu papan","country":"my","lat":4.8438,"lon":101.9456},{"id":1933633,"name":"kampung kedemba","country":"my","lat":5.4206,"lon":101.9442},{"id":1938404,"name":"kampung tanjung batu","country":"my","lat":5.4,"lon":102.233333},{"id":1936467,"name":"kampung persit","country":"my","lat":4.653,"lon":101.9988},{"id":1936771,"name":"kampung rambai","country":"my","lat":5.3638,"lon":102.0007},{"id":1921769,"name":"kampong binjai","country":"my","lat":5.2,"lon":102.083333},{"id":1920183,"name":"dusun manal","country":"my","lat":5.45,"lon":101.916667},{"id":1938164,"name":"kampung sungai yu","country":"my","lat":4.5588,"lon":101.9869},{"id":1940215,"name":"ladang deragong","country":"my","lat":4.6,"lon":101.616667},{"id":1939736,"name":"kemajuan tanah sungai asap","country":"my","lat":4.9576,"lon":102.0826},{"id":1934064,"name":"kampung kuala lebir","country":"my","lat":4.9438,"lon":101.7848},{"id":1932711,"name":"kampung gajah","country":"my","lat":4.85,"lon":101.8},{"id":1933370,"name":"kampung jerek dalam","country":"my","lat":5.1509,"lon":101.9954},{"id":1939620,"name":"kemajuan tanah chiku dua","country":"my","lat":4.9344,"lon":102.1969},{"id":1939675,"name":"kemajuan tanah limau kasturi","country":"my","lat":5.0944,"lon":102.0509},{"id":1945100,"name":"telok birah","country":"my","lat":5.083333,"lon":102.083333},{"id":1941600,"name":"pemberian","country":"my","lat":5.333333,"lon":102.25},{"id":1939419,"name":"kampung yai","country":"my","lat":5.0151,"lon":101.5128},{"id":1922282,"name":"kampong buntar","country":"my","lat":4.801187,"lon":102.319135},{"id":1923830,"name":"kampong kasong","country":"my","lat":5.0775,"lon":102.3492},{"id":1931498,"name":"kampung batu udang","country":"my","lat":5.3042,"lon":102.0092},{"id":1941957,"name":"pos renjer perhilitan kuala keniyam","country":"my","lat":4.518,"lon":102.4744},{"id":1933380,"name":"kampung jerkam","country":"my","lat":5.1796,"lon":102.0296},{"id":1932470,"name":"kampung dalam balah","country":"my","lat":5.423,"lon":101.905},{"id":1923609,"name":"kampong jeranang","country":"my","lat":4.983333,"lon":102.366667},{"id":1933435,"name":"kampung kabang","country":"my","lat":4.955,"lon":102.3554},{"id":1921185,"name":"kampong banggul binjal","country":"my","lat":5.316667,"lon":101.766667},{"id":1933749,"name":"kampung keniyam","country":"my","lat":4.5181,"lon":102.4832},{"id":1931450,"name":"kampung batu sawa","country":"my","lat":5.3915,"lon":102.0089},{"id":1922604,"name":"kampong dabong","country":"my","lat":5.3765,"lon":102.0084},{"id":1927440,"name":"kampong raba","country":"my","lat":5.433333,"lon":102.15},{"id":1932768,"name":"kampung gata","country":"my","lat":4.8753,"lon":101.9558},{"id":1940260,"name":"ladang sungai terah","country":"my","lat":4.954,"lon":101.9632},{"id":1923194,"name":"kampong gua chah","country":"my","lat":5.016667,"lon":101.766667},{"id":1934837,"name":"kampung maik","country":"my","lat":5.1019,"lon":102.35},{"id":1924884,"name":"kampong langsat","country":"my","lat":5.117878,"lon":102.004404},{"id":1939692,"name":"kemajuan tanah paloh tiga","country":"my","lat":5.0059,"lon":102.2742},{"id":1935168,"name":"kampung merhamah","country":"my","lat":4.6338,"lon":102.0005},{"id":1924992,"name":"kampong lentong","country":"my","lat":5.166667,"lon":102.1},{"id":1935994,"name":"kampung pasir parit","country":"my","lat":5.0678,"lon":101.8936},{"id":1941947,"name":"pos belatim","country":"my","lat":5.004,"lon":101.523},{"id":1936855,"name":"kampung relak","country":"my","lat":5.4907,"lon":101.8922},{"id":1933800,"name":"kampung keriting","country":"my","lat":4.8781,"lon":101.9603},{"id":1923527,"name":"kampong jelambu","country":"my","lat":5.1305,"lon":102.0183},{"id":1937675,"name":"kampung sungai asap","country":"my","lat":4.9516,"lon":102.0533},{"id":1938170,"name":"kampung sungkai","country":"my","lat":4.8347,"lon":101.7835},{"id":1939714,"name":"kemajuan tanah perasau","country":"my","lat":4.9124,"lon":102.0862},{"id":1924738,"name":"kampong kundor","country":"my","lat":4.883333,"lon":101.933333},{"id":1939771,"name":"kemubu","country":"my","lat":5.3,"lon":102.016667},{"id":1934397,"name":"kampung laluk","country":"my","lat":5.3,"lon":102.266667},{"id":1923811,"name":"kampong karangan","country":"my","lat":5.316667,"lon":102.266667},{"id":1932961,"name":"kampung gua kalang","country":"my","lat":4.6264,"lon":101.9892},{"id":1937343,"name":"kampung seri jaya","country":"my","lat":5.2581,"lon":102.0101},{"id":1935980,"name":"kampung pasir mayat","country":"my","lat":5.0828,"lon":101.9696},{"id":1920008,"name":"cegar panjang","country":"my","lat":4.7718,"lon":101.9231},{"id":1932603,"name":"kampung durian badak","country":"my","lat":5.3995,"lon":101.9619},{"id":1938600,"name":"kampung tebing tinggi","country":"my","lat":5.066828,"lon":101.917496},{"id":1931510,"name":"kampung bawid","country":"my","lat":4.9165,"lon":101.7874},{"id":1939016,"name":"kampung timur gunung","country":"my","lat":4.6465,"lon":101.9928},{"id":1937400,"name":"kampung sesik","country":"my","lat":5.116667,"lon":101.983333},{"id":1936632,"name":"kampung pulau chegar atas","country":"my","lat":5.1078,"lon":101.9745},{"id":1935141,"name":"kampung meranto","country":"my","lat":5.1581,"lon":101.9695},{"id":1940927,"name":"merapoh","country":"my","lat":4.6916,"lon":101.9997},{"id":1940752,"name":"manek urai","country":"my","lat":5.383333,"lon":102.233333},{"id":1937712,"name":"kampung sungai batu","country":"my","lat":5.3634,"lon":101.9737},{"id":1941448,"name":"pasir biak","country":"my","lat":5.4133,"lon":101.9631},{"id":1939622,"name":"kemajuan tanah chiku enam","country":"my","lat":5.0295,"lon":102.1543},{"id":1941696,"name":"perkampungan biak a","country":"my","lat":5.4132,"lon":101.9915},{"id":1934099,"name":"kampung kuala penep","country":"my","lat":5.0316,"lon":101.6047},{"id":1933411,"name":"kampung juale","country":"my","lat":5.0094,"lon":102.3849},{"id":1933371,"name":"kampung jerek luar","country":"my","lat":5.1715,"lon":102.0083},{"id":1938908,"name":"kampung tepi parit","country":"my","lat":4.681,"lon":102.0116},{"id":1934381,"name":"kampung laka","country":"my","lat":5.0833,"lon":102.3533},{"id":1933706,"name":"kampung kemara","country":"my","lat":4.786389,"lon":102.300809},{"id":1945219,"name":"terowong","country":"my","lat":4.516667,"lon":101.95},{"id":1934554,"name":"kampung lepar","country":"my","lat":5.1126,"lon":102.342},{"id":1933980,"name":"kampung kuala balar","country":"my","lat":4.9464,"lon":101.5201},{"id":1923934,"name":"kampong keldong","country":"my","lat":5.068338,"lon":101.908599},{"id":1933791,"name":"kampung kercha","country":"my","lat":4.9988,"lon":101.5779},{"id":1939624,"name":"kemajuan tanah chiku tiga","country":"my","lat":4.9689,"lon":102.2008},{"id":1938950,"name":"kampung terong","country":"my","lat":4.9924,"lon":102.378},{"id":1939690,"name":"kemajuan tanah paloh dua","country":"my","lat":5.0023,"lon":102.2332},{"id":1926551,"name":"kampong pasir puteh","country":"my","lat":5.183333,"lon":102.083333},{"id":1939691,"name":"kemajuan tanah paloh satu","country":"my","lat":5.0128,"lon":102.2327},{"id":1931725,"name":"kampung betong","country":"my","lat":5.401368,"lon":101.986571},{"id":1934351,"name":"kampung ladang melayu","country":"my","lat":4.896132,"lon":101.768834},{"id":1941692,"name":"perkampongan felda lebir","country":"my","lat":5.0097,"lon":102.3819},{"id":1925382,"name":"kampong mambong","country":"my","lat":5.45,"lon":102.15},{"id":1931303,"name":"kampung batu bulat","country":"my","lat":4.673303,"lon":101.999813},{"id":1922266,"name":"kampong bunga raya","country":"my","lat":5.416667,"lon":102.083333},{"id":1934091,"name":"kampung kuala panis","country":"my","lat":5.0234,"lon":101.6309},{"id":1939180,"name":"kampung tosin","country":"my","lat":5.2137,"lon":102.0127},{"id":1937610,"name":"kampung star","country":"my","lat":5.0865,"lon":101.9708},{"id":1922901,"name":"kampong ganai","country":"my","lat":5.483333,"lon":101.916667},{"id":1934157,"name":"kampung kuala tekil","country":"my","lat":5.0976,"lon":101.7619},{"id":1933702,"name":"kampung kemahang","country":"my","lat":5.483333,"lon":102.283333},{"id":1934244,"name":"kampung kubang rusa","country":"my","lat":4.598,"lon":101.9901},{"id":1934550,"name":"kampung lepan bunut","country":"my","lat":5.0601,"lon":102.0725},{"id":1939703,"name":"kemajuan tanah panggong lalat","country":"my","lat":4.8905,"lon":101.8739},{"id":1920048,"name":"chegar gua","country":"my","lat":4.8878,"lon":102.3338},{"id":1925742,"name":"kampong mesek","country":"my","lat":5.366667,"lon":102.233333},{"id":1934138,"name":"kampung kuala suma","country":"my","lat":5.0243,"lon":101.6635},{"id":1934387,"name":"kampung lalang","country":"my","lat":4.9066,"lon":101.8224},{"id":1922597,"name":"kampong chupak","country":"my","lat":4.9821,"lon":102.371},{"id":1931215,"name":"kampung baru","country":"my","lat":4.8837,"lon":101.9617},{"id":1934280,"name":"kampung kumbang tengah","country":"my","lat":4.6762,"lon":101.9991},{"id":1932963,"name":"kampung gua layang","country":"my","lat":4.6851,"lon":102.0038},{"id":1935145,"name":"kampung merapuh baharu","country":"my","lat":4.6776,"lon":102.0025},{"id":1924505,"name":"kampong kuala stong","country":"my","lat":5.3067,"lon":101.9918},{"id":1936020,"name":"kampung pasir tumboh","country":"my","lat":5.1276,"lon":102.0242},{"id":1938120,"name":"kampung sungai terah","country":"my","lat":4.8954,"lon":101.9693},{"id":1933975,"name":"kampung kuala aring","country":"my","lat":5.0243,"lon":102.3898},{"id":1937541,"name":"kampung sirian","country":"my","lat":5.0327,"lon":102.0501},{"id":1932654,"name":"kampung dusun rendah","country":"my","lat":5.4217,"lon":101.9472},{"id":1933990,"name":"kampung kuala betis","country":"my","lat":4.9014,"lon":101.7896},{"id":1922799,"name":"kampong dusun manal","country":"my","lat":5.45,"lon":101.9},{"id":1940234,"name":"ladang panderak","country":"my","lat":4.705732,"lon":101.575894},{"id":1934098,"name":"kampung kuala pelar","country":"my","lat":4.9,"lon":101.8},{"id":1921535,"name":"kampong belanga","country":"my","lat":5.466667,"lon":102.25},{"id":1935593,"name":"kampung pakoh","country":"my","lat":4.781083,"lon":102.295794},{"id":1923851,"name":"kampong kawek","country":"my","lat":5.0156,"lon":102.4029},{"id":1933077,"name":"kampung hong","country":"my","lat":4.9579,"lon":102.3576},{"id":1934423,"name":"kampung lanchang","country":"my","lat":4.9776,"lon":102.3987},{"id":1934396,"name":"kampung laluh","country":"my","lat":4.6845,"lon":102.0095},{"id":1933616,"name":"kampung kechapi","country":"my","lat":5.316539,"lon":102.016638},{"id":1931197,"name":"kampung baru batu papan","country":"my","lat":4.8411,"lon":101.9476},{"id":1939623,"name":"kemajuan tanah chiku satu","country":"my","lat":4.9107,"lon":102.1701},{"id":1939621,"name":"kemajuan tanah chiku empat","country":"my","lat":5.0362,"lon":102.189},{"id":1934016,"name":"kampung kuala halak","country":"my","lat":5.0894,"lon":101.6151},{"id":1933997,"name":"kampung kuala chachu","country":"my","lat":4.997,"lon":101.5323},{"id":1932187,"name":"kampung bunggor","country":"my","lat":4.9942,"lon":102.3959},{"id":1927765,"name":"kampong sasak","country":"my","lat":5.018072,"lon":102.384172},{"id":1936342,"name":"kampung perges","country":"my","lat":4.9294,"lon":101.5554},{"id":1934100,"name":"kampung kuala penggei","country":"my","lat":5.0348,"lon":101.7525},{"id":1924325,"name":"kampong kuala anor","country":"my","lat":5.416667,"lon":102.216667},{"id":1933488,"name":"kampung kalil","country":"my","lat":5.1575,"lon":102.0202},{"id":1923592,"name":"kampong jeramah","country":"my","lat":5.466667,"lon":102.183333},{"id":1925032,"name":"kampong limau","country":"my","lat":4.813572,"lon":102.314336},{"id":1923014,"name":"kampong geno","country":"my","lat":4.830607,"lon":102.312881},{"id":1931741,"name":"kampung bihai","country":"my","lat":4.9936,"lon":101.5751},{"id":1924933,"name":"kampong layak","country":"my","lat":5.1184,"lon":102.0203},{"id":1939250,"name":"kampung tunku abdul rahman","country":"my","lat":5.4443,"lon":101.9145},{"id":1922290,"name":"kampong bunut peteri","country":"my","lat":5.45,"lon":102.166667},{"id":1938825,"name":"kampung tembeling","country":"my","lat":5.266667,"lon":102.283333},{"id":1936157,"name":"kampung paya tupai","country":"my","lat":4.7891,"lon":102.0057},{"id":1941948,"name":"pos belau","country":"my","lat":4.7603,"lon":101.7567},{"id":1922028,"name":"kampong bukit jering","country":"my","lat":5.483333,"lon":101.9},{"id":1939115,"name":"kampung tok hala","country":"my","lat":4.8087,"lon":102.3172},{"id":1940389,"name":"limau kasturi","country":"my","lat":5.0791,"lon":102.0696},{"id":1941981,"name":"pulai","country":"my","lat":4.7913,"lon":101.9449},{"id":1937330,"name":"kampung seri bintang","country":"my","lat":5.2738,"lon":102.0088},{"id":1933418,"name":"kampung jubai","country":"my","lat":5.0142,"lon":102.4067},{"id":1934115,"name":"kampung kuala renok","country":"my","lat":4.9519,"lon":102.0054},{"id":1934405,"name":"kampung lambok","country":"my","lat":4.8917,"lon":101.7597},{"id":1929565,"name":"kampong teku","country":"my","lat":5.4,"lon":102.083333},{"id":1938839,"name":"kampung temiang","country":"my","lat":5.35,"lon":102.25},{"id":1934173,"name":"kampung kuala yai","country":"my","lat":5.0319,"lon":101.682},{"id":1925521,"name":"kampong matang","country":"my","lat":4.80061,"lon":102.313458},{"id":1926530,"name":"kampong pasir mas","country":"my","lat":5.3807,"lon":102.0211},{"id":1933400,"name":"kampung jin","country":"my","lat":5.0565,"lon":102.0705},{"id":1939718,"name":"kemajuan tanah renok baharu","country":"my","lat":4.9401,"lon":102.047},{"id":1938149,"name":"kampung sungai tupai","country":"my","lat":4.7702,"lon":102.0113},{"id":1932965,"name":"kampung gua lima","country":"my","lat":4.6835,"lon":102.0015},{"id":1927430,"name":"kampong putat","country":"my","lat":5.0771,"lon":101.8814},{"id":1924088,"name":"kampong kerilla","country":"my","lat":5.433333,"lon":101.933333},{"id":1925932,"name":"kampong nior","country":"my","lat":5.466667,"lon":102.2},{"id":1936661,"name":"kampung pulau layak","country":"my","lat":5.3262,"lon":102.0187},{"id":1933061,"name":"kampung hantu","country":"my","lat":4.786193,"lon":102.297175},{"id":1924018,"name":"kampong kenangor","country":"my","lat":5.466667,"lon":101.916667},{"id":1934063,"name":"kampung kuala layang","country":"my","lat":5.133,"lon":101.5877},{"id":1932858,"name":"kampung gerak","country":"my","lat":4.733333,"lon":101.866667},{"id":1940238,"name":"ladang penghulu setia","country":"my","lat":4.8,"lon":101.766667},{"id":1934159,"name":"kampung kuala telur","country":"my","lat":4.9384,"lon":101.5288},{"id":1941955,"name":"pos mering","country":"my","lat":4.6983,"lon":101.6235},{"id":1931697,"name":"kampung bertam bharu","country":"my","lat":5.1454,"lon":102.0475},{"id":1938923,"name":"kampung teras","country":"my","lat":4.9686,"lon":102.3611},{"id":1931777,"name":"kampung bintang","country":"my","lat":5.483333,"lon":102.233333},{"id":1927866,"name":"kampong seding","country":"my","lat":5.0252,"lon":102.3862},{"id":1933518,"name":"kampung kandek","country":"my","lat":5.4047,"lon":101.979},{"id":1932641,"name":"kampung dusun durian","country":"my","lat":5.2474,"lon":102.025},{"id":1939617,"name":"kemajuan tanah chalil","country":"my","lat":5.0963,"lon":102.2859},{"id":1927255,"name":"kampong puan","country":"my","lat":5.433333,"lon":101.95},{"id":1935146,"name":"kampung merapuh lama","country":"my","lat":4.6968,"lon":102.0024},{"id":1929605,"name":"kampong teling","country":"my","lat":5.116378,"lon":102.013007},{"id":1924976,"name":"kampong lembu","country":"my","lat":5.416667,"lon":101.95},{"id":1943511,"name":"sentong","country":"my","lat":4.7676,"lon":101.7551},{"id":1937353,"name":"kampung seri mahligai","country":"my","lat":5.2477,"lon":102.0099},{"id":1923571,"name":"kampong jenera","country":"my","lat":5.1,"lon":101.766667},{"id":1939177,"name":"kampung tool","country":"my","lat":5.1035,"lon":101.9762},{"id":1922616,"name":"kampong dalam balah","country":"my","lat":5.433333,"lon":101.9},{"id":1926184,"name":"kampong pahah","country":"my","lat":5.133333,"lon":102.033333},{"id":1940259,"name":"ladang sungai terah bahagian subong","country":"my","lat":4.9516,"lon":101.9319},{"id":1925960,"name":"kampong nuri","country":"my","lat":5.039,"lon":102.389},{"id":1934169,"name":"kampung kuala tuang","country":"my","lat":4.7607,"lon":101.9182},{"id":1939719,"name":"kemajuan tanah renok","country":"my","lat":4.9281,"lon":102.0421},{"id":1922959,"name":"kampong gelamai","country":"my","lat":5.099539,"lon":102.106749},{"id":1932403,"name":"kampung cherang","country":"my","lat":4.9786,"lon":102.3698},{"id":1934134,"name":"kampung kuala simpor","country":"my","lat":5.1293,"lon":101.5897},{"id":1940007,"name":"kuala gris","country":"my","lat":5.383333,"lon":102.066667},{"id":1934395,"name":"kampung laling","country":"my","lat":4.9049,"lon":101.9691},{"id":1936884,"name":"kampung riek","country":"my","lat":5.1223,"lon":101.978}]});