callback({"markets":[{"id":1133200,"name":"airpanas","country":"id","lat":-7.85,"lon":125.833333},{"id":1223381,"name":"makadade","country":"id","lat":-8.3,"lon":125.533333},{"id":1267201,"name":"samalakuliba","country":"id","lat":-8.498056,"lon":126.448889},{"id":1197270,"name":"kara","country":"id","lat":-7.983333,"lon":125.85},{"id":1254301,"name":"pillipuang","country":"id","lat":-7.916667,"lon":126.166667},{"id":1224040,"name":"mamau","country":"id","lat":-7.783333,"lon":125.866667},{"id":1219592,"name":"limar","country":"id","lat":-7.9,"lon":126.033333},{"id":1185122,"name":"hiai","country":"id","lat":-7.916667,"lon":126.35},{"id":1218513,"name":"leswerang","country":"id","lat":-7.866667,"lon":126.416667},{"id":1227109,"name":"mau meta","country":"id","lat":-8.25,"lon":125.583333},{"id":1252733,"name":"perei","country":"id","lat":-7.733333,"lon":125.916667},{"id":1186092,"name":"ilwaki","country":"id","lat":-7.933333,"lon":126.433333},{"id":1267993,"name":"sanaruamang","country":"id","lat":-7.6,"lon":126.433333},{"id":1293564,"name":"tilai","country":"id","lat":-7.916667,"lon":125.95},{"id":1266391,"name":"sakir","country":"id","lat":-7.65,"lon":126.433333},{"id":1220101,"name":"lioppa","country":"id","lat":-7.666667,"lon":126.0},{"id":1184923,"name":"hau","country":"id","lat":-8.483333,"lon":125.883333},{"id":1184903,"name":"hatpaas","country":"id","lat":-7.933333,"lon":126.233333},{"id":1213990,"name":"lalikki","country":"id","lat":-7.683333,"lon":126.333333},{"id":1239552,"name":"oude tomotang","country":"id","lat":-7.733333,"lon":126.2},{"id":1194155,"name":"kalisana","country":"id","lat":-7.933333,"lon":125.833333},{"id":1233941,"name":"naoemetang","country":"id","lat":-7.716667,"lon":126.166667},{"id":1299581,"name":"toro","country":"id","lat":-8.216667,"lon":125.583333},{"id":1289500,"name":"tara","country":"id","lat":-7.683333,"lon":126.35},{"id":1233982,"name":"napar","country":"id","lat":-7.7,"lon":125.933333},{"id":1186053,"name":"ililua","country":"id","lat":-7.7,"lon":126.416667}]});