callback({"markets":[{"id":2577344,"name":"bada\u0027i` as sighawa","country":"sa","lat":26.731389,"lon":42.726667},{"id":2577137,"name":"as si`ayyirah","country":"sa","lat":27.273408,"lon":43.175946},{"id":2576278,"name":"al makhul","country":"sa","lat":26.624449,"lon":42.607135},{"id":2576398,"name":"al mukharim","country":"sa","lat":26.791248,"lon":43.23509},{"id":2577185,"name":"as sulubiyah","country":"sa","lat":26.752099,"lon":42.795943},{"id":2577216,"name":"ath thu`aylibi","country":"sa","lat":26.883333,"lon":42.566667},{"id":2577239,"name":"at tiraq","country":"sa","lat":26.679938,"lon":43.307816},{"id":2575602,"name":"al bada\u0027i`","country":"sa","lat":27.445612,"lon":42.981278},{"id":2579021,"name":"quwara","country":"sa","lat":26.781361,"lon":43.466605},{"id":2575712,"name":"al far`ah","country":"sa","lat":26.755102,"lon":42.761018},{"id":2579354,"name":"shari","country":"sa","lat":27.254009,"lon":43.398213},{"id":2575535,"name":"al artawi ash shamali","country":"sa","lat":26.631544,"lon":42.691322},{"id":2577729,"name":"faydat yaklib","country":"sa","lat":26.886195,"lon":43.143728},{"id":2578650,"name":"mishash jurud","country":"sa","lat":26.558366,"lon":42.781585},{"id":2575347,"name":"ac-chafe","country":"sa","lat":27.076955,"lon":43.023196},{"id":2576187,"name":"al kihayfiyah","country":"sa","lat":27.199233,"lon":42.987394},{"id":2577736,"name":"fejd","country":"sa","lat":27.114228,"lon":42.518175},{"id":2579819,"name":"`usaylah","country":"sa","lat":26.565739,"lon":42.823714},{"id":2575737,"name":"al faydah","country":"sa","lat":26.636504,"lon":42.678679},{"id":2576797,"name":"an nijibah","country":"sa","lat":26.596003,"lon":42.735026},{"id":2576568,"name":"al quraymisah","country":"sa","lat":27.033333,"lon":43.083333},{"id":2575492,"name":"al ajfar","country":"sa","lat":27.473055,"lon":42.991004},{"id":2577245,"name":"at tulayhah","country":"sa","lat":27.390626,"lon":43.250371},{"id":2577341,"name":"bada\u0027i` al makhul","country":"sa","lat":26.586552,"lon":42.561725},{"id":2579712,"name":"umm al khashabah","country":"sa","lat":27.0,"lon":43.033333},{"id":2576651,"name":"al `uqlah","country":"sa","lat":26.801098,"lon":43.49165},{"id":2577141,"name":"as sighawa","country":"sa","lat":26.77826,"lon":42.695047},{"id":2576444,"name":"al mutaywi ash shamali","country":"sa","lat":26.515429,"lon":42.589637},{"id":2575817,"name":"al hadidiyah","country":"sa","lat":26.902235,"lon":43.35914},{"id":2578370,"name":"kihlah","country":"sa","lat":26.610432,"lon":42.643787}]});