callback({"markets":[{"id":2536212,"name":"tikhorechenskoye","country":"ru","lat":54.791389,"lon":20.0675},{"id":2509309,"name":"schwanis","country":"ru","lat":54.555077,"lon":20.186302},{"id":2497462,"name":"prokhladnoye","country":"ru","lat":54.745292,"lon":20.114359},{"id":2572893,"name":"zorgenau","country":"ru","lat":54.851465,"lon":19.95355},{"id":2426859,"name":"komsomolskiy","country":"ru","lat":54.658909,"lon":20.108176},{"id":2531217,"name":"svetlovo","country":"ru","lat":54.897796,"lon":20.175694},{"id":2496938,"name":"primorskoye novoye","country":"ru","lat":54.54329,"lon":20.056138},{"id":2500504,"name":"rakushino","country":"ru","lat":54.846944,"lon":19.965556},{"id":2548546,"name":"vashki","country":"ru","lat":54.843889,"lon":20.379444},{"id":2404345,"name":"gross holstein","country":"ru","lat":54.695039,"lon":20.394902},{"id":2559519,"name":"wargitten","country":"ru","lat":54.555275,"lon":20.281362},{"id":2461035,"name":"mollehnen","country":"ru","lat":54.871409,"lon":20.494413},{"id":2449211,"name":"mahnsfeld","country":"ru","lat":54.579444,"lon":20.454722},{"id":2479943,"name":"olkhovoye","country":"ru","lat":54.864882,"lon":20.150004},{"id":2440646,"name":"kuznetskoye","country":"ru","lat":54.81625,"lon":20.395699},{"id":2539160,"name":"tropinino","country":"ru","lat":54.553596,"lon":20.091846},{"id":2395419,"name":"elchdorf","country":"ru","lat":54.823294,"lon":20.347409},{"id":2457546,"name":"mendeleyevo","country":"ru","lat":54.72186,"lon":20.422716},{"id":2373244,"name":"bludau","country":"ru","lat":54.7375,"lon":20.093889},{"id":2404328,"name":"gross-blyumenau","country":"ru","lat":54.735301,"lon":20.164134},{"id":2397985,"name":"gaffken","country":"ru","lat":54.772426,"lon":20.023262},{"id":2454891,"name":"markehnen","country":"ru","lat":54.847704,"lon":20.142122},{"id":2559580,"name":"wosegau","country":"ru","lat":54.943956,"lon":20.461099},{"id":2573484,"name":"zvyagintsevo","country":"ru","lat":54.847656,"lon":20.369716},{"id":2367015,"name":"baltijsk","country":"ru","lat":54.65382,"lon":19.911036},{"id":2533228,"name":"tannenwalde","country":"ru","lat":54.769096,"lon":20.454017},{"id":2397427,"name":"follendorf","country":"ru","lat":54.522778,"lon":19.960556},{"id":2571928,"name":"zielkeim","country":"ru","lat":54.804131,"lon":20.415342},{"id":2491628,"name":"podorozhnoye","country":"ru","lat":54.737432,"lon":20.109263},{"id":2404336,"name":"gross drebnau","country":"ru","lat":54.853529,"lon":20.289068},{"id":2502463,"name":"ringels","country":"ru","lat":54.874544,"lon":20.427787},{"id":2559567,"name":"wolitta","country":"ru","lat":54.557222,"lon":20.024444},{"id":2404359,"name":"gross mischen","country":"ru","lat":54.816629,"lon":20.419993},{"id":2501872,"name":"regehnen","country":"ru","lat":54.887015,"lon":20.210099},{"id":2445393,"name":"listovoye","country":"ru","lat":54.882573,"lon":20.10381},{"id":2456770,"name":"medovoye","country":"ru","lat":54.534739,"lon":20.371848},{"id":2466703,"name":"neuhauser","country":"ru","lat":54.681928,"lon":19.927805},{"id":2461058,"name":"molochnoye","country":"ru","lat":54.846716,"lon":20.312718},{"id":2495857,"name":"pottlitten","country":"ru","lat":54.522403,"lon":20.124944},{"id":2373754,"name":"bogatoye","country":"ru","lat":54.906394,"lon":20.138677},{"id":2507185,"name":"salskoye","country":"ru","lat":54.91318,"lon":20.164252},{"id":2523571,"name":"spasskoye","country":"ru","lat":54.696944,"lon":20.270556},{"id":2431817,"name":"krants","country":"ru","lat":54.958926,"lon":20.476684},{"id":2487185,"name":"pervomayskiy","country":"ru","lat":54.754942,"lon":20.491602},{"id":2367948,"name":"barwalde","country":"ru","lat":54.720416,"lon":20.302682},{"id":2559520,"name":"warnicken","country":"ru","lat":54.94337,"lon":20.081955},{"id":2444636,"name":"lichtenhagen","country":"ru","lat":54.604054,"lon":20.435887},{"id":2403093,"name":"goythenen","country":"ru","lat":54.881379,"lon":20.299326},{"id":2517363,"name":"shumnoye","country":"ru","lat":54.907947,"lon":20.348395},{"id":2358389,"name":"adlig pohren","country":"ru","lat":54.543351,"lon":20.133298},{"id":2462250,"name":"moskovskoye","country":"ru","lat":54.526155,"lon":20.044181},{"id":2531232,"name":"svetloye","country":"ru","lat":54.570886,"lon":20.367223},{"id":2485367,"name":"pavlinino","country":"ru","lat":54.792672,"lon":20.329767},{"id":2411196,"name":"kalgen","country":"ru","lat":54.670516,"lon":20.439355},{"id":2495957,"name":"povarovka","country":"ru","lat":54.832302,"lon":20.011906},{"id":2423654,"name":"klintsovka","country":"ru","lat":54.934526,"lon":20.452962},{"id":2500407,"name":"rakitnoye","country":"ru","lat":54.890955,"lon":20.122306},{"id":2466699,"name":"neuendorf","country":"ru","lat":54.755997,"lon":20.010769},{"id":2485170,"name":"patersort","country":"ru","lat":54.581321,"lon":20.155882},{"id":2496009,"name":"powayen","country":"ru","lat":54.748213,"lon":20.195292},{"id":2400404,"name":"godnicken","country":"ru","lat":54.754311,"lon":20.049998},{"id":2526304,"name":"staroye barkasovo","country":"ru","lat":54.917754,"lon":20.029261},{"id":2387638,"name":"cholmogorovka","country":"ru","lat":54.787889,"lon":20.414819},{"id":2504348,"name":"rudau","country":"ru","lat":54.873823,"lon":20.460185},{"id":2483259,"name":"ozerovo","country":"ru","lat":54.892129,"lon":20.458547},{"id":2537316,"name":"tolklauten","country":"ru","lat":54.886794,"lon":20.184596},{"id":2506354,"name":"sacherau","country":"ru","lat":54.822086,"lon":20.015067},{"id":2515771,"name":"shipovka","country":"ru","lat":54.743834,"lon":20.192306},{"id":2404340,"name":"gross friedrichsberg","country":"ru","lat":54.726764,"lon":20.397152},{"id":2432715,"name":"krasnodonskoye","country":"ru","lat":54.501389,"lon":19.993611},{"id":2540424,"name":"tsvetnoye","country":"ru","lat":54.765556,"lon":20.079722},{"id":2559517,"name":"wargenau","country":"ru","lat":54.946561,"lon":20.4409},{"id":2509443,"name":"seerappen","country":"ru","lat":54.743772,"lon":20.280884},{"id":2442243,"name":"laskino","country":"ru","lat":54.650714,"lon":20.446424},{"id":2456824,"name":"medvedevo","country":"ru","lat":54.80728,"lon":20.118262},{"id":2503288,"name":"romansgut","country":"ru","lat":54.503889,"lon":20.024444},{"id":2443910,"name":"lesnoye-novoye","country":"ru","lat":54.726501,"lon":20.357234},{"id":2492858,"name":"polennen","country":"ru","lat":54.803784,"lon":20.049099},{"id":2495159,"name":"poselok","country":"ru","lat":54.610636,"lon":19.855543},{"id":2484055,"name":"panayevo","country":"ru","lat":54.880278,"lon":20.283333},{"id":2392925,"name":"drugehnen","country":"ru","lat":54.835053,"lon":20.345843},{"id":2466704,"name":"neuhof","country":"ru","lat":54.806557,"lon":20.499593},{"id":2549205,"name":"vaydanen","country":"ru","lat":54.872069,"lon":20.098455},{"id":2559556,"name":"wiskiauten","country":"ru","lat":54.924322,"lon":20.480213},{"id":2404317,"name":"gros-kheydekrug","country":"ru","lat":54.698073,"lon":20.247578},{"id":2398767,"name":"gauten","country":"ru","lat":54.807822,"lon":20.028442},{"id":2559626,"name":"yablochkino","country":"ru","lat":54.533601,"lon":20.096769},{"id":2404351,"name":"gross kuhren","country":"ru","lat":54.941913,"lon":20.03745},{"id":2426793,"name":"kompehnen","country":"ru","lat":54.780228,"lon":20.094483},{"id":2438323,"name":"kuntsevo","country":"ru","lat":54.526159,"lon":20.091615},{"id":2500658,"name":"rantau","country":"ru","lat":54.951031,"lon":20.257762},{"id":2428209,"name":"korchagino","country":"ru","lat":54.865146,"lon":20.446757},{"id":2372417,"name":"bieskobnicken","country":"ru","lat":54.890257,"lon":19.992163},{"id":2423145,"name":"klein kuhren","country":"ru","lat":54.949144,"lon":20.012338},{"id":2472898,"name":"novodorozhnyy","country":"ru","lat":54.655518,"lon":20.480455},{"id":2423141,"name":"klein dirschkeim","country":"ru","lat":54.865392,"lon":20.084853},{"id":2559515,"name":"wangnicken","country":"ru","lat":54.501111,"lon":20.013056},{"id":2389233,"name":"dargen","country":"ru","lat":54.742265,"lon":19.984115},{"id":2448921,"name":"lyudvigsort","country":"ru","lat":54.570254,"lon":20.170989},{"id":2470884,"name":"nortycken","country":"ru","lat":54.920761,"lon":20.158687},{"id":2516817,"name":"shosseynyy","country":"ru","lat":54.668931,"lon":20.412098},{"id":2461131,"name":"molodogvardeyskoye","country":"ru","lat":54.943056,"lon":20.009444},{"id":2521618,"name":"sollnicken","country":"ru","lat":54.539444,"lon":20.368889},{"id":2425863,"name":"kolomenskoye","country":"ru","lat":54.920278,"lon":20.094444},{"id":2366236,"name":"bakalino","country":"ru","lat":54.923889,"lon":19.950556},{"id":2568309,"name":"zarechnyy","country":"ru","lat":54.9425,"lon":20.175833},{"id":2486547,"name":"pereslavskoye","country":"ru","lat":54.81363,"lon":20.256908},{"id":2455122,"name":"marshenen","country":"ru","lat":54.700344,"lon":20.219662},{"id":2524806,"name":"stapornen","country":"ru","lat":54.871839,"lon":20.199812},{"id":2424111,"name":"klyukvennoye","country":"ru","lat":54.892839,"lon":20.111236},{"id":2490516,"name":"pluttwinnen","country":"ru","lat":54.843469,"lon":20.404989},{"id":2494595,"name":"porschken","country":"ru","lat":54.571006,"lon":20.240767},{"id":2500610,"name":"ramsen","country":"ru","lat":54.576904,"lon":20.428826},{"id":2427296,"name":"konigsberg-amalienau","country":"ru","lat":54.730462,"lon":20.428541},{"id":2490595,"name":"pobeda","country":"ru","lat":54.532445,"lon":20.467414},{"id":2568661,"name":"zashchitnoye","country":"ru","lat":54.838056,"lon":20.463333},{"id":2404346,"name":"gross hubnicken","country":"ru","lat":54.896718,"lon":19.94468},{"id":2380665,"name":"brusterort","country":"ru","lat":54.959717,"lon":19.983009},{"id":2508187,"name":"sarayevo","country":"ru","lat":54.8925,"lon":19.971944},{"id":2511174,"name":"seregino","country":"ru","lat":54.740556,"lon":20.060278},{"id":2463527,"name":"mushkino","country":"ru","lat":54.569159,"lon":20.328996},{"id":2399329,"name":"germau","country":"ru","lat":54.839347,"lon":20.014149},{"id":2454800,"name":"marinskoye","country":"ru","lat":54.92813,"lon":19.964299},{"id":2396377,"name":"fedorovo","country":"ru","lat":54.852527,"lon":20.456156},{"id":2555102,"name":"vodnoye","country":"ru","lat":54.877054,"lon":20.156737},{"id":2495525,"name":"posselau","country":"ru","lat":54.918476,"lon":20.207109},{"id":2531195,"name":"svetlogorsk","country":"ru","lat":54.939874,"lon":20.154787},{"id":2559546,"name":"widitten","country":"ru","lat":54.701615,"lon":20.206074},{"id":2438015,"name":"kumenen","country":"ru","lat":54.82122,"lon":20.216012},{"id":2390892,"name":"dimitrovo","country":"ru","lat":54.774117,"lon":20.41327},{"id":2557426,"name":"vozdushnyy","country":"ru","lat":54.717086,"lon":20.440751},{"id":2545204,"name":"usakovo","country":"ru","lat":54.61298,"lon":20.243521},{"id":2372888,"name":"bladyau","country":"ru","lat":54.502015,"lon":20.098934},{"id":2559547,"name":"wieschkitten","country":"ru","lat":54.926373,"lon":20.389416},{"id":2561029,"name":"yantarovka","country":"ru","lat":54.911026,"lon":20.004325},{"id":2400643,"name":"gollau","country":"ru","lat":54.618779,"lon":20.488505},{"id":2531298,"name":"svetlyy","country":"ru","lat":54.67501,"lon":20.134733},{"id":2448325,"name":"lyaptau","country":"ru","lat":54.897194,"lon":20.49148},{"id":2405404,"name":"gusevka","country":"ru","lat":54.858692,"lon":20.094132},{"id":2503476,"name":"rosignaiten","country":"ru","lat":54.810465,"lon":20.341738},{"id":2445388,"name":"listopadovka","country":"ru","lat":54.852368,"lon":20.151034},{"id":2463032,"name":"mulsen","country":"ru","lat":54.914365,"lon":20.471708},{"id":2388675,"name":"cvetkovo","country":"ru","lat":54.623242,"lon":20.425794},{"id":2411623,"name":"kallen","country":"ru","lat":54.770278,"lon":20.076111},{"id":2415326,"name":"kaspershofen","country":"ru","lat":54.744074,"lon":20.074731},{"id":2553510,"name":"veseloe","country":"ru","lat":54.546667,"lon":19.97},{"id":2480037,"name":"olshanka","country":"ru","lat":54.903187,"lon":20.193925},{"id":2510011,"name":"selskiy","country":"ru","lat":54.938056,"lon":20.174722},{"id":2363284,"name":"aralskoye","country":"ru","lat":54.911271,"lon":20.196917},{"id":2520124,"name":"sluthenen","country":"ru","lat":54.513889,"lon":20.042222},{"id":2429536,"name":"kosa","country":"ru","lat":54.628259,"lon":19.875946},{"id":2397323,"name":"fishkhauzen","country":"ru","lat":54.739048,"lon":20.005529},{"id":2483898,"name":"palmniken","country":"ru","lat":54.871023,"lon":19.940157},{"id":2502007,"name":"rensegut","country":"ru","lat":54.524444,"lon":20.025278},{"id":2503206,"name":"romanovo","country":"ru","lat":54.894198,"lon":20.28059},{"id":2433098,"name":"krasnotorovka","country":"ru","lat":54.897212,"lon":20.020002},{"id":2500109,"name":"radnicken","country":"ru","lat":54.880165,"lon":20.352197},{"id":2373405,"name":"bobrovka","country":"ru","lat":54.929153,"lon":20.212793},{"id":2572921,"name":"zori","country":"ru","lat":54.930358,"lon":20.184666},{"id":2464479,"name":"nadrau","country":"ru","lat":54.881965,"lon":20.407864},{"id":2398536,"name":"garbzayden","country":"ru","lat":54.926171,"lon":20.324236},{"id":2538396,"name":"trankwitz","country":"ru","lat":54.751879,"lon":20.39497},{"id":2375873,"name":"bolshedorozhnoye","country":"ru","lat":54.541536,"lon":20.196287},{"id":2443636,"name":"lesenkovo","country":"ru","lat":54.902897,"lon":20.104985},{"id":2385120,"name":"cheremukhino","country":"ru","lat":54.746944,"lon":20.035},{"id":2456736,"name":"mednicken","country":"ru","lat":54.776122,"lon":20.356402},{"id":2502471,"name":"rippen","country":"ru","lat":54.548054,"lon":20.164219},{"id":2553861,"name":"vetrovo","country":"ru","lat":54.563512,"lon":20.115066},{"id":2445985,"name":"logvino","country":"ru","lat":54.766046,"lon":20.207786},{"id":2502821,"name":"rogachevo","country":"ru","lat":54.874,"lon":20.178733},{"id":2392266,"name":"donskoye","country":"ru","lat":54.938424,"lon":19.968208},{"id":2436194,"name":"krylovka","country":"ru","lat":54.739567,"lon":20.046965},{"id":2523396,"name":"spandienen","country":"ru","lat":54.679987,"lon":20.446391},{"id":2402027,"name":"gorkovskoye","country":"ru","lat":54.888403,"lon":20.224679},{"id":2465451,"name":"nautzau","country":"ru","lat":54.90923,"lon":20.403466},{"id":2559549,"name":"willgaiten","country":"ru","lat":54.800046,"lon":20.301512},{"id":2436867,"name":"kudrinka","country":"ru","lat":54.856614,"lon":20.477399},{"id":2410832,"name":"kahlholz","country":"ru","lat":54.573333,"lon":19.988611},{"id":2401027,"name":"golubevo","country":"ru","lat":54.61493,"lon":20.395128},{"id":2496583,"name":"priboy","country":"ru","lat":54.940727,"lon":20.406027},{"id":2531862,"name":"sychevo","country":"ru","lat":54.838712,"lon":20.034602},{"id":2404445,"name":"grunhoff","country":"ru","lat":54.906088,"lon":20.369995},{"id":2466862,"name":"new-kuhren","country":"ru","lat":54.950826,"lon":20.227479},{"id":2518720,"name":"sirenevo","country":"ru","lat":54.858634,"lon":20.422537},{"id":2416941,"name":"kerschnehnen","country":"ru","lat":54.890495,"lon":20.401007},{"id":2441558,"name":"ladygino","country":"ru","lat":54.603229,"lon":20.212083},{"id":2431775,"name":"kraam","country":"ru","lat":54.899431,"lon":20.124382},{"id":2514066,"name":"shchorsovo","country":"ru","lat":54.848333,"lon":20.055},{"id":2559521,"name":"warschken","country":"ru","lat":54.856827,"lon":19.972091},{"id":2509242,"name":"schalben","country":"ru","lat":54.927147,"lon":20.004496},{"id":2445592,"name":"lixeiden","country":"ru","lat":54.914274,"lon":20.224691},{"id":2543932,"name":"ulyanovka","country":"ru","lat":54.598872,"lon":20.209525},{"id":2423144,"name":"klein hubnicken","country":"ru","lat":54.885231,"lon":19.969935},{"id":2507860,"name":"sankt lorenz","country":"ru","lat":54.916767,"lon":20.173615},{"id":2446473,"name":"loppohnen","country":"ru","lat":54.950872,"lon":20.189563},{"id":2446476,"name":"lopsienen","country":"ru","lat":54.879235,"lon":20.184974},{"id":2471020,"name":"nottnicken","country":"ru","lat":54.912914,"lon":19.974035}]});