callback({"markets":[{"id":3049631,"name":"sylvan bay summer home area","country":"us","lat":42.9544444,"lon":-109.7844444},{"id":3049295,"name":"daniel","country":"us","lat":42.8644444,"lon":-110.0702778},{"id":3049375,"name":"halfway","country":"us","lat":42.8086111,"lon":-110.3380556},{"id":3049468,"name":"marbleton","country":"us","lat":42.5536111,"lon":-110.1086111},{"id":3049282,"name":"cora","country":"us","lat":42.9397222,"lon":-109.9788889},{"id":3049296,"name":"daniel junction","country":"us","lat":42.89,"lon":-110.0680556},{"id":3049480,"name":"merna","country":"us","lat":42.9463889,"lon":-110.34},{"id":3049213,"name":"big piney","country":"us","lat":42.5383333,"lon":-110.1136111},{"id":3049541,"name":"pinedale","country":"us","lat":42.8666667,"lon":-109.8602778},{"id":3049234,"name":"bronx","country":"us","lat":42.9927778,"lon":-110.115},{"id":3049509,"name":"new fork","country":"us","lat":42.7016667,"lon":-109.7144444},{"id":3049222,"name":"bondurant","country":"us","lat":43.2030556,"lon":-110.4080556},{"id":3049409,"name":"jack pine","country":"us","lat":43.3261111,"lon":-110.4333333},{"id":3049228,"name":"boulder","country":"us","lat":42.7483333,"lon":-109.7169444}]});