callback({"markets":[{"id":2464571,"name":"naginskoye","country":"ru","lat":47.3,"lon":136.166667},{"id":2566135,"name":"yuzhnyy","country":"ru","lat":47.110278,"lon":135.595833},{"id":2533243,"name":"tantsanza","country":"ru","lat":46.666667,"lon":136.216667},{"id":2391934,"name":"dolmi","country":"ru","lat":47.374167,"lon":135.620833},{"id":2396131,"name":"fandulaza","country":"ru","lat":46.733333,"lon":135.683333},{"id":2415481,"name":"katen","country":"ru","lat":47.388611,"lon":136.096111},{"id":2547841,"name":"valikan","country":"ru","lat":46.716667,"lon":135.55},{"id":2530764,"name":"sutungu","country":"ru","lat":46.75,"lon":136.016667}]});