callback({"markets":[{"id":1458330,"name":"musaabad","country":"ir","lat":36.63528,"lon":51.517683},{"id":1446648,"name":"kulede","country":"ir","lat":36.553841,"lon":52.30517},{"id":1383823,"name":"allu","country":"ir","lat":36.508273,"lon":52.405209},{"id":1387101,"name":"ashki mahalleh","country":"ir","lat":36.530783,"lon":52.343294},{"id":1494779,"name":"telaram","country":"ir","lat":36.546533,"lon":52.27987},{"id":1491774,"name":"taj ed din kola","country":"ir","lat":36.562686,"lon":51.811471},{"id":1450377,"name":"mahi chal","country":"ir","lat":36.506893,"lon":51.581221},{"id":1379244,"name":"`abbasa","country":"ir","lat":36.536241,"lon":51.995924},{"id":1390509,"name":"balal","country":"ir","lat":36.567511,"lon":51.821171},{"id":1415192,"name":"`ezzat","country":"ir","lat":36.543833,"lon":51.917225},{"id":1447906,"name":"kuy-e tamishan","country":"ir","lat":36.586324,"lon":52.064347},{"id":1445172,"name":"kones-e marz","country":"ir","lat":36.57809,"lon":52.401914},{"id":1440491,"name":"khaneh","country":"ir","lat":36.513747,"lon":51.517311},{"id":1501147,"name":"zard ab","country":"ir","lat":36.605144,"lon":52.397068},{"id":1501838,"name":"zekiabad","country":"ir","lat":36.527976,"lon":52.041274},{"id":1463721,"name":"palham koti","country":"ir","lat":36.507767,"lon":52.492571},{"id":1457291,"name":"mordab","country":"ir","lat":36.510018,"lon":52.088629},{"id":1383437,"name":"`ali kola-ye ahi","country":"ir","lat":36.553356,"lon":52.419095},{"id":1498126,"name":"varka deh","country":"ir","lat":36.527696,"lon":52.244808},{"id":1486664,"name":"sheykhabad","country":"ir","lat":36.559717,"lon":52.396481},{"id":1492816,"name":"tamishan","country":"ir","lat":36.566667,"lon":52.05},{"id":1444481,"name":"kola churan","country":"ir","lat":36.552302,"lon":51.939815},{"id":1483801,"name":"shah koti","country":"ir","lat":36.581584,"lon":52.43365},{"id":1445675,"name":"korsi kola-ye pa\u0027in","country":"ir","lat":36.555342,"lon":52.479801},{"id":1451918,"name":"manurich","country":"ir","lat":36.627968,"lon":52.3166},{"id":1452296,"name":"marij mahalleh","country":"ir","lat":36.627391,"lon":52.459124},{"id":1455388,"name":"mirdeh","country":"ir","lat":36.573373,"lon":52.410812},{"id":1437455,"name":"kardgar kola","country":"ir","lat":36.513014,"lon":52.062951},{"id":1483799,"name":"shah kola-ye surak","country":"ir","lat":36.52603,"lon":52.439049},{"id":1387165,"name":"ashrafabad","country":"ir","lat":36.513401,"lon":52.455124},{"id":1437446,"name":"kardegar mahalleh","country":"ir","lat":36.639428,"lon":52.498677},{"id":1384448,"name":"amir rud","country":"ir","lat":36.634424,"lon":51.566863},{"id":1478581,"name":"sang-e bast","country":"ir","lat":36.546355,"lon":52.37525},{"id":1444574,"name":"kola mahalleh","country":"ir","lat":36.512241,"lon":52.348818},{"id":1500247,"name":"yusef reza","country":"ir","lat":36.510717,"lon":52.35968},{"id":1417392,"name":"gandyab-e pa\u0027in","country":"ir","lat":36.533333,"lon":52.033333},{"id":1459583,"name":"narges kati","country":"ir","lat":36.536737,"lon":52.217846},{"id":1444575,"name":"kola mard","country":"ir","lat":36.524528,"lon":51.527687},{"id":1478847,"name":"sankuti","country":"ir","lat":36.502254,"lon":52.050216},{"id":1424772,"name":"hajji kola-ye pa\u0027in","country":"ir","lat":36.658101,"lon":52.425445},{"id":1478129,"name":"salyakoti","country":"ir","lat":36.535278,"lon":51.997778},{"id":1392515,"name":"barik mahalleh","country":"ir","lat":36.570999,"lon":52.449311},{"id":1385153,"name":"anna deh","country":"ir","lat":36.524491,"lon":52.143446},{"id":1438200,"name":"kaseb mahalleh","country":"ir","lat":36.500161,"lon":52.282164},{"id":1452267,"name":"margir deh","country":"ir","lat":36.62198,"lon":51.565307},{"id":1495300,"name":"tiryak deh-e pa\u0027in","country":"ir","lat":36.548239,"lon":51.942645},{"id":1425756,"name":"har do rud","country":"ir","lat":36.519755,"lon":52.057406},{"id":1441756,"name":"khesht sar","country":"ir","lat":36.609875,"lon":52.195345},{"id":1437412,"name":"karchak-e nava\u0027i","country":"ir","lat":36.547344,"lon":52.320603},{"id":1455333,"name":"mir alamdeh","country":"ir","lat":36.551819,"lon":52.293721},{"id":1450723,"name":"mahut kola","country":"ir","lat":36.535181,"lon":52.443861},{"id":1397283,"name":"bundeh-e bala","country":"ir","lat":36.571373,"lon":52.23644},{"id":1483162,"name":"shab khoskaj","country":"ir","lat":36.624453,"lon":51.548953},{"id":1383159,"name":"ali abad kheyrood kenar","country":"ir","lat":36.631554,"lon":51.523259},{"id":1426845,"name":"hemmatabad","country":"ir","lat":36.548866,"lon":52.349137},{"id":1432155,"name":"juti kola","country":"ir","lat":36.575684,"lon":52.284321},{"id":1452975,"name":"ma`sumabad","country":"ir","lat":36.525973,"lon":52.224642},{"id":1497661,"name":"valik-e bala","country":"ir","lat":36.566079,"lon":52.427689},{"id":1424554,"name":"hajjiabad-e valik","country":"ir","lat":36.559984,"lon":52.407679},{"id":1395487,"name":"bisheh kala","country":"ir","lat":36.642577,"lon":52.35833},{"id":1484040,"name":"shahrak-e aftabgardan","country":"ir","lat":36.585367,"lon":52.059405},{"id":1487582,"name":"shir","country":"ir","lat":36.674125,"lon":52.478069},{"id":1457307,"name":"mordi","country":"ir","lat":36.540276,"lon":52.108037},{"id":1484462,"name":"shahrak-e naft-e rostam rud","country":"ir","lat":36.592858,"lon":52.099144},{"id":1452634,"name":"masgun","country":"ir","lat":36.501056,"lon":52.271785},{"id":1496167,"name":"toskatok","country":"ir","lat":36.583525,"lon":51.78134},{"id":1384063,"name":"`alvi kola","country":"ir","lat":36.558758,"lon":51.895161},{"id":1466978,"name":"qadi mahalleh","country":"ir","lat":36.515637,"lon":52.34258},{"id":1490976,"name":"surak","country":"ir","lat":36.519,"lon":52.423},{"id":1397919,"name":"chahar afra","country":"ir","lat":36.616612,"lon":52.342889},{"id":1384226,"name":"aminabad","country":"ir","lat":36.530448,"lon":52.42843},{"id":1500948,"name":"zangi kola","country":"ir","lat":36.573519,"lon":52.341049},{"id":1380744,"name":"abu ol hasanabad","country":"ir","lat":36.521063,"lon":52.477025},{"id":1397284,"name":"bundeh-e pa\u0027in","country":"ir","lat":36.577795,"lon":52.233669},{"id":1404849,"name":"dangepia","country":"ir","lat":36.514238,"lon":52.479207},{"id":1500947,"name":"zangi kola-ye pa\u0027in","country":"ir","lat":36.642088,"lon":52.428214},{"id":1429586,"name":"iz deh-e pa\u0027in","country":"ir","lat":36.6,"lon":52.116667},{"id":1425728,"name":"haraz","country":"ir","lat":36.627222,"lon":52.471389},{"id":1381631,"name":"ahi mahalleh","country":"ir","lat":36.611288,"lon":52.327999},{"id":1412363,"name":"do tireh","country":"ir","lat":36.578505,"lon":52.469012},{"id":1432396,"name":"kachap-e kolva","country":"ir","lat":36.6,"lon":52.466667},{"id":1482926,"name":"seyyed kala","country":"ir","lat":36.502604,"lon":52.089016},{"id":1490771,"name":"sulehdeh","country":"ir","lat":36.573523,"lon":52.013823},{"id":1391580,"name":"banjkul-e bala","country":"ir","lat":36.56063,"lon":51.919777},{"id":1495235,"name":"tirbijan","country":"ir","lat":36.572,"lon":52.44},{"id":1428210,"name":"hoseynabad-e qarah gozlu","country":"ir","lat":36.52415,"lon":52.325972},{"id":1462463,"name":"oojaksar","country":"ir","lat":36.65,"lon":51.6},{"id":1445887,"name":"kowsar deh","country":"ir","lat":36.533333,"lon":52.216667},{"id":1449429,"name":"litangan","country":"ir","lat":36.629667,"lon":51.545336},{"id":1478663,"name":"sangin deh","country":"ir","lat":36.515591,"lon":52.120874},{"id":1496803,"name":"tuska pushka","country":"ir","lat":36.528661,"lon":51.701206},{"id":1478763,"name":"sangtu","country":"ir","lat":36.616667,"lon":51.55},{"id":1482116,"name":"selia kati","country":"ir","lat":36.516271,"lon":52.037149},{"id":1500946,"name":"zangi kola-ye bala","country":"ir","lat":36.638589,"lon":52.418387},{"id":1440891,"name":"kharabeh-ye mian rud","country":"ir","lat":36.531639,"lon":52.37106},{"id":1382489,"name":"`alamdeh-e sharqi","country":"ir","lat":36.647678,"lon":52.374351},{"id":1459543,"name":"narenjbon","country":"ir","lat":36.546741,"lon":51.869983},{"id":1395491,"name":"bisheh mahalleh","country":"ir","lat":36.520902,"lon":52.482847},{"id":1459368,"name":"nanva kola","country":"ir","lat":36.525027,"lon":52.113799},{"id":1465263,"name":"pey kola","country":"ir","lat":36.567271,"lon":51.831179},{"id":1397501,"name":"bur mahalleh","country":"ir","lat":36.503701,"lon":52.40596},{"id":1484490,"name":"shahrak-e pardisan","country":"ir","lat":36.615645,"lon":52.189964},{"id":1488312,"name":"shurestaq","country":"ir","lat":36.558148,"lon":52.215666},{"id":1489602,"name":"siyah kala","country":"ir","lat":36.651982,"lon":52.387463},{"id":1397256,"name":"bulideh","country":"ir","lat":36.5282,"lon":52.306875},{"id":1384676,"name":"anar jar","country":"ir","lat":36.513904,"lon":51.977812},{"id":1497664,"name":"valik-e sofla","country":"ir","lat":36.566454,"lon":52.420358},{"id":1484889,"name":"shahr-e koti","country":"ir","lat":36.51905,"lon":52.490727},{"id":1482810,"name":"seyyed `ali-ye kiasoltan","country":"ir","lat":36.617093,"lon":51.569232},{"id":1454171,"name":"mellatabad","country":"ir","lat":36.533333,"lon":52.383333},{"id":1435915,"name":"kaluso","country":"ir","lat":36.563774,"lon":52.373639},{"id":1403057,"name":"chilak-e pa\u0027in","country":"ir","lat":36.595356,"lon":51.639015},{"id":1444702,"name":"kolemarz-e `olya","country":"ir","lat":36.633333,"lon":52.333333},{"id":1382488,"name":"`alamdeh-e gharbi","country":"ir","lat":36.647784,"lon":52.372648},{"id":1494074,"name":"tashkuh-e `olya","country":"ir","lat":36.549797,"lon":51.955117},{"id":1444398,"name":"kohneh sara","country":"ir","lat":36.58951,"lon":51.665833},{"id":1444792,"name":"kolmarz","country":"ir","lat":36.630455,"lon":52.338357},{"id":1386834,"name":"asdollahabad","country":"ir","lat":36.600524,"lon":52.365064},{"id":1437042,"name":"kan sang","country":"ir","lat":36.6,"lon":51.516667},{"id":1432397,"name":"kachap-e `olya","country":"ir","lat":36.603265,"lon":52.468354},{"id":1460021,"name":"natel","country":"ir","lat":36.501472,"lon":52.022461},{"id":1381108,"name":"afra sara","country":"ir","lat":36.633333,"lon":52.433333},{"id":1488845,"name":"siah rud","country":"ir","lat":36.558543,"lon":51.935957},{"id":1444404,"name":"kohneh sepah","country":"ir","lat":36.517647,"lon":52.32427},{"id":1390412,"name":"bala div kola","country":"ir","lat":36.548578,"lon":52.497012},{"id":1445674,"name":"korsi kola-ye bala","country":"ir","lat":36.54977,"lon":52.478304},{"id":1501556,"name":"zarrin kola-ye pa\u0027in","country":"ir","lat":36.550408,"lon":51.926725},{"id":1417045,"name":"galesh pol","country":"ir","lat":36.582801,"lon":52.285563},{"id":1494075,"name":"tashkuh-e pa\u0027in","country":"ir","lat":36.555859,"lon":51.956562},{"id":1462822,"name":"owjiabad","country":"ir","lat":36.519726,"lon":52.347686},{"id":1465964,"name":"pishgun","country":"ir","lat":36.508205,"lon":52.27894},{"id":1487536,"name":"shir mahalleh","country":"ir","lat":36.630278,"lon":52.498423},{"id":1426911,"name":"hendu marz","country":"ir","lat":36.567811,"lon":51.945103},{"id":1488942,"name":"siar kola","country":"ir","lat":36.592687,"lon":52.274073},{"id":1444340,"name":"kohneh dan","country":"ir","lat":36.525384,"lon":52.413373},{"id":1419296,"name":"geleyerd","country":"ir","lat":36.536276,"lon":52.286808},{"id":1379417,"name":"`abbas kola","country":"ir","lat":36.508815,"lon":52.100718},{"id":1421503,"name":"golin khuni","country":"ir","lat":36.523296,"lon":52.068329},{"id":1492258,"name":"talebabad","country":"ir","lat":36.518444,"lon":52.118137},{"id":1403056,"name":"chilak-e bala","country":"ir","lat":36.590704,"lon":51.639133},{"id":1454814,"name":"mian kolmarz","country":"ir","lat":36.627303,"lon":52.323746},{"id":1384210,"name":"ami mahalleh","country":"ir","lat":36.567534,"lon":52.490858},{"id":1425674,"name":"harabdeh","country":"ir","lat":36.624277,"lon":52.295745},{"id":1490326,"name":"sorkh rud","country":"ir","lat":36.66951,"lon":52.447794},{"id":1429599,"name":"izkhvor deh","country":"ir","lat":36.504423,"lon":52.047924},{"id":1457569,"name":"motahhar-e `olya","country":"ir","lat":36.501847,"lon":52.498826},{"id":1390614,"name":"bala saldeh","country":"ir","lat":36.522757,"lon":52.176671},{"id":1436071,"name":"kamangar kola","country":"ir","lat":36.571257,"lon":52.497635},{"id":1399744,"name":"chaksar","country":"ir","lat":36.670694,"lon":52.430448},{"id":1500427,"name":"zaghedeh","country":"ir","lat":36.563554,"lon":52.358253},{"id":1441945,"name":"khezr-e tireh","country":"ir","lat":36.547682,"lon":51.876585},{"id":1461524,"name":"now deh-e harazpey","country":"ir","lat":36.516554,"lon":52.367857},{"id":1497552,"name":"valam-e pa\u0027in","country":"ir","lat":36.569516,"lon":52.387688},{"id":1419480,"name":"gerdab","country":"ir","lat":36.537614,"lon":51.743723},{"id":1448883,"name":"latingan","country":"ir","lat":36.632914,"lon":51.562949},{"id":1407674,"name":"da\u0027u kola","country":"ir","lat":36.505501,"lon":52.44824},{"id":1379515,"name":"abdangesar","country":"ir","lat":36.55,"lon":52.466667},{"id":1447386,"name":"kuseh raz","country":"ir","lat":36.53401,"lon":52.257304},{"id":1396591,"name":"borjandeh","country":"ir","lat":36.564926,"lon":52.197093},{"id":1394037,"name":"benchkul-e pa\u0027in","country":"ir","lat":36.567365,"lon":51.921082},{"id":1393191,"name":"ba\u0027udeh-ye `olya","country":"ir","lat":36.583333,"lon":52.35},{"id":1488840,"name":"siahrud sar","country":"ir","lat":36.641138,"lon":52.321352},{"id":1424579,"name":"hajjiabad","country":"ir","lat":36.504769,"lon":52.458584},{"id":1437413,"name":"karchak","country":"ir","lat":36.547788,"lon":52.330949},{"id":1492799,"name":"tamesk","country":"ir","lat":36.533486,"lon":52.386915},{"id":1484735,"name":"shahrak-e tamishan","country":"ir","lat":36.584924,"lon":52.05628},{"id":1488078,"name":"shumia","country":"ir","lat":36.558647,"lon":52.255976},{"id":1443646,"name":"khvoriyeh","country":"ir","lat":36.509484,"lon":52.019236},{"id":1477742,"name":"salah ed din kola-ye `olya","country":"ir","lat":36.562705,"lon":51.834263},{"id":1471442,"name":"qassab koti","country":"ir","lat":36.548898,"lon":52.300641},{"id":1382905,"name":"`aliabad-e `askarkhan","country":"ir","lat":36.582263,"lon":51.762393},{"id":1484103,"name":"shahrak-e bahar narenj","country":"ir","lat":36.608371,"lon":52.166103},{"id":1415147,"name":"ezbaran","country":"ir","lat":36.649515,"lon":52.488956},{"id":1499064,"name":"wuzra mahalleh","country":"ir","lat":36.672934,"lon":52.463503},{"id":1443626,"name":"khvordun kola","country":"ir","lat":36.574719,"lon":52.271768},{"id":1498602,"name":"venush","country":"ir","lat":36.559371,"lon":51.861289},{"id":1492399,"name":"talik-e sar","country":"ir","lat":36.607296,"lon":52.270748},{"id":1452540,"name":"marzangu","country":"ir","lat":36.594733,"lon":52.47604},{"id":1456924,"name":"molla kola","country":"ir","lat":36.55608,"lon":51.807301},{"id":1387413,"name":"aspahi kola","country":"ir","lat":36.542038,"lon":52.471953},{"id":1384804,"name":"`andal deh","country":"ir","lat":36.512033,"lon":52.139015},{"id":1428550,"name":"howz koti","country":"ir","lat":36.588074,"lon":51.686723},{"id":1420603,"name":"gilapey","country":"ir","lat":36.564523,"lon":52.283986},{"id":1497112,"name":"ujiabad","country":"ir","lat":36.516667,"lon":52.35},{"id":1445982,"name":"kuchek bisheh mahalleh","country":"ir","lat":36.611721,"lon":52.493353},{"id":1405642,"name":"darijar","country":"ir","lat":36.534339,"lon":52.019165},{"id":1448880,"name":"lati kola","country":"ir","lat":36.518712,"lon":52.391553},{"id":1454193,"name":"memij kola","country":"ir","lat":36.557442,"lon":52.4825},{"id":1486519,"name":"shenjus kaj","country":"ir","lat":36.628611,"lon":51.545556},{"id":1455901,"name":"mo`allem kala","country":"ir","lat":36.635032,"lon":52.384172},{"id":1425765,"name":"hareh pak","country":"ir","lat":36.514118,"lon":52.357051},{"id":1382608,"name":"`alavi kola-ye mir","country":"ir","lat":36.596269,"lon":52.413726},{"id":1432350,"name":"kachab-e pa\u0027in","country":"ir","lat":36.610625,"lon":52.460364},{"id":1410991,"name":"deyeh","country":"ir","lat":36.503458,"lon":52.483987},{"id":1390934,"name":"bamer kola","country":"ir","lat":36.532758,"lon":52.488886},{"id":1380543,"name":"absereft","country":"ir","lat":36.516667,"lon":52.4},{"id":1471294,"name":"qasemabad","country":"ir","lat":36.507083,"lon":52.184155},{"id":1452537,"name":"marzandeh","country":"ir","lat":36.528084,"lon":52.158156},{"id":1388011,"name":"azadmun","country":"ir","lat":36.600948,"lon":52.240339},{"id":1451579,"name":"mamraz koti","country":"ir","lat":36.501486,"lon":52.471774},{"id":1459023,"name":"najjar deh","country":"ir","lat":36.611618,"lon":51.572347},{"id":1388146,"name":"`azimabad","country":"ir","lat":36.588765,"lon":52.448268},{"id":1415544,"name":"faramdeh","country":"ir","lat":36.576103,"lon":52.379044},{"id":1502277,"name":"ziba shahr","country":"ir","lat":36.592177,"lon":52.109644},{"id":1488759,"name":"siah lash","country":"ir","lat":36.507086,"lon":52.24829},{"id":1411672,"name":"dizer kola","country":"ir","lat":36.557,"lon":51.794},{"id":1432053,"name":"juneh kola","country":"ir","lat":36.583333,"lon":52.283333},{"id":1490969,"name":"surakh mazuy","country":"ir","lat":36.615034,"lon":52.266831},{"id":1439279,"name":"kerdabad","country":"ir","lat":36.5,"lon":52.1},{"id":1393770,"name":"beheshti mahalleh","country":"ir","lat":36.633333,"lon":52.25},{"id":1463472,"name":"pa\u0027in saldeh","country":"ir","lat":36.530551,"lon":52.174781},{"id":1484064,"name":"shahrak-e amirabad","country":"ir","lat":36.609958,"lon":52.170758},{"id":1414338,"name":"eshkar kola","country":"ir","lat":36.55661,"lon":52.439374},{"id":1458248,"name":"mur","country":"ir","lat":36.504068,"lon":51.740252},{"id":1473979,"name":"rafi`abad","country":"ir","lat":36.54735,"lon":52.391033},{"id":1480210,"name":"sarhang koti","country":"ir","lat":36.500483,"lon":52.29721},{"id":1390942,"name":"bamkoti","country":"ir","lat":36.516667,"lon":52.333333},{"id":1491458,"name":"tachkinar","country":"ir","lat":36.594716,"lon":52.231475},{"id":1453015,"name":"mateverij","country":"ir","lat":36.633333,"lon":52.316667},{"id":1424771,"name":"hajji kola-ye `olya","country":"ir","lat":36.650793,"lon":52.418805},{"id":1478718,"name":"sang sara","country":"ir","lat":36.572,"lon":51.727},{"id":1497550,"name":"valam-e bala","country":"ir","lat":36.562923,"lon":52.384187},{"id":1415748,"name":"farrash kola-ye bala","country":"ir","lat":36.559334,"lon":51.914559},{"id":1456082,"name":"moghan deh","country":"ir","lat":36.539454,"lon":52.124517},{"id":1498475,"name":"vazeyak","country":"ir","lat":36.585066,"lon":52.365741},{"id":1478535,"name":"sang chalak","country":"ir","lat":36.528374,"lon":52.134184},{"id":1382487,"name":"`alamdeh","country":"ir","lat":36.568595,"lon":51.966945},{"id":1391422,"name":"band pi","country":"ir","lat":36.608845,"lon":51.584854},{"id":1415749,"name":"farrash kola-ye pa\u0027in","country":"ir","lat":36.566838,"lon":51.912632},{"id":1501555,"name":"zarrin kola-ye bala","country":"ir","lat":36.547606,"lon":51.928557},{"id":1425109,"name":"halikoti","country":"ir","lat":36.50573,"lon":52.321384},{"id":1384846,"name":"andarvar","country":"ir","lat":36.582222,"lon":51.734167},{"id":1491003,"name":"surat kola","country":"ir","lat":36.575523,"lon":52.49509},{"id":1485931,"name":"sharafti","country":"ir","lat":36.574572,"lon":52.212125},{"id":1484328,"name":"shahrak-e izad shahr","country":"ir","lat":36.598942,"lon":52.127076},{"id":1439188,"name":"kenar","country":"ir","lat":36.683333,"lon":52.483333},{"id":1393192,"name":"ba\u0027udeh-ye sofla","country":"ir","lat":36.58232,"lon":52.347913},{"id":1451702,"name":"mandul","country":"ir","lat":36.56035,"lon":51.898519},{"id":1447127,"name":"kurehchi mahalleh","country":"ir","lat":36.540695,"lon":52.242442},{"id":1444528,"name":"kolahkan","country":"ir","lat":36.516667,"lon":52.366667},{"id":1441893,"name":"kheyrud kenar","country":"ir","lat":36.614108,"lon":51.557118},{"id":1479312,"name":"saraj mahalleh","country":"ir","lat":36.549579,"lon":52.493783},{"id":1387357,"name":"aski mahalleh","country":"ir","lat":36.518006,"lon":52.496794},{"id":1381640,"name":"ahlam","country":"ir","lat":36.60199,"lon":52.215499},{"id":1462815,"name":"owjak","country":"ir","lat":36.565252,"lon":52.45585},{"id":1474241,"name":"ra\u0027isabad","country":"ir","lat":36.527126,"lon":52.467712},{"id":1425453,"name":"hamzeh deh-e pa\u0027in","country":"ir","lat":36.576661,"lon":51.703938},{"id":1494076,"name":"tashkuh-e sofla","country":"ir","lat":36.55,"lon":51.966667},{"id":1460107,"name":"nava\u0027i mahalleh-ye bozorg","country":"ir","lat":36.614354,"lon":52.48454},{"id":1459319,"name":"namusdeh","country":"ir","lat":36.543217,"lon":52.313251},{"id":1414940,"name":"esterabad mahalleh","country":"ir","lat":36.516667,"lon":51.8},{"id":1385937,"name":"aram shahr","country":"ir","lat":36.596959,"lon":52.117071},{"id":1498501,"name":"vazivar","country":"ir","lat":36.567321,"lon":51.90675},{"id":1429584,"name":"iz deh-e bala","country":"ir","lat":36.592669,"lon":52.113611},{"id":1382100,"name":"akam shahr","country":"ir","lat":36.595277,"lon":52.108233},{"id":1456815,"name":"molkar","country":"ir","lat":36.587032,"lon":51.706889},{"id":1476282,"name":"rudposht","country":"ir","lat":36.639401,"lon":52.340667},{"id":1489502,"name":"si sangan","country":"ir","lat":36.57,"lon":51.754167},{"id":1385933,"name":"aramkola","country":"ir","lat":36.6,"lon":52.333333},{"id":1381707,"name":"ahmadabad-e kalich","country":"ir","lat":36.616667,"lon":52.416667},{"id":1477743,"name":"salah ed din kola-ye sofla","country":"ir","lat":36.583333,"lon":51.783333},{"id":1483797,"name":"shahkola kelich","country":"ir","lat":36.612305,"lon":52.419096},{"id":1414604,"name":"eslam mahalleh","country":"ir","lat":36.616667,"lon":52.433333},{"id":1485019,"name":"shahr kola","country":"ir","lat":36.544487,"lon":52.000864},{"id":1458928,"name":"na\u0027ijabad","country":"ir","lat":36.531389,"lon":52.451336},{"id":1495218,"name":"tirak deh-e `olya","country":"ir","lat":36.546841,"lon":51.936827},{"id":1484843,"name":"shahrband","country":"ir","lat":36.51,"lon":52.172},{"id":1414390,"name":"`eshqabad","country":"ir","lat":36.558465,"lon":52.328882},{"id":1498853,"name":"vish mahalleh","country":"ir","lat":36.547147,"lon":52.356805},{"id":1438212,"name":"kaseh gar mahalleh","country":"ir","lat":36.536412,"lon":51.944099},{"id":1385922,"name":"aram","country":"ir","lat":36.601899,"lon":52.329707},{"id":1490324,"name":"sorkhrud-e sharqi","country":"ir","lat":36.666667,"lon":52.466667},{"id":1485994,"name":"shari`atabad","country":"ir","lat":36.5,"lon":52.466667},{"id":1466691,"name":"pul kiadeh","country":"ir","lat":36.53258,"lon":52.408497},{"id":1381602,"name":"ahangar kola-ye sofla","country":"ir","lat":36.6,"lon":52.483333},{"id":1491822,"name":"tajnik","country":"ir","lat":36.513314,"lon":52.293939},{"id":1386586,"name":"arvij kola","country":"ir","lat":36.515601,"lon":52.049351},{"id":1454923,"name":"mian shahr","country":"ir","lat":36.553749,"lon":51.893402},{"id":1404960,"name":"darab kola","country":"ir","lat":36.512152,"lon":52.301888},{"id":1381607,"name":"ahankoti","country":"ir","lat":36.516667,"lon":52.316667},{"id":1418332,"name":"gassan-abad","country":"ir","lat":36.563838,"lon":51.927557},{"id":1480468,"name":"sar kaj","country":"ir","lat":36.513747,"lon":52.036869},{"id":1489426,"name":"sirjarun","country":"ir","lat":36.608102,"lon":52.438817},{"id":1435253,"name":"kalehkar","country":"ir","lat":36.509064,"lon":52.364083},{"id":1384293,"name":"amirabad-e kenareh","country":"ir","lat":36.607072,"lon":52.177167},{"id":1401439,"name":"cha\u0027u sar mahalleh","country":"ir","lat":36.5,"lon":52.290572},{"id":1499276,"name":"yamchi","country":"ir","lat":36.636673,"lon":52.317048},{"id":1414482,"name":"eskendeh","country":"ir","lat":36.59426,"lon":52.356307},{"id":1405727,"name":"darkapey","country":"ir","lat":36.505523,"lon":52.232443},{"id":1451911,"name":"manuchehr kola","country":"ir","lat":36.54143,"lon":51.906631},{"id":1432080,"name":"jura kola","country":"ir","lat":36.61178,"lon":52.32398},{"id":1405813,"name":"darman kola","country":"ir","lat":36.616667,"lon":52.333333},{"id":1379088,"name":"abandanak","country":"ir","lat":36.619136,"lon":51.52567},{"id":1476950,"name":"sa`din kola","country":"ir","lat":36.538086,"lon":52.359011},{"id":1461388,"name":"nosratabad","country":"ir","lat":36.501575,"lon":52.07352},{"id":1497226,"name":"`ur dasht","country":"ir","lat":36.570074,"lon":52.37268},{"id":1425452,"name":"hamzeh deh-e bala","country":"ir","lat":36.571999,"lon":51.709932},{"id":1390310,"name":"bakhtiar koti","country":"ir","lat":36.505416,"lon":52.365263},{"id":1462507,"name":"ordu kaj","country":"ir","lat":36.50153,"lon":52.344349},{"id":1486706,"name":"sheykh `ali kola","country":"ir","lat":36.506698,"lon":52.106606},{"id":1379038,"name":"abad mahalleh","country":"ir","lat":36.604996,"lon":52.268498},{"id":1447873,"name":"kuy-e orkideh","country":"ir","lat":36.588442,"lon":52.074949},{"id":1475940,"name":"rostam rud","country":"ir","lat":36.589463,"lon":52.089446},{"id":1381115,"name":"afratakht","country":"ir","lat":36.575201,"lon":52.367132},{"id":1493985,"name":"tarsiab","country":"ir","lat":36.59405,"lon":52.281167},{"id":1462529,"name":"ormak kola","country":"ir","lat":36.6,"lon":52.3},{"id":1454886,"name":"mian rud-e harazpey","country":"ir","lat":36.551579,"lon":52.338883},{"id":1476792,"name":"sa`dabad","country":"ir","lat":36.516837,"lon":52.257122},{"id":1399824,"name":"chalandar","country":"ir","lat":36.574223,"lon":51.68874},{"id":1386827,"name":"asb som-e deh","country":"ir","lat":36.628035,"lon":51.536017},{"id":1430452,"name":"jamshidabad","country":"ir","lat":36.521747,"lon":52.389578},{"id":1417391,"name":"gandyab-e bala","country":"ir","lat":36.536174,"lon":52.03797},{"id":1429519,"name":"istgah zoghal","country":"ir","lat":36.624712,"lon":51.513155},{"id":1400569,"name":"chammaz kola","country":"ir","lat":36.543678,"lon":52.1225},{"id":1484192,"name":"shahrak-e delkadeh","country":"ir","lat":36.612324,"lon":52.179014},{"id":1485609,"name":"sham` jaran","country":"ir","lat":36.63317,"lon":51.53709},{"id":1495263,"name":"tir kalleh","country":"ir","lat":36.543359,"lon":51.970106},{"id":1415187,"name":"`ezzatabad","country":"ir","lat":36.653276,"lon":52.376527},{"id":1478596,"name":"sang-e koti","country":"ir","lat":36.544299,"lon":52.331375},{"id":1380513,"name":"ab saraft","country":"ir","lat":36.519912,"lon":52.399577},{"id":1483817,"name":"shah mahalleh","country":"ir","lat":36.500737,"lon":52.333157},{"id":1491584,"name":"taherabad","country":"ir","lat":36.537615,"lon":52.48555},{"id":1387958,"name":"aza bi mahalleh","country":"ir","lat":36.522666,"lon":52.35086}]});