callback({"markets":[{"id":2378939,"name":"borisova","country":"ru","lat":58.283333,"lon":136.383333},{"id":2362759,"name":"antonova","country":"ru","lat":57.583333,"lon":136.016667},{"id":2481049,"name":"orondoy","country":"ru","lat":57.983333,"lon":136.333333},{"id":2395135,"name":"dzhigda","country":"ru","lat":57.55,"lon":135.866667},{"id":2466162,"name":"nelkan","country":"ru","lat":57.666667,"lon":136.216667}]});