callback({"markets":[{"id":2807501,"name":"kilickaya","country":"tr","lat":38.431944,"lon":30.750278},{"id":2783552,"name":"cukur","country":"tr","lat":37.660272,"lon":30.809449},{"id":2786543,"name":"direkli","country":"tr","lat":37.720551,"lon":30.617779},{"id":2765926,"name":"afsar","country":"tr","lat":38.136389,"lon":30.977778},{"id":2791530,"name":"gelendost","country":"tr","lat":38.120833,"lon":31.015278},{"id":2791631,"name":"gemenbayat","country":"tr","lat":38.25,"lon":31.233333},{"id":2784411,"name":"daribuku","country":"tr","lat":37.561131,"lon":31.195848},{"id":2772988,"name":"bagilli","country":"tr","lat":37.76527,"lon":31.028056},{"id":2813481,"name":"kuzca","country":"tr","lat":37.620833,"lon":31.015833},{"id":2813460,"name":"kuzagac","country":"tr","lat":38.383333,"lon":31.45},{"id":2802171,"name":"karaadilli","country":"tr","lat":38.305556,"lon":30.628333},{"id":2811345,"name":"kozkoy","country":"tr","lat":37.666667,"lon":31.033333},{"id":2773323,"name":"bahcivanlar","country":"tr","lat":37.634167,"lon":30.9},{"id":2834996,"name":"yilanli","country":"tr","lat":37.8,"lon":31.016667},{"id":2767165,"name":"akcin","country":"tr","lat":38.256389,"lon":30.546944},{"id":2828459,"name":"tekke koy","country":"tr","lat":38.337216,"lon":31.392459},{"id":2834033,"name":"yenicekale","country":"tr","lat":38.085,"lon":31.179722},{"id":2802593,"name":"karacahisaryaylalan","country":"tr","lat":37.686944,"lon":31.168603},{"id":2804851,"name":"kasimlar","country":"tr","lat":37.528059,"lon":31.188348},{"id":2810960,"name":"kosreli","country":"tr","lat":37.783333,"lon":31.051937},{"id":2767696,"name":"aksak","country":"tr","lat":37.733333,"lon":30.983333},{"id":2834089,"name":"yenice","country":"tr","lat":37.716667,"lon":31.416667},{"id":2783897,"name":"dagarcik","country":"tr","lat":37.510794,"lon":30.525801},{"id":2774326,"name":"baskoy","country":"tr","lat":38.177222,"lon":30.602222},{"id":2792909,"name":"golcayir","country":"tr","lat":38.464712,"lon":31.325001},{"id":2773804,"name":"balkiri","country":"tr","lat":37.793333,"lon":30.858056},{"id":2835554,"name":"yukariayvali","country":"tr","lat":37.668333,"lon":31.047222},{"id":2804548,"name":"karlik","country":"tr","lat":38.45,"lon":30.633333},{"id":2810375,"name":"koprukoy","country":"tr","lat":38.1,"lon":31.483333},{"id":2819892,"name":"pazarkoy","country":"tr","lat":37.766667,"lon":31.05},{"id":2804762,"name":"kasakli","country":"tr","lat":37.55,"lon":31.466667},{"id":2802060,"name":"kapicak","country":"tr","lat":37.980833,"lon":30.674722},{"id":2795590,"name":"hacilar","country":"tr","lat":38.042222,"lon":30.9925},{"id":2803802,"name":"karamik","country":"tr","lat":38.461625,"lon":30.894188},{"id":2811707,"name":"kucukkabaca","country":"tr","lat":38.1275,"lon":30.511111},{"id":2833151,"name":"yassiveren","country":"tr","lat":38.104167,"lon":30.606111},{"id":2820347,"name":"pinaryakasi","country":"tr","lat":37.7,"lon":30.883333},{"id":2808607,"name":"kiyakdede","country":"tr","lat":37.965777,"lon":31.479795},{"id":2810792,"name":"kosekoy","country":"tr","lat":37.583333,"lon":31.133333},{"id":2816495,"name":"mumo","country":"tr","lat":37.7,"lon":31.433333},{"id":2768732,"name":"alikoy","country":"tr","lat":37.809177,"lon":30.625829},{"id":2835082,"name":"yilkincak","country":"tr","lat":37.883333,"lon":30.983333},{"id":2828990,"name":"terziler","country":"tr","lat":37.755536,"lon":31.161131},{"id":2820690,"name":"prostanna","country":"tr","lat":37.869444,"lon":30.849167},{"id":2814207,"name":"mahmutlar","country":"tr","lat":37.930278,"lon":30.929722},{"id":2803002,"name":"karadiken","country":"tr","lat":37.55,"lon":30.9325},{"id":2777223,"name":"bozanonu","country":"tr","lat":37.860578,"lon":30.565777},{"id":2786418,"name":"dilkiler","country":"tr","lat":37.996895,"lon":31.368881},{"id":2816368,"name":"muezzinler","country":"tr","lat":37.500008,"lon":30.946676},{"id":2822025,"name":"salur","country":"tr","lat":38.031397,"lon":31.283329},{"id":2825866,"name":"sofular","country":"tr","lat":37.945,"lon":31.006389},{"id":2792581,"name":"gokceli","country":"tr","lat":38.283333,"lon":30.966667},{"id":2827305,"name":"tahtaci","country":"tr","lat":37.836389,"lon":30.766111},{"id":2794734,"name":"gureme","country":"tr","lat":38.116111,"lon":30.649722},{"id":2782437,"name":"cimendere","country":"tr","lat":38.233333,"lon":31.437778},{"id":2779772,"name":"canakli","country":"tr","lat":37.566944,"lon":30.573333},{"id":2821421,"name":"sagirkoy","country":"tr","lat":38.429722,"lon":31.008333},{"id":2813770,"name":"lama","country":"tr","lat":38.0,"lon":30.766667},{"id":2815826,"name":"mihail","country":"tr","lat":37.983333,"lon":31.0},{"id":2812604,"name":"kursari","country":"tr","lat":38.266667,"lon":31.083333},{"id":2833165,"name":"yasyan","country":"tr","lat":38.423312,"lon":31.347352},{"id":2773025,"name":"baglarbasi","country":"tr","lat":38.3975,"lon":31.127222},{"id":2778228,"name":"buyukgokceli","country":"tr","lat":37.883611,"lon":30.749444},{"id":2836703,"name":"yumrutas","country":"tr","lat":37.583333,"lon":30.716667},{"id":2791632,"name":"gemenguney","country":"tr","lat":38.269444,"lon":31.230833},{"id":2824053,"name":"senirce","country":"tr","lat":37.889722,"lon":30.524167},{"id":2834632,"name":"yesildag","country":"tr","lat":37.541426,"lon":31.473063},{"id":2829533,"name":"tolca","country":"tr","lat":37.912788,"lon":31.495301},{"id":2806509,"name":"kemhalli","country":"tr","lat":37.533333,"lon":30.55},{"id":2832676,"name":"yalvac","country":"tr","lat":38.295556,"lon":31.177778},{"id":2802719,"name":"karacaoren","country":"tr","lat":38.261944,"lon":30.643889},{"id":2804982,"name":"katip","country":"tr","lat":37.722756,"lon":31.149507},{"id":2826328,"name":"sorkuncak","country":"tr","lat":37.891674,"lon":30.929162},{"id":2812250,"name":"kumdanli","country":"tr","lat":38.323896,"lon":30.976401},{"id":2820038,"name":"penbeli","country":"tr","lat":37.944167,"lon":30.689167},{"id":2810729,"name":"koruyaka","country":"tr","lat":38.144444,"lon":31.224444},{"id":2767621,"name":"akpinar","country":"tr","lat":37.844719,"lon":30.848599},{"id":2815911,"name":"milyas","country":"tr","lat":38.393352,"lon":31.495156},{"id":2779556,"name":"camlidere","country":"tr","lat":37.638333,"lon":30.688056},{"id":2791130,"name":"garip","country":"tr","lat":38.120833,"lon":30.715833},{"id":2804807,"name":"kasikarabaglari","country":"tr","lat":38.266667,"lon":30.816667},{"id":2816544,"name":"muratbagi","country":"tr","lat":38.131667,"lon":31.371667},{"id":2802400,"name":"karabel","country":"tr","lat":38.366667,"lon":30.5},{"id":2775974,"name":"beykoy","country":"tr","lat":38.059444,"lon":31.382222},{"id":2835901,"name":"yukarigokdere","country":"tr","lat":37.6975,"lon":30.854722},{"id":2835798,"name":"yukaridinek","country":"tr","lat":38.066944,"lon":31.48},{"id":2771454,"name":"asar","country":"tr","lat":37.586101,"lon":30.636931},{"id":2770717,"name":"asagigokdere","country":"tr","lat":37.597222,"lon":30.828333},{"id":2769955,"name":"arizli","country":"tr","lat":38.320278,"lon":30.75},{"id":2830989,"name":"ulugbey","country":"tr","lat":38.139167,"lon":30.538611},{"id":2795300,"name":"haciahmetler","country":"tr","lat":37.5,"lon":31.05},{"id":2829509,"name":"tokmacik","country":"tr","lat":38.227498,"lon":30.999436},{"id":2776926,"name":"borazan","country":"tr","lat":38.493056,"lon":31.205278},{"id":2770524,"name":"asagi cemaller","country":"tr","lat":37.55,"lon":31.45},{"id":2809697,"name":"kocular","country":"tr","lat":37.723056,"lon":31.136944},{"id":2771465,"name":"asarcik","country":"tr","lat":37.633333,"lon":30.6},{"id":2767773,"name":"aksu","country":"tr","lat":37.798889,"lon":31.071111},{"id":2773003,"name":"bagkonak","country":"tr","lat":38.2175,"lon":31.272222},{"id":2834707,"name":"yesilkoy","country":"tr","lat":37.992222,"lon":30.996657},{"id":2818236,"name":"ordekci","country":"tr","lat":38.061667,"lon":31.253333},{"id":2802601,"name":"karacakalkecili","country":"tr","lat":38.129167,"lon":31.153333},{"id":2816068,"name":"misirli","country":"tr","lat":38.366667,"lon":31.033333},{"id":2819271,"name":"oynagan","country":"tr","lat":38.301937,"lon":30.708857},{"id":2802492,"name":"karabulut","country":"tr","lat":38.41056,"lon":31.46777},{"id":2806346,"name":"kelikan","country":"tr","lat":37.983333,"lon":30.683333},{"id":2786558,"name":"direskene","country":"tr","lat":37.716667,"lon":30.932778},{"id":2832405,"name":"yakaemir","country":"tr","lat":38.083333,"lon":31.25},{"id":2804736,"name":"kartoz","country":"tr","lat":37.55,"lon":31.3},{"id":2771867,"name":"atsiz","country":"tr","lat":38.371676,"lon":31.451686},{"id":2781178,"name":"celtik","country":"tr","lat":38.013621,"lon":31.318881},{"id":2768974,"name":"altikapi","country":"tr","lat":38.232778,"lon":31.181111},{"id":2786070,"name":"devederes","country":"tr","lat":38.470846,"lon":30.830218},{"id":2820339,"name":"pinarpazar","country":"tr","lat":37.816667,"lon":30.883333},{"id":2825457,"name":"sipahiler","country":"tr","lat":37.655278,"lon":30.9775},{"id":2824439,"name":"sevikli","country":"tr","lat":38.433333,"lon":30.916667},{"id":2781618,"name":"cetince","country":"tr","lat":38.184444,"lon":31.213611},{"id":2822738,"name":"sariidris","country":"tr","lat":37.943357,"lon":31.007316},{"id":2792515,"name":"gokce","country":"tr","lat":37.939167,"lon":30.753333},{"id":2778246,"name":"buyukhacilar","country":"tr","lat":37.790036,"lon":30.641913},{"id":2784462,"name":"darioren","country":"tr","lat":37.714444,"lon":30.724167},{"id":2778269,"name":"buyukkabaca","country":"tr","lat":38.172778,"lon":30.641944},{"id":2824051,"name":"senikent","country":"tr","lat":38.104444,"lon":30.548611},{"id":2765790,"name":"adakoy","country":"tr","lat":37.518167,"lon":31.48572},{"id":2767414,"name":"akkecili","country":"tr","lat":38.13,"lon":30.789722},{"id":2766069,"name":"agap","country":"tr","lat":38.133333,"lon":31.216667},{"id":2768382,"name":"alanyurt","country":"tr","lat":38.407276,"lon":31.426634},{"id":2774489,"name":"basviran","country":"tr","lat":37.85,"lon":31.05},{"id":2769295,"name":"anamas","country":"tr","lat":37.816667,"lon":30.8},{"id":2832966,"name":"yarikaya","country":"tr","lat":38.457222,"lon":31.078889},{"id":2777497,"name":"bucak","country":"tr","lat":37.816667,"lon":31.083333},{"id":2781993,"name":"cicekpinar","country":"tr","lat":38.066944,"lon":31.321667},{"id":2773631,"name":"balcikhisar","country":"tr","lat":38.439713,"lon":30.519167},{"id":2826508,"name":"sucullu","country":"tr","lat":38.35,"lon":31.154722},{"id":2811048,"name":"koturenk","country":"tr","lat":38.166667,"lon":31.133333},{"id":2791454,"name":"gedikli","country":"tr","lat":37.891937,"lon":31.328328},{"id":2786140,"name":"devri","country":"tr","lat":37.523056,"lon":30.674722},{"id":2835692,"name":"yukari cemaller","country":"tr","lat":37.566667,"lon":31.4},{"id":2812755,"name":"kurtler","country":"tr","lat":37.733333,"lon":31.416667},{"id":2773986,"name":"banbul","country":"tr","lat":38.25,"lon":30.583333},{"id":2801026,"name":"kadilarkimilli","country":"tr","lat":38.286389,"lon":30.542222},{"id":2824531,"name":"seydi","country":"tr","lat":37.501111,"lon":30.548056},{"id":2772900,"name":"bagacik","country":"tr","lat":37.898893,"lon":31.023092},{"id":2788659,"name":"elecik","country":"tr","lat":37.746065,"lon":31.196125},{"id":2834411,"name":"yenisarbademli","country":"tr","lat":37.707778,"lon":31.386389},{"id":2789135,"name":"engili","country":"tr","lat":38.308884,"lon":31.463881},{"id":2809565,"name":"kocbeyli","country":"tr","lat":38.438889,"lon":30.915},{"id":2792532,"name":"gokcehuyuk","country":"tr","lat":37.885556,"lon":31.009167},{"id":2774989,"name":"bedre","country":"tr","lat":37.95,"lon":30.783333},{"id":2836093,"name":"yukarikarsikara","country":"tr","lat":38.345556,"lon":30.866953},{"id":2783229,"name":"conur","country":"tr","lat":37.817222,"lon":30.532778},{"id":2790641,"name":"fele","country":"tr","lat":37.991636,"lon":31.451721},{"id":2783347,"name":"coru","country":"tr","lat":38.35,"lon":30.716667},{"id":2818333,"name":"orenkoy","country":"tr","lat":38.091944,"lon":31.238333},{"id":2780040,"name":"cariksaray","country":"tr","lat":38.1175,"lon":31.415556},{"id":2766217,"name":"agilkoy","country":"tr","lat":37.811944,"lon":30.903611},{"id":2831449,"name":"uyuklu","country":"tr","lat":38.237778,"lon":31.124722},{"id":2785651,"name":"deregume","country":"tr","lat":37.786654,"lon":30.510301},{"id":2832369,"name":"yakaafsar","country":"tr","lat":37.748056,"lon":31.171667},{"id":2782925,"name":"cobankaya","country":"tr","lat":38.438056,"lon":30.629444},{"id":2812920,"name":"kurucuova","country":"tr","lat":37.691752,"lon":31.412294},{"id":2777371,"name":"bozlagan","country":"tr","lat":38.331294,"lon":31.490655},{"id":2799787,"name":"incedere","country":"tr","lat":37.578056,"lon":31.159722},{"id":2832193,"name":"yagcilar","country":"tr","lat":38.25,"lon":31.133333},{"id":2798091,"name":"hisarardi","country":"tr","lat":38.305833,"lon":31.211389},{"id":2788707,"name":"elfires","country":"tr","lat":38.28822,"lon":31.482579},{"id":2787011,"name":"dogrugoz","country":"tr","lat":38.351148,"lon":31.469051},{"id":2793256,"name":"gonen","country":"tr","lat":37.956387,"lon":30.511403},{"id":2828853,"name":"tepelikoy","country":"tr","lat":37.77669,"lon":30.889145},{"id":2799020,"name":"icikli","country":"tr","lat":38.417778,"lon":30.684167},{"id":2766688,"name":"akbaba","country":"tr","lat":38.478732,"lon":31.278077},{"id":2771344,"name":"asagitirtar","country":"tr","lat":38.233333,"lon":30.908611},{"id":2809795,"name":"koke","country":"tr","lat":38.177222,"lon":30.975278},{"id":2790516,"name":"fakihlar","country":"tr","lat":38.05,"lon":31.3},{"id":2775369,"name":"beloren","country":"tr","lat":37.525833,"lon":30.602778},{"id":2774610,"name":"bayat","country":"tr","lat":37.890278,"lon":30.621667},{"id":2812099,"name":"kuleonu","country":"tr","lat":37.872223,"lon":30.619732},{"id":2789962,"name":"eskigencali","country":"tr","lat":38.233333,"lon":30.716667},{"id":2817503,"name":"nudra","country":"tr","lat":38.133611,"lon":31.272778},{"id":2811682,"name":"kucukhacilar","country":"tr","lat":37.810301,"lon":30.634163},{"id":2782167,"name":"ciftlik mahallesi","country":"tr","lat":37.504005,"lon":31.459672},{"id":2836514,"name":"yukaritirtar","country":"tr","lat":38.263619,"lon":30.945837},{"id":2782680,"name":"ciraklar","country":"tr","lat":37.683333,"lon":31.05},{"id":2784811,"name":"degirmendere","country":"tr","lat":38.45077,"lon":31.302768},{"id":2785596,"name":"derecine","country":"tr","lat":38.482222,"lon":31.253889},{"id":2787576,"name":"dumanli","country":"tr","lat":37.537953,"lon":31.379178},{"id":2784642,"name":"dedecam","country":"tr","lat":38.175833,"lon":31.321944},{"id":2830792,"name":"ugras","country":"tr","lat":38.1,"lon":31.433333},{"id":2832413,"name":"yakakoy","country":"tr","lat":37.734722,"lon":31.238889},{"id":2791679,"name":"gencali","country":"tr","lat":38.213611,"lon":30.741667},{"id":2799581,"name":"ilyasli","country":"tr","lat":38.466667,"lon":30.5},{"id":2773493,"name":"baklan","country":"tr","lat":37.774417,"lon":31.046679},{"id":2811666,"name":"kucukfindos","country":"tr","lat":37.868604,"lon":30.696125},{"id":2770415,"name":"asagiayvali","country":"tr","lat":37.666667,"lon":31.1},{"id":2804744,"name":"karyagdi","country":"tr","lat":37.65,"lon":30.7},{"id":2770055,"name":"armutlu","country":"tr","lat":37.995572,"lon":31.318604},{"id":2771732,"name":"atabey","country":"tr","lat":37.950833,"lon":30.638611},{"id":2782316,"name":"cikrikkoy","country":"tr","lat":37.716667,"lon":30.75},{"id":2827734,"name":"tasevi","country":"tr","lat":38.275,"lon":30.824444},{"id":2775256,"name":"belence","country":"tr","lat":37.624175,"lon":31.129721},{"id":2788601,"name":"elbengi","country":"tr","lat":38.4,"lon":31.133333},{"id":2820194,"name":"philomelium","country":"tr","lat":38.3575,"lon":31.416389},{"id":2791476,"name":"gedil","country":"tr","lat":38.316624,"lon":31.489299},{"id":2773618,"name":"balci","country":"tr","lat":38.116944,"lon":31.106667},{"id":2774009,"name":"banos","country":"tr","lat":37.883333,"lon":31.016667},{"id":2791723,"name":"geneli","country":"tr","lat":38.368056,"lon":30.741389},{"id":2793247,"name":"gondurle","country":"tr","lat":37.917495,"lon":30.709991},{"id":2790440,"name":"eyuplar","country":"tr","lat":38.283333,"lon":31.066667},{"id":2766277,"name":"aglasun","country":"tr","lat":37.649444,"lon":30.534167},{"id":2770043,"name":"armutlu","country":"tr","lat":38.399723,"lon":30.824753},{"id":2798123,"name":"hisar","country":"tr","lat":37.585833,"lon":30.636667},{"id":2823339,"name":"savkoy","country":"tr","lat":37.766119,"lon":30.643329},{"id":2777507,"name":"bucakdere koyu","country":"tr","lat":37.523646,"lon":31.144741},{"id":2791515,"name":"gelegermi","country":"tr","lat":38.2,"lon":31.3},{"id":2793327,"name":"gorguler","country":"tr","lat":38.383333,"lon":31.05},{"id":2828780,"name":"tepedibi","country":"tr","lat":37.7,"lon":30.833333},{"id":2773046,"name":"bagli","country":"tr","lat":38.137222,"lon":31.044722},{"id":2780835,"name":"caykoy","country":"tr","lat":37.817773,"lon":30.927776},{"id":2787042,"name":"dogukaraagac","country":"tr","lat":38.079444,"lon":31.366389},{"id":2767248,"name":"akdogan","country":"tr","lat":37.776667,"lon":30.929167},{"id":2810507,"name":"korkuler","country":"tr","lat":38.396111,"lon":31.048056},{"id":2788307,"name":"egirler","country":"tr","lat":38.197778,"lon":31.104444},{"id":2771747,"name":"atakent","country":"tr","lat":38.384867,"lon":31.380412},{"id":2805680,"name":"kayi","country":"tr","lat":37.822489,"lon":30.51082},{"id":2808188,"name":"kirkbas","country":"tr","lat":38.383333,"lon":31.016667},{"id":2824449,"name":"sevincbey","country":"tr","lat":37.85,"lon":30.8},{"id":2767050,"name":"akcasar","country":"tr","lat":37.8,"lon":31.05},{"id":2794540,"name":"guneytepe","country":"tr","lat":38.473889,"lon":30.541111},{"id":2769315,"name":"anayurt","country":"tr","lat":38.45,"lon":30.583333},{"id":2781113,"name":"celeptas","country":"tr","lat":38.323889,"lon":31.021958},{"id":2777721,"name":"bulanik","country":"tr","lat":38.447222,"lon":30.787778},{"id":2807387,"name":"kibrit","country":"tr","lat":37.600278,"lon":30.507222},{"id":2779272,"name":"calti","country":"tr","lat":38.05,"lon":31.416667},{"id":2812045,"name":"kulak","country":"tr","lat":38.383056,"lon":30.588611},{"id":2770919,"name":"asagi kartuz","country":"tr","lat":37.555833,"lon":31.308333},{"id":2822384,"name":"saraphane","country":"tr","lat":38.025247,"lon":30.984717},{"id":2771843,"name":"atlihisar","country":"tr","lat":38.449444,"lon":30.583889},{"id":2775200,"name":"belceyiz","country":"tr","lat":37.974162,"lon":31.27694},{"id":2810980,"name":"kostuk","country":"tr","lat":38.416667,"lon":31.116667},{"id":2808161,"name":"kirinti koyu","country":"tr","lat":37.659471,"lon":30.863069},{"id":2818421,"name":"orhaniye","country":"tr","lat":38.486111,"lon":30.893333},{"id":2806460,"name":"kemerdamlari","country":"tr","lat":38.142224,"lon":30.849199},{"id":2780471,"name":"cavundur","country":"tr","lat":38.083333,"lon":31.266667},{"id":2808544,"name":"kislakoy","country":"tr","lat":37.680288,"lon":30.716944},{"id":2779889,"name":"cankurtaran","country":"tr","lat":38.2675,"lon":31.399444},{"id":2793742,"name":"guldali","country":"tr","lat":37.579167,"lon":31.221389},{"id":2796138,"name":"hallac","country":"tr","lat":38.495556,"lon":30.587222},{"id":2788174,"name":"ecirli mahallesi","country":"tr","lat":37.580112,"lon":31.399194},{"id":2768223,"name":"alaka","country":"tr","lat":38.410833,"lon":30.609444},{"id":2826421,"name":"sparta","country":"tr","lat":37.764444,"lon":30.552222},{"id":2774105,"name":"barla","country":"tr","lat":38.017778,"lon":30.782778},{"id":2822646,"name":"saricoban","country":"tr","lat":37.616667,"lon":30.966667},{"id":2831689,"name":"uzunpinar","country":"tr","lat":38.38,"lon":30.677222},{"id":2823305,"name":"savas","country":"tr","lat":38.319448,"lon":31.443812},{"id":2769562,"name":"arak","country":"tr","lat":38.065283,"lon":31.429735},{"id":2773373,"name":"bahtiyar","country":"tr","lat":38.190833,"lon":31.161667},{"id":2797484,"name":"haymana","country":"tr","lat":37.595833,"lon":30.867778},{"id":2770920,"name":"asagikasikara","country":"tr","lat":38.299167,"lon":30.843611},{"id":2800482,"name":"islamkoy","country":"tr","lat":37.924444,"lon":30.655},{"id":2786709,"name":"diyedin","country":"tr","lat":37.780842,"lon":30.603598},{"id":2767180,"name":"akdag","country":"tr","lat":38.170542,"lon":30.929735},{"id":2794422,"name":"guneyce","country":"tr","lat":37.672778,"lon":30.750556},{"id":2831772,"name":"vakifdinek","country":"tr","lat":38.066667,"lon":31.483333},{"id":2793169,"name":"golyaka","country":"tr","lat":37.718257,"lon":31.443893},{"id":2785791,"name":"dere mahallesi","country":"tr","lat":38.368849,"lon":31.324954},{"id":2825031,"name":"sigirlik","country":"tr","lat":37.533889,"lon":30.866111},{"id":2797368,"name":"havutlu","country":"tr","lat":37.829167,"lon":30.978611}]});