callback({"markets":[{"id":2378445,"name":"bolshoy tarkhovo","country":"ru","lat":61.1029,"lon":77.1668},{"id":2508917,"name":"savkino","country":"ru","lat":60.9353,"lon":76.8687},{"id":2416558,"name":"kedroyeka","country":"ru","lat":60.633333,"lon":77.366667},{"id":2468802,"name":"nizhnevartovsk","country":"ru","lat":60.9344,"lon":76.5531},{"id":2522485,"name":"soromina","country":"ru","lat":61.116667,"lon":77.1},{"id":2475561,"name":"novo-vartovskoye","country":"ru","lat":60.9,"lon":76.65},{"id":2410488,"name":"kabino","country":"ru","lat":60.766667,"lon":76.783333},{"id":2383231,"name":"bylino","country":"ru","lat":60.7481,"lon":76.7986},{"id":2452792,"name":"maly pylino","country":"ru","lat":61.15,"lon":77.283333},{"id":2452872,"name":"maly tarkhovy","country":"ru","lat":61.033333,"lon":76.816667},{"id":2494703,"name":"posal","country":"ru","lat":60.851944,"lon":77.019444},{"id":2375398,"name":"bolshaya pylina","country":"ru","lat":61.166667,"lon":77.4},{"id":2449174,"name":"magistralnyy","country":"ru","lat":61.3871,"lon":77.1707},{"id":2487710,"name":"peschanyy mys","country":"ru","lat":61.0883,"lon":76.9224},{"id":2456800,"name":"medvedeva","country":"ru","lat":60.610636,"lon":77.356862},{"id":2569296,"name":"zaytseva rechka","country":"ru","lat":60.6423,"lon":76.6538},{"id":2555182,"name":"vodozabor","country":"ru","lat":61.0599,"lon":76.958},{"id":2426139,"name":"koltogorskiye","country":"ru","lat":60.660429,"lon":77.458495},{"id":2522609,"name":"sosnino","country":"ru","lat":60.7084,"lon":77.0351},{"id":2485113,"name":"pasol","country":"ru","lat":60.846,"lon":77.009},{"id":2548001,"name":"vampugol","country":"ru","lat":60.8562,"lon":76.5874},{"id":2370317,"name":"belozernyy","country":"ru","lat":61.2591,"lon":77.0467},{"id":2531155,"name":"svetlaya protoka","country":"ru","lat":60.6827,"lon":77.1604}]});