callback({"markets":[{"id":697651,"name":"cascabulho","country":"cv","lat":15.2666667,"lon":-23.1833333},{"id":697908,"name":"vale da gusta","country":"cv","lat":14.9833333,"lon":-23.4833333},{"id":697789,"name":"morrinho","country":"cv","lat":15.2666667,"lon":-23.2333333},{"id":697760,"name":"maio","country":"cv","lat":15.1333333,"lon":-23.2166667},{"id":697624,"name":"barreiro","country":"cv","lat":15.1333333,"lon":-23.1666667},{"id":697606,"name":"achada baleia","country":"cv","lat":15.05,"lon":-23.4833333},{"id":697836,"name":"praia baixo","country":"cv","lat":15.0666667,"lon":-23.4833333},{"id":697877,"name":"santo antonio","country":"cv","lat":15.2666667,"lon":-23.1333333},{"id":697612,"name":"alcatraz","country":"cv","lat":15.2166667,"lon":-23.1166667},{"id":697745,"name":"lagoa","country":"cv","lat":15.1333333,"lon":-23.15},{"id":697812,"name":"pedro vaz","country":"cv","lat":15.25,"lon":-23.1333333},{"id":697801,"name":"pai joana","country":"cv","lat":15.2666667,"lon":-23.1166667},{"id":697713,"name":"figueira seca","country":"cv","lat":15.15,"lon":-23.15},{"id":697779,"name":"moia moia","country":"cv","lat":15.0166667,"lon":-23.4666667},{"id":697791,"name":"morro","country":"cv","lat":15.1833333,"lon":-23.2333333}]});