callback({"markets":[{"id":2913596,"name":"katherine","country":"us","lat":35.2222222,"lon":-114.5611111},{"id":2920488,"name":"lanfair","country":"us","lat":35.1258333,"lon":-115.1827778},{"id":2920213,"name":"java","country":"us","lat":34.8875,"lon":-114.7263889},{"id":2919429,"name":"essex","country":"us","lat":34.7336111,"lon":-115.2441667},{"id":2982181,"name":"searchlight","country":"us","lat":35.4652778,"lon":-114.9188889},{"id":2919490,"name":"fenner","country":"us","lat":34.8158333,"lon":-115.1783333},{"id":2922745,"name":"thomas place","country":"us","lat":35.1755556,"lon":-115.4638889},{"id":2913803,"name":"mohave valley","country":"us","lat":34.9330556,"lon":-114.5880556},{"id":2913807,"name":"mojave ranch estates","country":"us","lat":34.9427778,"lon":-114.59},{"id":2914650,"name":"willow valley","country":"us","lat":34.9119444,"lon":-114.6058333},{"id":2981764,"name":"cal-nev-ari","country":"us","lat":35.3055556,"lon":-114.8827778},{"id":2923127,"name":"wheaton springs","country":"us","lat":35.4622222,"lon":-115.4752778},{"id":2921227,"name":"nipton","country":"us","lat":35.4666667,"lon":-115.2713889},{"id":2921169,"name":"needles","country":"us","lat":34.8480556,"lon":-114.6133333},{"id":2981989,"name":"laughlin","country":"us","lat":35.1677778,"lon":-114.5722222},{"id":2922939,"name":"vanderbilt","country":"us","lat":35.3305556,"lon":-115.2502778},{"id":2913802,"name":"mohave crossing","country":"us","lat":35.3333333,"lon":-114.5880556},{"id":2913806,"name":"mojave city","country":"us","lat":35.0444444,"lon":-114.6222222},{"id":2912850,"name":"arizona village","country":"us","lat":34.8530556,"lon":-114.5836111},{"id":2918149,"name":"barnwell","country":"us","lat":35.2930556,"lon":-115.235},{"id":2913224,"name":"davis dam","country":"us","lat":35.18,"lon":-114.5655556},{"id":2913775,"name":"mesquite creek","country":"us","lat":34.9666667,"lon":-114.5677778},{"id":2919724,"name":"goffs","country":"us","lat":34.9191667,"lon":-115.0619444},{"id":2919049,"name":"danby","country":"us","lat":34.6355556,"lon":-115.3472222},{"id":2918044,"name":"arrowhead junction","country":"us","lat":34.9427778,"lon":-114.8236111},{"id":2920350,"name":"klinefelter","country":"us","lat":34.9005556,"lon":-114.7661111},{"id":2919910,"name":"hart","country":"us","lat":35.2888889,"lon":-115.1025},{"id":2920057,"name":"homer","country":"us","lat":34.92,"lon":-114.9361111},{"id":2920122,"name":"ibis","country":"us","lat":34.94,"lon":-114.7916667},{"id":2920249,"name":"joshua","country":"us","lat":35.2711111,"lon":-115.4486111},{"id":2921048,"name":"moore","country":"us","lat":35.3894444,"lon":-115.2636111},{"id":2913347,"name":"fivemile landing","country":"us","lat":34.7952778,"lon":-114.505},{"id":2912970,"name":"bullhead city","country":"us","lat":35.1477778,"lon":-114.5675},{"id":2920190,"name":"ivanpah","country":"us","lat":35.3405556,"lon":-115.3097222},{"id":2918788,"name":"cima","country":"us","lat":35.2377778,"lon":-115.4983333},{"id":2920252,"name":"juan","country":"us","lat":35.3663889,"lon":-115.0872222},{"id":2918140,"name":"bannock","country":"us","lat":34.9366667,"lon":-114.8630556},{"id":2914120,"name":"riviera","country":"us","lat":35.1008333,"lon":-114.6205556},{"id":2918405,"name":"brant","country":"us","lat":35.2916667,"lon":-115.3697222},{"id":2921519,"name":"parker junction","country":"us","lat":34.7702778,"lon":-114.5952778}]});