callback({"markets":[{"id":132720,"name":"mesada","country":"ar","lat":-27.096373,"lon":-67.672003},{"id":133229,"name":"palo blanco","country":"ar","lat":-27.333434,"lon":-67.757735},{"id":128935,"name":"cienega","country":"ar","lat":-27.129731,"lon":-67.6668},{"id":135194,"name":"tamberia","country":"ar","lat":-27.338201,"lon":-68.304105},{"id":127765,"name":"antinaco","country":"ar","lat":-27.212801,"lon":-67.607555},{"id":132633,"name":"matambre","country":"ar","lat":-27.466667,"lon":-68.283333},{"id":135230,"name":"taton","country":"ar","lat":-27.334701,"lon":-67.523724}]});