callback({"markets":[{"id":1401841,"name":"chelesban","country":"ir","lat":35.3182,"lon":49.8777},{"id":1412304,"name":"doruzan","country":"ir","lat":35.1278,"lon":49.5934},{"id":1400633,"name":"chamran","country":"ir","lat":35.1789,"lon":49.928},{"id":1422787,"name":"gowjeh gol","country":"ir","lat":34.989098,"lon":49.779422},{"id":1399785,"name":"chalablu","country":"ir","lat":34.979391,"lon":50.300926},{"id":1385666,"name":"aq kahriz","country":"ir","lat":35.1062,"lon":49.7951},{"id":1406045,"name":"darreh budar","country":"ir","lat":34.731384,"lon":50.156186},{"id":1477241,"name":"saghar joogh","country":"ir","lat":34.525,"lon":49.885},{"id":1471727,"name":"qazi-ye sofla","country":"ir","lat":34.535175,"lon":50.496562},{"id":1450177,"name":"mahalleh pa\u0027in","country":"ir","lat":35.2509,"lon":49.579},{"id":1398054,"name":"chahar hat","country":"ir","lat":35.3715,"lon":49.5505},{"id":1420210,"name":"ghazemabad","country":"ir","lat":34.963823,"lon":50.397567},{"id":1389187,"name":"baghcheh ghaz","country":"ir","lat":35.0821,"lon":49.6348},{"id":1500752,"name":"zamanabad","country":"ir","lat":35.0174,"lon":50.0721},{"id":1469144,"name":"qal`eh-ye molla ya`qub","country":"ir","lat":34.561643,"lon":50.218401},{"id":1472233,"name":"qeshlaq-e mohsen khan","country":"ir","lat":35.4903,"lon":50.4344},{"id":1474963,"name":"razin","country":"ir","lat":35.0293,"lon":49.9968},{"id":1437473,"name":"kard khurd","country":"ir","lat":35.1771,"lon":49.7316},{"id":1389785,"name":"baghshani","country":"ir","lat":35.1268,"lon":50.2593},{"id":1387359,"name":"askin","country":"ir","lat":35.2715,"lon":49.7589},{"id":1481684,"name":"sefid ab","country":"ir","lat":34.586102,"lon":49.828196},{"id":1467127,"name":"qaitaniyeh","country":"ir","lat":35.045,"lon":50.0304},{"id":1442706,"name":"khosravan-e sofla","country":"ir","lat":34.637206,"lon":49.738725},{"id":1440096,"name":"khalifeh kandi","country":"ir","lat":35.1613,"lon":49.6078},{"id":1440411,"name":"khan bala","country":"ir","lat":35.1265,"lon":49.6755},{"id":1472330,"name":"qeshlaq-e sardar","country":"ir","lat":35.4782,"lon":50.3112},{"id":1444304,"name":"kohlu","country":"ir","lat":35.027,"lon":49.7099},{"id":1454599,"name":"meymah","country":"ir","lat":35.1839,"lon":49.6894},{"id":1429461,"name":"ispi","country":"ir","lat":34.695677,"lon":50.351325},{"id":1386644,"name":"arzumand","country":"ir","lat":34.759667,"lon":49.657866},{"id":1401951,"name":"chenaqchi-ye sofla","country":"ir","lat":35.4172,"lon":49.6665},{"id":1410254,"name":"deh sa`id","country":"ir","lat":35.2252,"lon":50.2113},{"id":1493893,"name":"tarkhuran","country":"ir","lat":34.938043,"lon":50.382474},{"id":1430108,"name":"jalair","country":"ir","lat":34.884861,"lon":50.035977},{"id":1391068,"name":"band amir","country":"ir","lat":35.2697,"lon":50.0499},{"id":1493852,"name":"tarizabad","country":"ir","lat":34.87463,"lon":49.710619},{"id":1478343,"name":"sanavand","country":"ir","lat":34.570549,"lon":50.322981},{"id":1455158,"name":"mil","country":"ir","lat":35.4444,"lon":50.0035},{"id":1472359,"name":"qeshlaq-e sharaflu","country":"ir","lat":34.981505,"lon":50.277351},{"id":1493972,"name":"tarraran-e sofla","country":"ir","lat":34.712048,"lon":49.957307},{"id":1410179,"name":"dehqan","country":"ir","lat":34.825843,"lon":49.907931},{"id":1400963,"name":"chaqar","country":"ir","lat":34.701007,"lon":49.7116},{"id":1491483,"name":"tafrakaman","country":"ir","lat":35.0948,"lon":49.7181},{"id":1392811,"name":"baryeh","country":"ir","lat":35.3396,"lon":49.8201},{"id":1411445,"name":"disman","country":"ir","lat":35.0316,"lon":49.8644},{"id":1388089,"name":"azbezan","country":"ir","lat":35.3029,"lon":49.8965},{"id":1454764,"name":"mianeh","country":"ir","lat":35.2812,"lon":50.1387},{"id":1383613,"name":"`alishar","country":"ir","lat":35.428,"lon":49.7969},{"id":1467427,"name":"qal`eh bala","country":"ir","lat":35.2791,"lon":49.5171},{"id":1379512,"name":"ab danak","country":"ir","lat":34.788799,"lon":50.256846},{"id":1414565,"name":"eslamabad","country":"ir","lat":34.517,"lon":49.678},{"id":1406552,"name":"darreh vila","country":"ir","lat":34.725353,"lon":50.106916},{"id":1456665,"name":"mo`inabad","country":"ir","lat":34.68472,"lon":49.970197},{"id":1379245,"name":"`abbasaba","country":"ir","lat":34.850388,"lon":49.651098},{"id":1495987,"name":"toraqan","country":"ir","lat":35.2,"lon":50.333333},{"id":1497783,"name":"vanan","country":"ir","lat":34.682816,"lon":50.188381},{"id":1383375,"name":"`alijan beygi","country":"ir","lat":34.711296,"lon":50.375216},{"id":1432304,"name":"kabud kamar","country":"ir","lat":35.436,"lon":49.9751},{"id":1496240,"name":"towhidlu","country":"ir","lat":35.0966,"lon":49.6079},{"id":1395749,"name":"bolagh","country":"ir","lat":34.933333,"lon":49.766667},{"id":1440737,"name":"khan","country":"ir","lat":35.133333,"lon":49.5},{"id":1468514,"name":"qal`eh-ye ahmad beyk","country":"ir","lat":35.1168,"lon":49.7333},{"id":1416246,"name":"fesengan","country":"ir","lat":34.781171,"lon":49.853485},{"id":1472272,"name":"qeshlaq-e parvinabad","country":"ir","lat":35.283333,"lon":50.35},{"id":1411336,"name":"dinarabad","country":"ir","lat":35.1391,"lon":50.2306},{"id":1436094,"name":"kamarak","country":"ir","lat":34.586917,"lon":49.58675},{"id":1388782,"name":"badam chalegh","country":"ir","lat":35.239,"lon":49.8762},{"id":1478427,"name":"sangabin","country":"ir","lat":35.4532,"lon":49.5507},{"id":1429209,"name":"iralain","country":"ir","lat":34.907303,"lon":50.312888},{"id":1500225,"name":"yusefabad","country":"ir","lat":34.980625,"lon":50.286277},{"id":1383694,"name":"alkan","country":"ir","lat":34.673718,"lon":50.21958},{"id":1426077,"name":"hasanabad-e shir mohammad","country":"ir","lat":35.0528,"lon":50.1389},{"id":1487925,"name":"shotoriyeh","country":"ir","lat":34.593074,"lon":49.621244},{"id":1461452,"name":"nowbahar","country":"ir","lat":34.797294,"lon":49.834224},{"id":1476458,"name":"rushakan","country":"ir","lat":34.636763,"lon":50.229942},{"id":1416561,"name":"flujerd","country":"ir","lat":34.857367,"lon":49.835136},{"id":1420123,"name":"ghari zagheh","country":"ir","lat":35.483333,"lon":50.433333},{"id":1438279,"name":"kasheh","country":"ir","lat":34.568338,"lon":49.850871},{"id":1499365,"name":"yangi kari","country":"ir","lat":35.3221,"lon":50.2861},{"id":1447214,"name":"kurian","country":"ir","lat":34.81729,"lon":49.871363},{"id":1424121,"name":"haftan-e bala","country":"ir","lat":34.806684,"lon":49.689645},{"id":1430306,"name":"jamalak","country":"ir","lat":35.1024,"lon":49.7699},{"id":1426713,"name":"hebran","country":"ir","lat":35.2516,"lon":50.164},{"id":1420098,"name":"ghargh abad","country":"ir","lat":35.1069,"lon":49.8309},{"id":1411537,"name":"dizaik","country":"ir","lat":34.855988,"lon":49.75},{"id":1425793,"name":"harighan","country":"ir","lat":35.3309,"lon":49.6008},{"id":1476711,"name":"sabz`ali","country":"ir","lat":35.483333,"lon":50.116667},{"id":1476920,"name":"sadeqabad","country":"ir","lat":34.694321,"lon":50.42777},{"id":1469386,"name":"qal`eh-ye shafikhan","country":"ir","lat":34.890272,"lon":50.355836},{"id":1405209,"name":"darbar","country":"ir","lat":34.897604,"lon":49.871197},{"id":1384066,"name":"alvir","country":"ir","lat":35.3872,"lon":50.001},{"id":1452423,"name":"marqakan","country":"ir","lat":35.1173,"lon":49.7388},{"id":1452937,"name":"mastar","country":"ir","lat":34.63,"lon":49.776364},{"id":1430215,"name":"jalilabad","country":"ir","lat":34.555608,"lon":49.6494},{"id":1489235,"name":"sinabad","country":"ir","lat":34.648031,"lon":50.205463},{"id":1379675,"name":"`abdollahabad-e pa\u0027in","country":"ir","lat":34.619933,"lon":50.063958},{"id":1478220,"name":"samavak","country":"ir","lat":35.0353,"lon":50.0949},{"id":1383344,"name":"`ali hallaj","country":"ir","lat":35.4314,"lon":49.5364},{"id":1472975,"name":"qods","country":"ir","lat":34.719612,"lon":49.976826},{"id":1418904,"name":"gazavand","country":"ir","lat":35.0101,"lon":49.6605},{"id":1422737,"name":"gowg sagud","country":"ir","lat":34.805592,"lon":49.665178},{"id":1499384,"name":"yanquyeh-ye pa\u0027in","country":"ir","lat":35.483333,"lon":50.1},{"id":1472153,"name":"qeshlaq-e karbala\u0027i javad","country":"ir","lat":35.483333,"lon":50.2},{"id":1386962,"name":"ashahr","country":"ir","lat":35.4356,"lon":49.9136},{"id":1456058,"name":"moftabad","country":"ir","lat":35.4892,"lon":50.0906},{"id":1498304,"name":"vasfownjerd","country":"ir","lat":34.673315,"lon":50.287005},{"id":1502167,"name":"ziadabad","country":"ir","lat":34.719548,"lon":49.562734},{"id":1386305,"name":"arjarud","country":"ir","lat":35.0636,"lon":49.9032},{"id":1440241,"name":"khalul","country":"ir","lat":34.929846,"lon":50.321067},{"id":1472184,"name":"qeshlaq-e labar","country":"ir","lat":34.921658,"lon":50.404242},{"id":1472148,"name":"qeshlaq-e kachalu","country":"ir","lat":34.905125,"lon":50.457289},{"id":1499754,"name":"yekeh bagh","country":"ir","lat":35.1232,"lon":50.0787},{"id":1471918,"name":"qeshlaq-e aftabru","country":"ir","lat":35.4734,"lon":50.0666},{"id":1418809,"name":"gazabad","country":"ir","lat":34.760786,"lon":50.247156},{"id":1384186,"name":"amereh","country":"ir","lat":34.540659,"lon":50.160843},{"id":1489941,"name":"soltan qal`ehsi","country":"ir","lat":35.4394,"lon":49.6273},{"id":1388000,"name":"azad kin","country":"ir","lat":35.2612,"lon":50.1245},{"id":1448015,"name":"labar","country":"ir","lat":34.920597,"lon":50.421597},{"id":1396391,"name":"bon nesa\u0027","country":"ir","lat":34.716111,"lon":49.956982},{"id":1475010,"name":"razqan","country":"ir","lat":35.3307,"lon":49.9532},{"id":1448988,"name":"layekan","country":"ir","lat":35.2953,"lon":50.2586},{"id":1382273,"name":"akhtaj","country":"ir","lat":35.4645,"lon":49.6898},{"id":1471674,"name":"qazi bala","country":"ir","lat":34.539079,"lon":50.480589},{"id":1499952,"name":"yengi qal`eh","country":"ir","lat":35.195,"lon":49.5833},{"id":1456396,"name":"mohammad beyg","country":"ir","lat":34.548263,"lon":50.483751},{"id":1499752,"name":"yekeh bagh-e bala","country":"ir","lat":35.116667,"lon":50.066667},{"id":1490226,"name":"sorkheh deh","country":"ir","lat":34.92125,"lon":50.275649},{"id":1404476,"name":"dalestan","country":"ir","lat":34.919245,"lon":50.375831},{"id":1478898,"name":"saqanluq","country":"ir","lat":35.0531,"lon":50.2746},{"id":1463676,"name":"palas khan","country":"ir","lat":34.933333,"lon":50.3725},{"id":1472894,"name":"qiyujik","country":"ir","lat":34.946938,"lon":50.092327},{"id":1454962,"name":"michak","country":"ir","lat":35.2052,"lon":49.812},{"id":1382026,"name":"ajan","country":"ir","lat":35.3728,"lon":49.9543},{"id":1493890,"name":"tarkhoran","country":"ir","lat":34.691667,"lon":50.003611},{"id":1399866,"name":"chal","country":"ir","lat":34.638549,"lon":49.921348},{"id":1471865,"name":"qermezin","country":"ir","lat":35.2614,"lon":49.6219},{"id":1441369,"name":"khasras","country":"ir","lat":34.840969,"lon":49.554339},{"id":1440808,"name":"khanqah","country":"ir","lat":35.2287,"lon":49.5302},{"id":1480347,"name":"sari qash","country":"ir","lat":35.1712,"lon":49.9913},{"id":1403998,"name":"dadamras","country":"ir","lat":34.701471,"lon":50.00973},{"id":1459647,"name":"narkhuran","country":"ir","lat":34.699444,"lon":50.440556},{"id":1440205,"name":"khalkhab","country":"ir","lat":35.1655,"lon":50.0538},{"id":1395569,"name":"bivaran","country":"ir","lat":35.1866,"lon":49.8889},{"id":1497774,"name":"vanak","country":"ir","lat":34.676298,"lon":49.5304},{"id":1472182,"name":"qeshlaq-e konab","country":"ir","lat":34.878789,"lon":50.461375},{"id":1430490,"name":"janaqchi-ye bala","country":"ir","lat":35.3775,"lon":49.6606},{"id":1496137,"name":"torshak","country":"ir","lat":35.2132,"lon":49.995},{"id":1486365,"name":"shekarabad","country":"ir","lat":35.3888,"lon":50.4944},{"id":1485086,"name":"shahsavan kandi-ye bala","country":"ir","lat":35.0405,"lon":50.0893},{"id":1474234,"name":"raikhin","country":"ir","lat":34.765861,"lon":49.589524},{"id":1462819,"name":"owjan","country":"ir","lat":34.869462,"lon":50.377368},{"id":1482577,"name":"seydabad","country":"ir","lat":34.86976,"lon":50.475958},{"id":1492118,"name":"tak qisin","country":"ir","lat":35.05,"lon":49.533333},{"id":1436664,"name":"kangaran","country":"ir","lat":34.61929,"lon":49.861211},{"id":1406983,"name":"darwazeh","country":"ir","lat":35.1648,"lon":49.5163},{"id":1419437,"name":"gerakan","country":"ir","lat":34.551065,"lon":49.962303},{"id":1432318,"name":"kaburan","country":"ir","lat":34.729635,"lon":49.976121},{"id":1461523,"name":"nowdeh-e hajnabi","country":"ir","lat":34.567966,"lon":49.751063},{"id":1500112,"name":"yuldashabad","country":"ir","lat":35.0592,"lon":49.9027},{"id":1387928,"name":"ayr","country":"ir","lat":34.703205,"lon":49.741707},{"id":1467043,"name":"qahan","country":"ir","lat":34.724535,"lon":50.263475},{"id":1435655,"name":"kalleh dasht","country":"ir","lat":35.0697,"lon":49.8577},{"id":1387669,"name":"atulen","country":"ir","lat":35.2755,"lon":49.7569},{"id":1406200,"name":"darreh hajji iman","country":"ir","lat":35.0376,"lon":50.1373},{"id":1381671,"name":"ahmadabad","country":"ir","lat":34.597855,"lon":50.361561},{"id":1405696,"name":"darjand","country":"ir","lat":35.4417,"lon":49.6324},{"id":1448336,"name":"lala\u0027in","country":"ir","lat":34.655037,"lon":50.066186},{"id":1478199,"name":"saman","country":"ir","lat":35.2585,"lon":49.5764},{"id":1396784,"name":"borzabad","country":"ir","lat":34.537013,"lon":49.670813},{"id":1389252,"name":"bagh-e `abdollah","country":"ir","lat":35.0477,"lon":50.373},{"id":1429326,"name":"isfahanak","country":"ir","lat":35.25,"lon":50.216667},{"id":1478817,"name":"sanjegan","country":"ir","lat":34.506666,"lon":50.324568},{"id":1450336,"name":"mahdudeh-ye ehdas-e shahrak-e fajr","country":"ir","lat":35.0269,"lon":50.3319},{"id":1432812,"name":"kahloo","country":"ir","lat":34.992599,"lon":49.769455},{"id":1385474,"name":"aq bolaq","country":"ir","lat":35.3819,"lon":49.5763},{"id":1468765,"name":"qal`eh-ye farzi","country":"ir","lat":34.881111,"lon":50.355556},{"id":1472651,"name":"qezeljah","country":"ir","lat":34.774165,"lon":49.869786},{"id":1445425,"name":"kordeh bar","country":"ir","lat":35.2428,"lon":49.5038},{"id":1380474,"name":"abrehdar","country":"ir","lat":34.798729,"lon":50.124176},{"id":1472905,"name":"qizilgash","country":"ir","lat":34.862954,"lon":49.671695},{"id":1460961,"name":"niki kand","country":"ir","lat":35.3739,"lon":49.7368},{"id":1502592,"name":"zizgan","country":"ir","lat":34.52109,"lon":50.178473},{"id":1499755,"name":"yekeh bagh","country":"ir","lat":34.516317,"lon":50.367033},{"id":1458463,"name":"mussiabad","country":"ir","lat":34.545169,"lon":49.924641},{"id":1389080,"name":"baghak","country":"ir","lat":34.569038,"lon":50.445333},{"id":1485174,"name":"shah varuq","country":"ir","lat":34.645363,"lon":49.878803},{"id":1472009,"name":"qeshlaq-e emamzadeh","country":"ir","lat":34.938179,"lon":50.457043},{"id":1423314,"name":"guneh","country":"ir","lat":34.627461,"lon":49.829767},{"id":1436558,"name":"kandijh","country":"ir","lat":34.870186,"lon":50.046621},{"id":1481793,"name":"sefid shian","country":"ir","lat":34.628998,"lon":49.961035},{"id":1416263,"name":"feshk","country":"ir","lat":34.672329,"lon":49.742828},{"id":1498877,"name":"viyeh","country":"ir","lat":34.835874,"lon":50.292722},{"id":1381937,"name":"ahu","country":"ir","lat":34.560689,"lon":50.032964},{"id":1499858,"name":"yengeh emam","country":"ir","lat":34.934708,"lon":50.495809},{"id":1403643,"name":"chub deraz","country":"ir","lat":34.611826,"lon":50.098363},{"id":1412176,"name":"doquz","country":"ir","lat":35.383333,"lon":50.366667},{"id":1498138,"name":"varkbar-e `olya","country":"ir","lat":35.3189,"lon":49.5748},{"id":1455240,"name":"minjgan","country":"ir","lat":35.3629,"lon":49.8399},{"id":1425812,"name":"harisan","country":"ir","lat":34.910846,"lon":50.401151},{"id":1499819,"name":"yelabad","country":"ir","lat":34.953793,"lon":50.307216},{"id":1471858,"name":"qermez cheshmeh","country":"ir","lat":34.694224,"lon":49.795746},{"id":1413377,"name":"duzaj","country":"ir","lat":35.3957,"lon":49.8227},{"id":1452706,"name":"mashhad-e zolfabad","country":"ir","lat":34.512249,"lon":49.641479},{"id":1427208,"name":"hesar qelich","country":"ir","lat":34.964803,"lon":50.403024},{"id":1415593,"name":"faresmaneh","country":"ir","lat":34.898279,"lon":49.990335},{"id":1498397,"name":"vasmaq","country":"ir","lat":34.911997,"lon":49.583672},{"id":1440362,"name":"khanak","country":"ir","lat":34.849164,"lon":50.059156},{"id":1472708,"name":"qezelqash","country":"ir","lat":35.2804,"lon":49.74},{"id":1400143,"name":"chamanak","country":"ir","lat":34.664195,"lon":50.230681},{"id":1451795,"name":"man now","country":"ir","lat":35.116667,"lon":49.75},{"id":1475538,"name":"rivasar","country":"ir","lat":34.773277,"lon":50.346095},{"id":1498232,"name":"varsan","country":"ir","lat":34.500911,"lon":50.139585},{"id":1424185,"name":"haftian","country":"ir","lat":34.937877,"lon":49.568992},{"id":1390734,"name":"balgholoo","country":"ir","lat":35.0725,"lon":49.8088},{"id":1471983,"name":"qeshlaq-e bayer","country":"ir","lat":34.779977,"lon":50.447711},{"id":1379602,"name":"`abdolabad-e bala","country":"ir","lat":34.612046,"lon":50.069175},{"id":1411377,"name":"dinjerd","country":"ir","lat":34.7051,"lon":49.9865},{"id":1497907,"name":"varak bar-e pa\u0027in","country":"ir","lat":35.0424,"lon":49.9853},{"id":1500425,"name":"zaghar","country":"ir","lat":34.685583,"lon":49.953134},{"id":1425976,"name":"hasanabad-e band","country":"ir","lat":34.906133,"lon":50.163668},{"id":1491806,"name":"tajjra","country":"ir","lat":35.2362,"lon":49.6817},{"id":1433456,"name":"kalagh neshin","country":"ir","lat":34.689544,"lon":50.426685},{"id":1463610,"name":"palangabad","country":"ir","lat":35.0046,"lon":49.9599},{"id":1454057,"name":"mehrzamin","country":"ir","lat":34.790024,"lon":50.165464},{"id":1428272,"name":"hoseynabad-e zarand","country":"ir","lat":35.3333,"lon":50.4333},{"id":1433512,"name":"kala","country":"ir","lat":34.762293,"lon":49.725129},{"id":1457429,"name":"mosallamabad","country":"ir","lat":35.0981,"lon":49.7609},{"id":1469326,"name":"qal`eh-ye rusian","country":"ir","lat":34.937085,"lon":49.634641},{"id":1469035,"name":"qal`eh-ye kordha","country":"ir","lat":34.884208,"lon":50.396269},{"id":1384316,"name":"amirabad-e sali darreh","country":"ir","lat":35.4467,"lon":49.723},{"id":1472976,"name":"qods","country":"ir","lat":34.733333,"lon":50.333333},{"id":1498856,"name":"vismach","country":"ir","lat":35.3054,"lon":50.0751},{"id":1443825,"name":"kiab","country":"ir","lat":34.648798,"lon":50.261861},{"id":1451150,"name":"malekabad","country":"ir","lat":34.889174,"lon":50.315154},{"id":1419145,"name":"gazrah","country":"ir","lat":34.575003,"lon":49.617737},{"id":1472119,"name":"qeshlaq-e hoseynabad","country":"ir","lat":34.890402,"lon":50.414506},{"id":1445730,"name":"koshkbar","country":"ir","lat":35.2287,"lon":49.9873},{"id":1385048,"name":"anjileh","country":"ir","lat":34.732861,"lon":50.157335},{"id":1458648,"name":"nadirabad","country":"ir","lat":34.517476,"lon":49.941549},{"id":1440232,"name":"khaltabad","country":"ir","lat":34.554128,"lon":49.670397},{"id":1491484,"name":"tafresh","country":"ir","lat":34.692,"lon":50.013},{"id":1385798,"name":"aqziqarq","country":"ir","lat":35.4584,"lon":50.4592},{"id":1388098,"name":"`azemabad","country":"ir","lat":35.0115,"lon":49.8345},{"id":1383998,"name":"alusjerd","country":"ir","lat":34.957584,"lon":50.344093},{"id":1480889,"name":"sar rah band","country":"ir","lat":34.58854,"lon":49.852265},{"id":1395602,"name":"bizgird","country":"ir","lat":35.2602,"lon":49.9225},{"id":1472855,"name":"qishlaq `aliabad","country":"ir","lat":35.3158,"lon":50.1903},{"id":1488370,"name":"shurjeh-ye `olya","country":"ir","lat":34.504044,"lon":49.938298},{"id":1431739,"name":"jowjin","country":"ir","lat":34.870958,"lon":50.336795},{"id":1436428,"name":"kanaabad","country":"ir","lat":35.3266,"lon":50.2499},{"id":1399789,"name":"chalageh","country":"ir","lat":35.181,"lon":49.6075},{"id":1438480,"name":"kasva","country":"ir","lat":34.725866,"lon":50.180343},{"id":1426876,"name":"hendes","country":"ir","lat":34.814868,"lon":50.314058},{"id":1498611,"name":"verdi","country":"ir","lat":35.216667,"lon":50.233333},{"id":1481812,"name":"seft","country":"ir","lat":34.62072,"lon":50.379921},{"id":1451594,"name":"mamuliyeh","country":"ir","lat":35.3079,"lon":50.4938},{"id":1387182,"name":"ashtariyeh","country":"ir","lat":34.700355,"lon":50.420628},{"id":1381174,"name":"aftabru","country":"ir","lat":35.466667,"lon":50.05},{"id":1501135,"name":"zarchin","country":"ir","lat":34.929416,"lon":49.877605},{"id":1382167,"name":"akbarabad-e qushchi","country":"ir","lat":35.092,"lon":49.8823},{"id":1385586,"name":"aqdash","country":"ir","lat":35.28,"lon":49.5148},{"id":1440283,"name":"khamjan","country":"ir","lat":34.559523,"lon":49.623427},{"id":1462495,"name":"ordmin","country":"ir","lat":35.221,"lon":49.806},{"id":1414215,"name":"esfin","country":"ir","lat":34.571838,"lon":49.628588},{"id":1431845,"name":"jowzeh","country":"ir","lat":34.53534,"lon":50.211391},{"id":1423032,"name":"gugjeh menar","country":"ir","lat":35.1067,"lon":49.5324},{"id":1407364,"name":"dasht-e rachan","country":"ir","lat":34.576466,"lon":50.017756},{"id":1383043,"name":"`aliabad-e nazarkhani","country":"ir","lat":34.716667,"lon":50.383333},{"id":1471938,"name":"qeshlaq-e amirabad","country":"ir","lat":35.05,"lon":50.2},{"id":1472205,"name":"qeshlaq-e mazre`eh","country":"ir","lat":34.981944,"lon":50.289167},{"id":1462015,"name":"nur `ali beyg","country":"ir","lat":35.0526,"lon":50.2899},{"id":1480401,"name":"sari-ye sofla","country":"ir","lat":35.2262,"lon":49.5324},{"id":1450800,"name":"majd abad","country":"ir","lat":34.53844,"lon":49.714048},{"id":1401113,"name":"charmak","country":"ir","lat":35.132,"lon":50.2434},{"id":1405471,"name":"darestan","country":"ir","lat":34.559465,"lon":49.807364},{"id":1452011,"name":"maragheh-ye pa\u0027in","country":"ir","lat":35.233333,"lon":49.716667},{"id":1382150,"name":"akbarabad-e gol chehreh","country":"ir","lat":35.2174,"lon":50.4229},{"id":1436032,"name":"kamal lu","country":"ir","lat":35.1996,"lon":49.5778},{"id":1490751,"name":"sulaqan","country":"ir","lat":34.728587,"lon":50.37043},{"id":1411417,"name":"dirmanik","country":"ir","lat":34.601357,"lon":49.765061},{"id":1473742,"name":"qushchi","country":"ir","lat":35.083333,"lon":49.966667},{"id":1469520,"name":"qal`eh-ye zargami","country":"ir","lat":34.883333,"lon":50.35},{"id":1476791,"name":"sa`dabad","country":"ir","lat":34.53,"lon":49.885},{"id":1446300,"name":"kuhin","country":"ir","lat":34.672,"lon":50.0},{"id":1458351,"name":"musakheh","country":"ir","lat":34.699717,"lon":50.309311},{"id":1445550,"name":"koreh","country":"ir","lat":34.91428,"lon":49.590718},{"id":1429851,"name":"jaftan","country":"ir","lat":34.836129,"lon":49.751867},{"id":1499335,"name":"yangeh kahriz-e verdeh","country":"ir","lat":35.2435,"lon":50.2576},{"id":1481688,"name":"sefidaleh","country":"ir","lat":34.605263,"lon":50.358203},{"id":1460280,"name":"nazarlu","country":"ir","lat":35.4794,"lon":50.4577},{"id":1488908,"name":"sialeh","country":"ir","lat":34.934,"lon":50.039751},{"id":1379292,"name":"`abbasabad-e bard `ali","country":"ir","lat":35.3988,"lon":50.4748},{"id":1440363,"name":"khanak","country":"ir","lat":34.643348,"lon":50.211648},{"id":1431126,"name":"jemezqan","country":"ir","lat":34.727778,"lon":50.278056},{"id":1487411,"name":"shirinabad","country":"ir","lat":34.646998,"lon":49.584696},{"id":1395926,"name":"bon chenar","country":"ir","lat":34.567982,"lon":49.929319},{"id":1482117,"name":"selijerd","country":"ir","lat":35.1311,"lon":50.2671},{"id":1469462,"name":"qal`eh-ye som-e sami","country":"ir","lat":34.885498,"lon":50.352394},{"id":1472316,"name":"qeshlaq-e sabz `ali","country":"ir","lat":35.4891,"lon":50.2859},{"id":1458737,"name":"naghoosan","country":"ir","lat":34.732039,"lon":49.890007},{"id":1461344,"name":"noshveh","country":"ir","lat":35.2026,"lon":50.201},{"id":1472322,"name":"qeshlaq-e salehabad","country":"ir","lat":34.822639,"lon":50.37747},{"id":1434242,"name":"kalateh-ye dahaneh-ye ghar","country":"ir","lat":35.383333,"lon":50.316667},{"id":1488042,"name":"shulak","country":"ir","lat":34.968184,"lon":49.79896},{"id":1445403,"name":"kordak","country":"ir","lat":35.0988,"lon":49.5561},{"id":1457339,"name":"morghdari-ye hoseynabad-e bivaran","country":"ir","lat":35.133333,"lon":49.833333},{"id":1420730,"name":"gir","country":"ir","lat":34.54766,"lon":50.27079},{"id":1427061,"name":"hesar chari","country":"ir","lat":35.3098,"lon":49.6521},{"id":1452079,"name":"maraq kan","country":"ir","lat":34.955548,"lon":49.989138},{"id":1384062,"name":"alvijan","country":"ir","lat":34.713469,"lon":49.993031},{"id":1499987,"name":"yevlaq","country":"ir","lat":35.1337,"lon":50.2191},{"id":1382161,"name":"akbarabad-e `olya","country":"ir","lat":34.871827,"lon":50.440984},{"id":1398230,"name":"chah bar","country":"ir","lat":35.135,"lon":49.5513},{"id":1448703,"name":"lar","country":"ir","lat":35.3696,"lon":49.7113},{"id":1439303,"name":"kerek","country":"ir","lat":34.695228,"lon":50.067469},{"id":1385964,"name":"`araqiyeh","country":"ir","lat":34.540311,"lon":49.620028},{"id":1424173,"name":"hafteh khanak","country":"ir","lat":34.679149,"lon":49.509606},{"id":1423185,"name":"gulistan","country":"ir","lat":34.65252,"lon":50.480457},{"id":1471963,"name":"qeshlaq-e `azizabad","country":"ir","lat":35.0578,"lon":50.0837},{"id":1486314,"name":"shehrab","country":"ir","lat":34.592543,"lon":49.895951},{"id":1461145,"name":"nivesht","country":"ir","lat":35.1247,"lon":50.1314},{"id":1404398,"name":"dakhan","country":"ir","lat":35.1251,"lon":49.5176},{"id":1385958,"name":"ara qal`eh","country":"ir","lat":35.1015,"lon":49.7221},{"id":1452007,"name":"maragheh","country":"ir","lat":35.2291,"lon":49.7112},{"id":1492468,"name":"talkhab","country":"ir","lat":34.71286,"lon":49.649496},{"id":1496695,"name":"turehqan","country":"ir","lat":35.216667,"lon":50.35},{"id":1393642,"name":"bazrijan","country":"ir","lat":34.783697,"lon":49.927406},{"id":1487432,"name":"shirin bolagh","country":"ir","lat":34.895026,"lon":49.696493},{"id":1426848,"name":"hemmatabad","country":"ir","lat":34.539355,"lon":50.239458},{"id":1491811,"name":"taj khatun","country":"ir","lat":34.551337,"lon":50.496544},{"id":1477554,"name":"saiyidabad","country":"ir","lat":35.333,"lon":50.2161},{"id":1452249,"name":"margh","country":"ir","lat":34.954241,"lon":49.957462},{"id":1461470,"name":"nowbaran","country":"ir","lat":35.1294,"lon":49.7089},{"id":1460203,"name":"nayeh","country":"ir","lat":34.613891,"lon":50.256056},{"id":1454969,"name":"michinak","country":"ir","lat":35.1678,"lon":49.5046},{"id":1469006,"name":"qal`eh-ye khoda bandeh khan","country":"ir","lat":35.1221,"lon":49.6758},{"id":1415579,"name":"fardaghan","country":"ir","lat":34.831362,"lon":49.600164},{"id":1467205,"name":"qal`ak","country":"ir","lat":35.1418,"lon":50.1964},{"id":1386646,"name":"asaabad","country":"ir","lat":34.534799,"lon":50.266525},{"id":1481899,"name":"sehelabad","country":"ir","lat":34.834717,"lon":50.366237},{"id":1498452,"name":"vaymand","country":"ir","lat":34.919977,"lon":49.943355},{"id":1432115,"name":"jurqin","country":"ir","lat":34.988648,"lon":49.785626},{"id":1470602,"name":"qardin","country":"ir","lat":34.943297,"lon":50.293773},{"id":1491229,"name":"susan naqin","country":"ir","lat":35.036,"lon":50.0122},{"id":1405582,"name":"dargoza","country":"ir","lat":35.216667,"lon":49.55},{"id":1391294,"name":"band cha\u0027i","country":"ir","lat":34.924098,"lon":50.184107},{"id":1475548,"name":"rizaabad","country":"ir","lat":34.98145,"lon":50.486583},{"id":1502269,"name":"zibakan","country":"ir","lat":34.529957,"lon":50.494602},{"id":1472314,"name":"qeshlaq-e reza qoli","country":"ir","lat":35.483333,"lon":50.166667},{"id":1419057,"name":"gaz\u0027in","country":"ir","lat":34.887208,"lon":50.010713},{"id":1464368,"name":"parsemeh","country":"ir","lat":34.886762,"lon":49.693559},{"id":1470638,"name":"qareh baba","country":"ir","lat":35.033333,"lon":49.5},{"id":1457927,"name":"muhsinabad","country":"ir","lat":34.510668,"lon":49.845075},{"id":1384335,"name":"amir abad zarand","country":"ir","lat":35.2933,"lon":50.4901},{"id":1411548,"name":"dizaj","country":"ir","lat":34.831327,"lon":50.114054},{"id":1387196,"name":"ashtiyan","country":"ir","lat":34.522,"lon":50.006},{"id":1387155,"name":"ashqal","country":"ir","lat":34.525715,"lon":49.581193},{"id":1477518,"name":"saifabad","country":"ir","lat":34.892532,"lon":50.345678},{"id":1495203,"name":"tinuj","country":"ir","lat":34.548608,"lon":50.288338},{"id":1498270,"name":"varzaneh","country":"ir","lat":34.565139,"lon":50.315202},{"id":1499383,"name":"yanquyeh-ye bala","country":"ir","lat":35.4877,"lon":50.1091},{"id":1442260,"name":"khonajin","country":"ir","lat":34.756378,"lon":49.532076},{"id":1468547,"name":"qal`eh-ye allahqolibeyg","country":"ir","lat":34.555833,"lon":50.484167},{"id":1415720,"name":"farmahin","country":"ir","lat":34.503834,"lon":49.684367},{"id":1451056,"name":"malard","country":"ir","lat":35.2892,"lon":50.3465},{"id":1426338,"name":"hashah","country":"ir","lat":34.825787,"lon":49.800249},{"id":1413907,"name":"emamzadeh khuraq","country":"ir","lat":35.0542,"lon":50.0245},{"id":1497674,"name":"valiman","country":"ir","lat":35.0431,"lon":50.4471},{"id":1497906,"name":"varak bar-e bala","country":"ir","lat":35.316667,"lon":50.25},{"id":1441230,"name":"kharrazan","country":"ir","lat":34.770493,"lon":50.053486},{"id":1416607,"name":"fowjerd","country":"ir","lat":34.568494,"lon":50.139996},{"id":1432652,"name":"kahak-e bala","country":"ir","lat":35.0846,"lon":49.8151},{"id":1452743,"name":"mashhad","country":"ir","lat":34.793112,"lon":49.927903},{"id":1397261,"name":"bulupund","country":"ir","lat":35.2991,"lon":50.0337},{"id":1445243,"name":"koodraz","country":"ir","lat":34.558995,"lon":49.508054},{"id":1391351,"name":"band-e naqi","country":"ir","lat":35.027,"lon":50.0295},{"id":1397881,"name":"chahak","country":"ir","lat":34.765926,"lon":50.304909},{"id":1491466,"name":"tad","country":"ir","lat":34.705212,"lon":49.993519},{"id":1412350,"name":"dostkand","country":"ir","lat":34.586562,"lon":49.502229},{"id":1387231,"name":"asiabak-e band","country":"ir","lat":34.927607,"lon":50.221714},{"id":1383314,"name":"`ali darzi","country":"ir","lat":35.1236,"lon":49.8734},{"id":1468605,"name":"qal`eh-ye `azizkhan","country":"ir","lat":34.951389,"lon":50.375278},{"id":1443089,"name":"khuni","country":"ir","lat":35.0985,"lon":49.7864},{"id":1428310,"name":"hoseynabad","country":"ir","lat":35.216667,"lon":50.316667},{"id":1436592,"name":"kandrud","country":"ir","lat":34.602466,"lon":50.319215},{"id":1470703,"name":"qareh chay","country":"ir","lat":34.859607,"lon":49.767857},{"id":1452396,"name":"mar","country":"ir","lat":35.1,"lon":49.816667},{"id":1501089,"name":"zarand kohneh","country":"ir","lat":35.2886,"lon":50.4881},{"id":1472238,"name":"qeshlaq-e morad khanlu","country":"ir","lat":34.899166,"lon":50.450037},{"id":1451837,"name":"mansurabad","country":"ir","lat":34.53048,"lon":50.250722},{"id":1474708,"name":"rastehgan","country":"ir","lat":34.558682,"lon":50.162181},{"id":1460647,"name":"nevis","country":"ir","lat":34.727905,"lon":50.197679},{"id":1478964,"name":"sarabadan","country":"ir","lat":34.739167,"lon":50.109429},{"id":1499427,"name":"yarabad","country":"ir","lat":35.2973,"lon":49.6935},{"id":1413735,"name":"emamabad-e kunab","country":"ir","lat":34.885134,"lon":50.447862},{"id":1473419,"name":"quch-e emami","country":"ir","lat":35.1529,"lon":50.3803},{"id":1430472,"name":"janabad","country":"ir","lat":35.2305,"lon":49.5107},{"id":1424125,"name":"haftan-i-sufla","country":"ir","lat":34.82535,"lon":49.68538},{"id":1404711,"name":"damirchi","country":"ir","lat":35.1662,"lon":49.6627},{"id":1472297,"name":"qeshlaq-e qareh mohammadlu","country":"ir","lat":34.893162,"lon":50.498336},{"id":1392075,"name":"bar bar","country":"ir","lat":35.3254,"lon":50.4863},{"id":1387176,"name":"ashtajak","country":"ir","lat":35.0701,"lon":49.7693},{"id":1447480,"name":"kushkarut","country":"ir","lat":35.3986,"lon":50.3341},{"id":1391928,"name":"barah mum","country":"ir","lat":35.3018,"lon":49.9194},{"id":1423731,"name":"gusheh khani","country":"ir","lat":34.901845,"lon":49.547169},{"id":1498359,"name":"vashqan","country":"ir","lat":34.664915,"lon":49.819232},{"id":1381382,"name":"aghelak","country":"ir","lat":34.73408,"lon":50.32526},{"id":1453952,"name":"mehrabli","country":"ir","lat":34.864624,"lon":50.445851},{"id":1498746,"name":"vidar","country":"ir","lat":35.3253,"lon":50.1128},{"id":1478435,"name":"sangak","country":"ir","lat":35.254,"lon":49.7274},{"id":1472771,"name":"qez qal`eh","country":"ir","lat":34.894133,"lon":50.225705},{"id":1498635,"name":"veshareh","country":"ir","lat":34.516854,"lon":50.230531},{"id":1472786,"name":"qiajik","country":"ir","lat":35.0346,"lon":49.9766},{"id":1499611,"name":"yatan","country":"ir","lat":35.2124,"lon":49.5526},{"id":1380963,"name":"adarbala","country":"ir","lat":35.4154,"lon":49.9},{"id":1382158,"name":"akbarabad-e nivesht","country":"ir","lat":35.1058,"lon":50.1281},{"id":1389488,"name":"bagh-e sheykh","country":"ir","lat":34.989371,"lon":50.449283},{"id":1451369,"name":"malik poweh","country":"ir","lat":34.78576,"lon":49.611087},{"id":1432653,"name":"kahak-e pa\u0027in","country":"ir","lat":35.0832,"lon":49.8101},{"id":1462004,"name":"nurabad","country":"ir","lat":34.623907,"lon":50.378231},{"id":1467480,"name":"qal`eh boland","country":"ir","lat":34.614527,"lon":50.248311},{"id":1410583,"name":"delaram-e `olya","country":"ir","lat":34.70441,"lon":49.947757},{"id":1499024,"name":"warma","country":"ir","lat":35.4434,"lon":49.8762},{"id":1430451,"name":"jamshidabad","country":"ir","lat":35.0595,"lon":49.9341},{"id":1451152,"name":"malekabad","country":"ir","lat":34.613364,"lon":50.292007},{"id":1470437,"name":"qarajeh qeyeh","country":"ir","lat":34.936121,"lon":49.578638},{"id":1469433,"name":"qal`eh-ye shir khan","country":"ir","lat":34.878514,"lon":50.418365},{"id":1481483,"name":"saveh","country":"ir","lat":35.0213,"lon":50.3566},{"id":1452615,"name":"masar ghan","country":"ir","lat":35.3666,"lon":49.7727},{"id":1462709,"name":"ostuj","country":"ir","lat":34.894441,"lon":50.368575},{"id":1425648,"name":"haqaniyeh","country":"ir","lat":35.0114,"lon":50.1052},{"id":1462543,"name":"ortagol","country":"ir","lat":34.730433,"lon":49.726092},{"id":1415030,"name":"`eynabad","country":"ir","lat":35.371,"lon":49.8871},{"id":1438895,"name":"kazimabad","country":"ir","lat":34.624686,"lon":49.679145},{"id":1500769,"name":"zambar","country":"ir","lat":35.3108,"lon":49.685},{"id":1484923,"name":"shahrestanak","country":"ir","lat":34.846341,"lon":50.458559},{"id":1498257,"name":"varvan","country":"ir","lat":34.569117,"lon":49.560441},{"id":1501462,"name":"zarnusheh","country":"ir","lat":34.539874,"lon":49.860748},{"id":1468912,"name":"qal`eh-ye hoseynabad","country":"ir","lat":34.890276,"lon":50.424447},{"id":1428770,"name":"husainiyeh","country":"ir","lat":34.510519,"lon":49.620399},{"id":1415537,"name":"farak","country":"ir","lat":34.783973,"lon":49.814401},{"id":1495247,"name":"tireh","country":"ir","lat":35.4236,"lon":49.6072},{"id":1472823,"name":"qili kand","country":"ir","lat":35.4551,"lon":49.6782},{"id":1387030,"name":"ashianak","country":"ir","lat":35.0225,"lon":49.9283},{"id":1385726,"name":"aq qal`eh","country":"ir","lat":35.1872,"lon":49.5937},{"id":1387778,"name":"aveh","country":"ir","lat":34.792313,"lon":50.423174},{"id":1442705,"name":"khosravan-e `olya","country":"ir","lat":34.654778,"lon":49.766753},{"id":1491383,"name":"tabarteh","country":"ir","lat":34.520765,"lon":49.512297},{"id":1431799,"name":"jowsheghan","country":"ir","lat":35.1686,"lon":49.644},{"id":1388429,"name":"babaklu","country":"ir","lat":34.956703,"lon":49.549803},{"id":1382962,"name":"`aliabad-e enqelab","country":"ir","lat":34.810043,"lon":50.471327},{"id":1470669,"name":"qareh bolagh","country":"ir","lat":34.938824,"lon":50.467698},{"id":1445389,"name":"kordabad","country":"ir","lat":34.731506,"lon":49.823485},{"id":1443154,"name":"khurcheh","country":"ir","lat":34.511283,"lon":49.860428},{"id":1490727,"name":"sulab","country":"ir","lat":35.0583,"lon":49.9105},{"id":1478636,"name":"sangestan","country":"ir","lat":35.1954,"lon":49.5737},{"id":1444263,"name":"kohandan","country":"ir","lat":34.667342,"lon":50.166631},{"id":1388295,"name":"`azz od din","country":"ir","lat":34.870741,"lon":49.90002},{"id":1459108,"name":"nakhlestan","country":"ir","lat":35.316667,"lon":49.866667},{"id":1479456,"name":"sar asiab","country":"ir","lat":34.8777,"lon":50.478436},{"id":1437720,"name":"karimabad","country":"ir","lat":35.2774,"lon":50.4428},{"id":1459016,"name":"najimabad","country":"ir","lat":35.3997,"lon":50.4946},{"id":1437471,"name":"kard khowrd `olya","country":"ir","lat":35.1752,"lon":49.7229},{"id":1415964,"name":"fastaq","country":"ir","lat":35.1384,"lon":49.6477},{"id":1447441,"name":"kushgak","country":"ir","lat":35.3027,"lon":50.179},{"id":1469025,"name":"qal`eh-ye kobra","country":"ir","lat":34.533687,"lon":50.492753},{"id":1453613,"name":"mazra`eh-ye mohammadabad","country":"ir","lat":35.3441,"lon":50.4534}]});