callback({"markets":[{"id":1305877,"name":"watubose","country":"id","lat":-1.1898,"lon":120.0748},{"id":1225529,"name":"maponu","country":"id","lat":-0.926111,"lon":119.524167},{"id":1223522,"name":"maku","country":"id","lat":-1.0568,"lon":119.8965},{"id":1226480,"name":"masi","country":"id","lat":-0.918,"lon":120.2631},{"id":1274203,"name":"sibalaya selatan","country":"id","lat":-1.1476,"lon":119.9214},{"id":1216767,"name":"lebanu","country":"id","lat":-1.0063,"lon":119.8538},{"id":1299242,"name":"tongge","country":"id","lat":-0.7002,"lon":119.8453},{"id":1191414,"name":"kadiaya","country":"id","lat":-0.616,"lon":119.8209},{"id":1199270,"name":"karere","country":"id","lat":-1.25,"lon":119.6},{"id":1214727,"name":"lampo","country":"id","lat":-0.7596,"lon":119.717},{"id":1256206,"name":"pombalowo","country":"id","lat":-0.8304,"lon":120.1782},{"id":1224074,"name":"mamboro","country":"id","lat":-0.7912,"lon":119.8733},{"id":1192466,"name":"kalae","country":"id","lat":-0.9364,"lon":120.2465},{"id":1200377,"name":"kawatuna","country":"id","lat":-0.8989,"lon":119.9322},{"id":1221047,"name":"lonca","country":"id","lat":-1.4955,"lon":119.969},{"id":1153619,"name":"bonisolo","country":"id","lat":-0.6791,"lon":119.7132},{"id":1171142,"name":"dewataluhursari","country":"id","lat":-1.0208,"lon":120.4028},{"id":1192721,"name":"kalawara-napoeli","country":"id","lat":-1.1808,"lon":119.9385},{"id":1212940,"name":"labuanbaru","country":"id","lat":-0.7793,"lon":119.8714},{"id":1255861,"name":"pohonberingin","country":"id","lat":-0.6493,"lon":119.812},{"id":1239304,"name":"ongumbonu","country":"id","lat":-0.9866,"lon":119.7117},{"id":1223636,"name":"malambora","country":"id","lat":-0.689,"lon":119.8351},{"id":1242660,"name":"palu","country":"id","lat":-0.8917,"lon":119.8707},{"id":1134902,"name":"anggur","country":"id","lat":-0.9971,"lon":119.9235},{"id":1200111,"name":"katoyo","country":"id","lat":-0.849,"lon":119.8234},{"id":1220881,"name":"loliujana","country":"id","lat":-0.7687,"lon":119.7867},{"id":1154401,"name":"boyabaliase","country":"id","lat":-0.9554,"lon":119.8493},{"id":1299434,"name":"topangana","country":"id","lat":-1.1606,"lon":120.1279},{"id":1212983,"name":"labuaposso","country":"id","lat":-0.541111,"lon":120.049444},{"id":1133668,"name":"alitupu","country":"id","lat":-1.4205,"lon":120.3501},{"id":1270664,"name":"sekarmukti","country":"id","lat":-0.9781,"lon":120.3669},{"id":1227434,"name":"mbuwu","country":"id","lat":-0.8889,"lon":119.5944},{"id":1154414,"name":"boyatalenga","country":"id","lat":-0.7945,"lon":119.8824},{"id":1262678,"name":"rantekala","country":"id","lat":-1.0648,"lon":119.9005},{"id":1200638,"name":"kayuboko","country":"id","lat":-0.8408,"lon":120.1606},{"id":1287184,"name":"tanapupunti","country":"id","lat":-1.052,"lon":119.9093},{"id":1269436,"name":"sausu","country":"id","lat":-1.0098,"lon":120.4995},{"id":1218445,"name":"lere","country":"id","lat":-0.8965,"lon":119.8534},{"id":1279971,"name":"sopu","country":"id","lat":-1.1867,"lon":120.1176},{"id":1191413,"name":"kadiadia","country":"id","lat":-1.1876,"lon":120.1212},{"id":1280297,"name":"soulowe patua","country":"id","lat":-1.0155,"lon":119.9083},{"id":1227167,"name":"mawar","country":"id","lat":-0.8232,"lon":119.6207},{"id":1157362,"name":"bupuyuga","country":"id","lat":-0.9069,"lon":119.839},{"id":1216400,"name":"layana","country":"id","lat":-0.8206,"lon":119.9182},{"id":1200467,"name":"kawole","country":"id","lat":-0.9306,"lon":119.8408},{"id":1284930,"name":"taipalaga","country":"id","lat":-0.7801,"lon":119.8748},{"id":1154361,"name":"bouyakakawu","country":"id","lat":-1.1361,"lon":119.9223},{"id":1191260,"name":"kabutia","country":"id","lat":-1.4204,"lon":119.982},{"id":1293894,"name":"tindaki","country":"id","lat":-0.94,"lon":120.2766},{"id":1298265,"name":"tobou","country":"id","lat":-0.5748,"lon":119.79},{"id":1196365,"name":"kanagalungka","country":"id","lat":-1.06178,"lon":119.7212},{"id":1225613,"name":"maranata","country":"id","lat":-1.0418,"lon":119.9094},{"id":1226414,"name":"masari atas","country":"id","lat":-0.909,"lon":120.2104},{"id":1151385,"name":"bobo","country":"id","lat":-1.0867,"lon":119.8708},{"id":1154413,"name":"boyapolo","country":"id","lat":-0.8972,"lon":119.8458},{"id":1156721,"name":"bungambalu","country":"id","lat":-0.6288,"lon":119.8125},{"id":1200676,"name":"kayumaboko","country":"id","lat":-0.6899,"lon":119.8575},{"id":1262118,"name":"randingo","country":"id","lat":-1.00255,"lon":119.78045},{"id":1276062,"name":"simalandje","country":"id","lat":-1.1,"lon":119.7},{"id":1133199,"name":"airpanas","country":"id","lat":-1.1511,"lon":120.1058},{"id":1152895,"name":"bolai","country":"id","lat":-1.04131,"lon":119.52176},{"id":1167131,"name":"citeratayu","country":"id","lat":-0.999,"lon":120.414},{"id":1174282,"name":"dupaindah","country":"id","lat":-0.813,"lon":119.8845},{"id":1215477,"name":"laone","country":"id","lat":-1.4159,"lon":119.9816},{"id":1149643,"name":"binangga enu","country":"id","lat":-0.5421,"lon":119.7803},{"id":1196437,"name":"kanawu","country":"id","lat":-1.323,"lon":120.1138},{"id":1287248,"name":"tandabula","country":"id","lat":-0.9018,"lon":119.9268},{"id":1150061,"name":"birobuli","country":"id","lat":-0.9191,"lon":119.8941},{"id":1156691,"name":"bundusporego","country":"id","lat":-0.874,"lon":120.2149},{"id":1226457,"name":"masigi","country":"id","lat":-0.8164,"lon":120.1675},{"id":1200681,"name":"kayumaluepajeko","country":"id","lat":-0.7567,"lon":119.861},{"id":1240424,"name":"padanjese","country":"id","lat":-0.9019,"lon":119.8276},{"id":1305652,"name":"wataoge","country":"id","lat":-0.7721,"lon":119.86},{"id":1194828,"name":"kamarora","country":"id","lat":-1.1891,"lon":120.1346},{"id":1256207,"name":"pombaloya","country":"id","lat":-0.7403,"lon":119.9019},{"id":1156797,"name":"bungi","country":"id","lat":-1.1209,"lon":119.8957},{"id":1245378,"name":"pantolobete","country":"id","lat":-1.298,"lon":119.5681},{"id":1253699,"name":"petioge","country":"id","lat":-0.6893,"lon":119.8371},{"id":1270223,"name":"sediki","country":"id","lat":-0.5758,"lon":120.0355},{"id":1287168,"name":"tanampulu","country":"id","lat":-0.9224,"lon":119.572},{"id":1237716,"name":"nopu","country":"id","lat":-1.1861,"lon":120.0852},{"id":1304949,"name":"wanoprasto","country":"id","lat":-1.0036,"lon":120.3682},{"id":1277937,"name":"sisera","country":"id","lat":-0.6307,"lon":119.8515},{"id":1220877,"name":"lolipesua","country":"id","lat":-0.7754,"lon":119.7906},{"id":1226529,"name":"masomba","country":"id","lat":-0.9068,"lon":119.9214},{"id":1222990,"name":"maduratna","country":"id","lat":-0.9563,"lon":120.4127},{"id":1287995,"name":"tanggiso","country":"id","lat":-0.9186,"lon":119.8381},{"id":1279333,"name":"soi","country":"id","lat":-0.9484,"lon":119.7381},{"id":1245203,"name":"pantalobete","country":"id","lat":-1.166667,"lon":119.633333},{"id":1307393,"name":"winowanga","country":"id","lat":-1.4509,"lon":120.3769},{"id":1225472,"name":"maoti","country":"id","lat":-0.5647,"lon":119.7872},{"id":1226416,"name":"masari","country":"id","lat":-0.9115,"lon":120.2364},{"id":1306390,"name":"wau","country":"id","lat":-0.9872,"lon":119.9132},{"id":1280299,"name":"soulowe tara","country":"id","lat":-1.0254,"lon":119.9246},{"id":1282964,"name":"sumboli","country":"id","lat":-0.6747,"lon":119.8475},{"id":1267613,"name":"sambungan","country":"id","lat":-0.7886,"lon":119.8664},{"id":1172602,"name":"dodolo","country":"id","lat":-1.4698,"lon":120.3159},{"id":1300921,"name":"tumbelaka","country":"id","lat":-0.8546,"lon":119.8249},{"id":1261475,"name":"rambola","country":"id","lat":-0.9812,"lon":119.7382},{"id":1221276,"name":"lonja","country":"id","lat":-1.1086,"lon":119.9071},{"id":1155019,"name":"bualo","country":"id","lat":-1.192,"lon":119.9573},{"id":1250860,"name":"pelafa","country":"id","lat":-0.8416,"lon":119.915},{"id":1222334,"name":"lumbudolo","country":"id","lat":-0.7386,"lon":119.7151},{"id":1140591,"name":"bangga","country":"id","lat":-1.066667,"lon":120.033333},{"id":1215720,"name":"laralanggaluku","country":"id","lat":-0.6973,"lon":119.7557},{"id":1265936,"name":"sadakanjai","country":"id","lat":-0.8981,"lon":119.6757},{"id":1262994,"name":"raranggonau","country":"id","lat":-0.916667,"lon":119.833333},{"id":1157976,"name":"cakrosari","country":"id","lat":-0.9726,"lon":120.3862},{"id":1241849,"name":"pakuli","country":"id","lat":-1.2282,"lon":119.9469},{"id":1287165,"name":"tanamodindi","country":"id","lat":-0.8989,"lon":119.9015},{"id":1156702,"name":"bunga","country":"id","lat":-1.1212,"lon":120.0162},{"id":1258594,"name":"puatete","country":"id","lat":-0.6771,"lon":119.7387},{"id":1278285,"name":"siutuwu","country":"id","lat":-1.1601,"lon":120.049},{"id":1277657,"name":"sipulung","country":"id","lat":-1.1815,"lon":120.1529},{"id":1302295,"name":"ulera","country":"id","lat":-1.0356,"lon":119.8937},{"id":1257844,"name":"powimbi","country":"id","lat":-0.8992,"lon":119.8401},{"id":1203821,"name":"kembangmertosari","country":"id","lat":-0.9966,"lon":120.3484},{"id":1134900,"name":"anggungan","country":"id","lat":-0.9983,"lon":120.3988},{"id":1149642,"name":"binangga","country":"id","lat":-0.951,"lon":119.8553},{"id":1286783,"name":"tamunggu","country":"id","lat":-0.8133,"lon":119.8106},{"id":1225647,"name":"marantale","country":"id","lat":-0.6,"lon":120.033333},{"id":1276253,"name":"simbe","country":"id","lat":-0.7237,"lon":119.6762},{"id":1136697,"name":"babakanini","country":"id","lat":-1.056,"lon":119.6876},{"id":1211591,"name":"kumboli","country":"id","lat":-0.9126,"lon":119.5301},{"id":1134801,"name":"anekasari","country":"id","lat":-0.9864,"lon":120.3464},{"id":1278688,"name":"sodi","country":"id","lat":-0.883333,"lon":119.533333},{"id":1149778,"name":"binobo","country":"id","lat":-1.1336,"lon":119.9124},{"id":1308507,"name":"wuasa","country":"id","lat":-1.4255,"lon":120.315},{"id":1230722,"name":"molino","country":"id","lat":-0.9414,"lon":119.5749},{"id":1145770,"name":"batukima","country":"id","lat":-0.6574,"lon":119.7257},{"id":1154362,"name":"bouyataipa","country":"id","lat":-1.132,"lon":119.9214},{"id":1250958,"name":"pelaroa","country":"id","lat":-0.7573,"lon":120.1209},{"id":1275331,"name":"sigontu","country":"id","lat":-1.0433,"lon":119.8505},{"id":1243977,"name":"pangare","country":"id","lat":-1.233333,"lon":119.666667},{"id":1240121,"name":"padalosapajeko","country":"id","lat":-0.7527,"lon":119.8614},{"id":1208098,"name":"kolakola","country":"id","lat":-0.7334,"lon":119.7105},{"id":1191990,"name":"kaduwaa","country":"id","lat":-1.4494,"lon":120.3114},{"id":1154412,"name":"boyapanoo","country":"id","lat":-0.6892,"lon":119.8803},{"id":1168687,"name":"dadi","country":"id","lat":-0.966667,"lon":119.683333},{"id":1287250,"name":"tandaigi","country":"id","lat":-0.6082,"lon":120.0591},{"id":1257596,"name":"porame","country":"id","lat":-0.9526,"lon":119.8369},{"id":1139728,"name":"bambarimi","country":"id","lat":-0.8328,"lon":119.6657},{"id":1305851,"name":"watubanggusu","country":"id","lat":-1.0174,"lon":119.6974},{"id":1275285,"name":"sigimpu","country":"id","lat":-1.087,"lon":119.982},{"id":1308520,"name":"wugaga","country":"id","lat":-0.9893,"lon":119.6813},{"id":1284935,"name":"taipanggabe","country":"id","lat":-0.9622,"lon":119.7882},{"id":1254053,"name":"pewunu","country":"id","lat":-1.0256,"lon":119.86655},{"id":1245300,"name":"pantesari","country":"id","lat":-0.9769,"lon":120.3343},{"id":1259172,"name":"pulege","country":"id","lat":-0.8092,"lon":119.6411},{"id":1153219,"name":"bonda","country":"id","lat":-0.6233,"lon":119.8073},{"id":1307128,"name":"wetea","country":"id","lat":-0.6348,"lon":119.8405},{"id":1307398,"name":"wintu","country":"id","lat":-0.8176,"lon":119.9175},{"id":1219057,"name":"lewara","country":"id","lat":-0.9302,"lon":119.7555},{"id":1184522,"name":"halinunu","country":"id","lat":-1.2649,"lon":119.9489},{"id":1306139,"name":"watumapa","country":"id","lat":-1.01859,"lon":119.66377},{"id":1194684,"name":"kalukutinggu","country":"id","lat":-1.0346,"lon":119.85335},{"id":1196695,"name":"kangando","country":"id","lat":-0.7745,"lon":119.6862},{"id":1224001,"name":"malunjo","country":"id","lat":-0.8459,"lon":119.5921},{"id":1154403,"name":"boyaduyu","country":"id","lat":-0.8457,"lon":119.8831},{"id":1156129,"name":"bulubete","country":"id","lat":-1.202,"lon":119.9024},{"id":1299745,"name":"towa","country":"id","lat":-1.3335,"lon":119.9613},{"id":1242662,"name":"palupi","country":"id","lat":-0.9247,"lon":119.8573},{"id":1206520,"name":"kintabaru","country":"id","lat":-1.08,"lon":119.9072},{"id":1209371,"name":"kotapulu","country":"id","lat":-0.996,"lon":119.8727},{"id":1220871,"name":"loliindah","country":"id","lat":-0.7939,"lon":119.7955},{"id":1153407,"name":"boneoge","country":"id","lat":-0.6706,"lon":119.72},{"id":1201315,"name":"kebonkopi","country":"id","lat":-0.7223,"lon":119.9943},{"id":1256246,"name":"pompoya","country":"id","lat":-0.6267,"lon":119.8117},{"id":1221466,"name":"loru","country":"id","lat":-0.9509,"lon":119.9367},{"id":1214730,"name":"lampong","country":"id","lat":-0.6715,"lon":119.7505},{"id":1259676,"name":"pumbasa","country":"id","lat":-0.5975,"lon":119.8357},{"id":1223028,"name":"maesa","country":"id","lat":-0.8181,"lon":120.1786},{"id":1153396,"name":"boneludu","country":"id","lat":-1.0686,"lon":119.7023},{"id":1214692,"name":"lampio","country":"id","lat":-1.0711,"lon":119.935},{"id":1220876,"name":"lolioge","country":"id","lat":-0.7911,"lon":119.7981},{"id":1195073,"name":"kampal","country":"id","lat":-0.7989,"lon":120.1653},{"id":1258791,"name":"puenjidi","country":"id","lat":-0.8818,"lon":119.8382},{"id":1239558,"name":"ova","country":"id","lat":-0.6972,"lon":119.8604},{"id":1275750,"name":"silanga","country":"id","lat":-0.5756,"lon":120.0515},{"id":1149644,"name":"binangga larono","country":"id","lat":-1.4399,"lon":119.9809},{"id":1270242,"name":"sedoa","country":"id","lat":-1.3517,"lon":120.34},{"id":1212809,"name":"laboea","country":"id","lat":-0.6612,"lon":119.8176},{"id":1153135,"name":"bombo","country":"id","lat":-1.2941,"lon":119.9481},{"id":1253380,"name":"pesaku","country":"id","lat":-1.0731,"lon":119.8684},{"id":1299601,"name":"tosale","country":"id","lat":-0.7664,"lon":119.6824},{"id":1245377,"name":"pantoloan","country":"id","lat":-0.708611,"lon":119.857778},{"id":1235415,"name":"ngatabaru","country":"id","lat":-0.921,"lon":119.9563},{"id":1218157,"name":"lenggu","country":"id","lat":-0.7603,"lon":119.684},{"id":1274656,"name":"sidera","country":"id","lat":-0.9934,"lon":119.9223},{"id":1305648,"name":"watanpina","country":"id","lat":-1.1221,"lon":119.9217},{"id":1205132,"name":"kerobokan","country":"id","lat":-1.006,"lon":120.4252},{"id":1288655,"name":"tanjungkarang","country":"id","lat":-0.6455,"lon":119.7384},{"id":1146250,"name":"baturoko","country":"id","lat":-0.8375,"lon":119.6076},{"id":1267077,"name":"salumpaku","country":"id","lat":-0.8607,"lon":119.6543},{"id":1227444,"name":"mebere","country":"id","lat":-0.9015,"lon":119.9109},{"id":1144150,"name":"baraban","country":"id","lat":-1.031389,"lon":120.398611},{"id":1306628,"name":"wedepu","country":"id","lat":-0.9003,"lon":119.5977},{"id":1302159,"name":"ujung","country":"id","lat":-0.6819,"lon":119.7591},{"id":1243936,"name":"pangana","country":"id","lat":-1.4355,"lon":119.9875},{"id":1305656,"name":"watatu","country":"id","lat":-0.8758,"lon":119.587},{"id":1298248,"name":"toboli","country":"id","lat":-0.7093,"lon":120.0926},{"id":1226851,"name":"matantimali","country":"id","lat":-0.9505,"lon":119.7947},{"id":1199529,"name":"karumba","country":"id","lat":-0.5573,"lon":119.7857},{"id":1262693,"name":"ranteleda","country":"id","lat":-1.1466,"lon":120.0685},{"id":1290024,"name":"tawao","country":"id","lat":-0.789,"lon":119.9415},{"id":1239303,"name":"ongulara","country":"id","lat":-0.9463,"lon":119.6075},{"id":1186193,"name":"indraprasta","country":"id","lat":-0.9587,"lon":120.4023},{"id":1145291,"name":"batoenondje","country":"id","lat":-1.0319,"lon":119.9504},{"id":1268733,"name":"sapoo","country":"id","lat":-1.4008,"lon":119.9769},{"id":1194627,"name":"kalorapanda","country":"id","lat":-0.8743,"lon":119.821},{"id":1245379,"name":"pantolo","country":"id","lat":-0.7116,"lon":120.0948},{"id":1147673,"name":"beluri","country":"id","lat":-0.8517,"lon":119.8238},{"id":1287157,"name":"tanamea","country":"id","lat":-0.8115,"lon":119.6329},{"id":1208803,"name":"kopi komite nasional pemuda indonesia","country":"id","lat":-1.1712,"lon":120.1423},{"id":1253347,"name":"peruntu","country":"id","lat":-0.967,"lon":119.7237},{"id":1186304,"name":"iradatpuri","country":"id","lat":-0.8314,"lon":119.8829},{"id":1257793,"name":"potoya","country":"id","lat":-1.0062,"lon":119.8984},{"id":1223607,"name":"malakosa","country":"id","lat":-0.9502,"lon":120.4232},{"id":1239482,"name":"oruna","country":"id","lat":-0.9354,"lon":119.8711},{"id":1242356,"name":"palili","country":"id","lat":-1.1132,"lon":119.8977},{"id":1214987,"name":"langaleso","country":"id","lat":-0.9823,"lon":119.8952},{"id":1306959,"name":"wenggalajo","country":"id","lat":-0.703,"lon":120.0931},{"id":1219531,"name":"liku","country":"id","lat":-0.7275,"lon":119.8922},{"id":1266935,"name":"saloya","country":"id","lat":-0.5239,"lon":119.8241},{"id":1222340,"name":"lumbulama","country":"id","lat":-0.9617,"lon":119.6324},{"id":1267133,"name":"salusumpu","country":"id","lat":-0.8471,"lon":119.6388},{"id":1170751,"name":"denggune","country":"id","lat":-0.9084,"lon":119.8231},{"id":1262918,"name":"ranunggata","country":"id","lat":-1.2223,"lon":119.9219},{"id":1151492,"name":"bodi","country":"id","lat":-1.0076,"lon":119.9096},{"id":1245444,"name":"pantosu","country":"id","lat":-0.8856,"lon":119.9127},{"id":1173091,"name":"donggala","country":"id","lat":-0.6723,"lon":119.7402},{"id":1255371,"name":"poboya","country":"id","lat":-0.8827,"lon":119.9169},{"id":1231508,"name":"mpanau","country":"id","lat":-0.9506,"lon":119.9158},{"id":1289972,"name":"tawanggeli","country":"id","lat":-1.0143,"lon":119.7377},{"id":1209402,"name":"kotarindau","country":"id","lat":-0.9838,"lon":119.8757},{"id":1210492,"name":"krikilsari","country":"id","lat":-0.9892,"lon":120.3122},{"id":1275289,"name":"sigipulu","country":"id","lat":-1.0826,"lon":119.9752},{"id":1139233,"name":"baliase","country":"id","lat":-0.9407,"lon":119.8558},{"id":1267086,"name":"salungkaenu","country":"id","lat":-0.8267,"lon":119.6718},{"id":1138356,"name":"baiya","country":"id","lat":-0.7215,"lon":119.8629},{"id":1226905,"name":"mataue","country":"id","lat":-1.4498,"lon":119.9902},{"id":1200276,"name":"kavatua","country":"id","lat":-0.6875,"lon":119.8447},{"id":1192159,"name":"kaitumpu","country":"id","lat":-1.05,"lon":119.716667},{"id":1220737,"name":"lokasraya","country":"id","lat":-0.9858,"lon":120.3937},{"id":1243926,"name":"pangalombori","country":"id","lat":-1.166667,"lon":119.566667},{"id":1135089,"name":"antosari","country":"id","lat":-0.985,"lon":120.3621},{"id":1139069,"name":"bale","country":"id","lat":-0.7887,"lon":119.9215},{"id":1154359,"name":"bouya","country":"id","lat":-1.4245,"lon":119.9831},{"id":1287140,"name":"tanalanto","country":"id","lat":-0.9535,"lon":120.2823},{"id":1253617,"name":"petapa","country":"id","lat":-0.7782,"lon":120.1238},{"id":1260237,"name":"puroo","country":"id","lat":-1.359,"lon":120.0415},{"id":1293875,"name":"tinaokabaru","country":"id","lat":-1.394,"lon":119.5098},{"id":1251205,"name":"pema","country":"id","lat":-1.1621,"lon":119.8852},{"id":1286896,"name":"tanahgisi","country":"id","lat":-0.8936,"lon":119.5773},{"id":1237790,"name":"ntoli","country":"id","lat":-0.8,"lon":119.8},{"id":1269437,"name":"sausu trans","country":"id","lat":-1.0529,"lon":120.4487},{"id":1143473,"name":"banpres","country":"id","lat":-1.1712,"lon":120.1563},{"id":1227766,"name":"mekarsari","country":"id","lat":-1.0269,"lon":120.4176},{"id":1274217,"name":"sibangjati","country":"id","lat":-0.9889,"lon":120.3857},{"id":1215205,"name":"langko","country":"id","lat":-1.3474,"lon":120.0487},{"id":1292479,"name":"tengah","country":"id","lat":-1.1277,"lon":119.9226},{"id":1239201,"name":"omu","country":"id","lat":-1.277,"lon":119.9454},{"id":1259639,"name":"pulu","country":"id","lat":-1.1726,"lon":119.8863},{"id":1293954,"name":"tinggede","country":"id","lat":-0.9309,"lon":119.8704},{"id":1213518,"name":"laiba","country":"id","lat":-0.6862,"lon":119.8328},{"id":1275296,"name":"sigi","country":"id","lat":-1.05,"lon":119.916667},{"id":1173061,"name":"dondo","country":"id","lat":-0.733333,"lon":119.783333},{"id":1228886,"name":"mertajati","country":"id","lat":-0.9867,"lon":120.3372},{"id":1260453,"name":"pusentasi","country":"id","lat":-0.9049,"lon":119.8512},{"id":1223049,"name":"magabe","country":"id","lat":-1.1,"lon":119.583333},{"id":1180412,"name":"gimpubia","country":"id","lat":-1.0601,"lon":119.704},{"id":1264594,"name":"ribamba","country":"id","lat":-0.85,"lon":120.2},{"id":1196231,"name":"kampung tengah","country":"id","lat":-0.6651,"lon":119.7228},{"id":1299543,"name":"toroee","country":"id","lat":-0.9676,"lon":120.3049},{"id":1266979,"name":"salubomba","country":"id","lat":-0.7432,"lon":119.6856},{"id":1291345,"name":"telagasari","country":"id","lat":-1.0032,"lon":120.3458},{"id":1303502,"name":"waelemo","country":"id","lat":-1.05261,"lon":119.74638},{"id":1261181,"name":"rahmat","country":"id","lat":-1.1692,"lon":120.0684},{"id":1260407,"name":"purwosari","country":"id","lat":-0.9775,"lon":120.3161},{"id":1252490,"name":"peoigi","country":"id","lat":-0.8156,"lon":120.1768},{"id":1168700,"name":"dadoelae","country":"id","lat":-1.216667,"lon":119.666667},{"id":1232633,"name":"murtisari","country":"id","lat":-0.9715,"lon":120.399},{"id":1303207,"name":"uwemuliko","country":"id","lat":-0.5682,"lon":120.0229},{"id":1214109,"name":"lalundu","country":"id","lat":-1.2978,"lon":119.5449},{"id":1307562,"name":"wiyapore","country":"id","lat":-0.988,"lon":119.7686},{"id":1237614,"name":"nolayan","country":"id","lat":-0.6405,"lon":119.81},{"id":1274897,"name":"sidomerto","country":"id","lat":-1.0086,"lon":120.4121},{"id":1192262,"name":"kajilata","country":"id","lat":-0.8909,"lon":119.5819},{"id":1218423,"name":"lera","country":"id","lat":-0.633,"lon":119.8123},{"id":1199616,"name":"karyasari","country":"id","lat":-0.9432,"lon":120.2533},{"id":1262984,"name":"rarampadende","country":"id","lat":-1.0577,"lon":119.8706},{"id":1300475,"name":"tueni","country":"id","lat":-0.9007,"lon":120.2546},{"id":1223179,"name":"maholo","country":"id","lat":-1.4621,"lon":120.3853},{"id":1244160,"name":"pangga","country":"id","lat":-0.7165,"lon":119.7708},{"id":1266717,"name":"salena","country":"id","lat":-0.9025,"lon":119.8215},{"id":1143706,"name":"bantaya","country":"id","lat":-0.8064,"lon":120.1758},{"id":1134968,"name":"angsri","country":"id","lat":-1.0288,"lon":120.3791},{"id":1298859,"name":"tolongano","country":"id","lat":-0.8008,"lon":119.6295},{"id":1244342,"name":"pangi","country":"id","lat":-0.7255,"lon":120.1017},{"id":1289942,"name":"tawaili","country":"id","lat":-0.733,"lon":119.8633},{"id":1285983,"name":"tamansari","country":"id","lat":-1.0069,"lon":120.3888},{"id":1280473,"name":"srijati","country":"id","lat":-1.0184,"lon":120.3903},{"id":1266975,"name":"salubi","country":"id","lat":-1.1049,"lon":119.8731},{"id":1302468,"name":"umala","country":"id","lat":-0.5912,"lon":119.7948},{"id":1225242,"name":"mantikole","country":"id","lat":-1.0818,"lon":119.8685},{"id":1270685,"name":"sekarsari","country":"id","lat":-0.9773,"lon":120.3791},{"id":1276347,"name":"simou","country":"id","lat":-0.6203,"lon":119.8612},{"id":1249893,"name":"payangansari","country":"id","lat":-1.041,"lon":120.4034},{"id":1257842,"name":"powelua","country":"id","lat":-0.7935,"lon":119.727},{"id":1240568,"name":"padende","country":"id","lat":-0.9589,"lon":119.855},{"id":1138970,"name":"balanggu","country":"id","lat":-1.2468,"lon":119.9416},{"id":1256098,"name":"polipabone","country":"id","lat":-0.9,"lon":119.966667},{"id":1152891,"name":"boladangko","country":"id","lat":-1.4533,"lon":119.9823},{"id":1243862,"name":"panesibaja","country":"id","lat":-1.0057,"lon":119.7675},{"id":1281685,"name":"sukasada","country":"id","lat":-1.0096,"lon":120.4007},{"id":1243916,"name":"pangale","country":"id","lat":-1.0044,"lon":119.8876},{"id":1294238,"name":"tirtosari","country":"id","lat":-1.0107,"lon":120.3633},{"id":1223857,"name":"maliko","country":"id","lat":-0.5503,"lon":119.8286},{"id":1139877,"name":"banawa","country":"id","lat":-0.7051,"lon":119.7079},{"id":1265057,"name":"rojo","country":"id","lat":-0.8727,"lon":119.5691},{"id":1286048,"name":"tamasofo","country":"id","lat":-0.9396,"lon":120.4115},{"id":1286665,"name":"tampaore","country":"id","lat":-0.9522,"lon":119.5102},{"id":1285572,"name":"talise","country":"id","lat":-0.8734,"lon":119.8761},{"id":1158301,"name":"candrabuana","country":"id","lat":-1.0158,"lon":120.3776},{"id":1153986,"name":"bora","country":"id","lat":-1.0487,"lon":119.9434},{"id":1303233,"name":"vara","country":"id","lat":-0.6992,"lon":119.8473},{"id":1304888,"name":"wani","country":"id","lat":-0.7,"lon":119.833333},{"id":1142272,"name":"banjarmertojati","country":"id","lat":-0.9847,"lon":120.3344},{"id":1266954,"name":"salubae","country":"id","lat":-0.7235,"lon":120.0103},{"id":1217251,"name":"lekatu","country":"id","lat":-0.8593,"lon":119.808},{"id":1177890,"name":"ganti","country":"id","lat":-0.7011,"lon":119.7316},{"id":1276059,"name":"simajo","country":"id","lat":-0.944,"lon":119.5186},{"id":1214271,"name":"lambapandake","country":"id","lat":-0.7154,"lon":119.8658},{"id":1154408,"name":"boyangapa","country":"id","lat":-0.836,"lon":119.8835},{"id":1139231,"name":"baliara","country":"id","lat":-0.8125,"lon":120.1497},{"id":1277064,"name":"sindoee","country":"id","lat":-0.533333,"lon":119.75},{"id":1220410,"name":"lodji","country":"id","lat":-0.8097,"lon":120.1774},{"id":1267026,"name":"salukoni","country":"id","lat":-0.8941,"lon":119.6057},{"id":1206619,"name":"kisahsari","country":"id","lat":-0.9769,"lon":120.3849},{"id":1289939,"name":"tawaelia","country":"id","lat":-1.35,"lon":120.366667},{"id":1274284,"name":"sibedi","country":"id","lat":-0.9733,"lon":119.8555},{"id":1298955,"name":"tombera","country":"id","lat":-0.523611,"lon":120.048611},{"id":1191157,"name":"kabonga besar","country":"id","lat":-0.6845,"lon":119.7603},{"id":1206503,"name":"kinderi","country":"id","lat":-1.2123,"lon":119.9607},{"id":1307336,"name":"windusari","country":"id","lat":-0.9449,"lon":120.2697},{"id":1192756,"name":"kaleke","country":"id","lat":-1.03435,"lon":119.8727},{"id":1191604,"name":"kadongo","country":"id","lat":-0.7435,"lon":119.8626},{"id":1213526,"name":"laiga","country":"id","lat":-0.590833,"lon":120.056389},{"id":1139643,"name":"balumpewa","country":"id","lat":-1.0499,"lon":119.8585},{"id":1262481,"name":"ranontai","country":"id","lat":-0.6782,"lon":119.8642},{"id":1282200,"name":"sumari","country":"id","lat":-0.5893,"lon":119.835},{"id":1306091,"name":"watulanga","country":"id","lat":-0.8883,"lon":119.835},{"id":1134533,"name":"ampera","country":"id","lat":-1.1314,"lon":120.0684},{"id":1275718,"name":"silae","country":"id","lat":-0.8806,"lon":119.8185},{"id":1304954,"name":"wanosari","country":"id","lat":-0.9861,"lon":120.356},{"id":1240362,"name":"padangsantiago","country":"id","lat":-0.8857,"lon":120.2197},{"id":1299754,"name":"towera","country":"id","lat":-0.5211,"lon":120.0474},{"id":1250080,"name":"pebondo satu","country":"id","lat":-1.0107,"lon":119.5043},{"id":1219750,"name":"limoyo","country":"id","lat":-0.6761,"lon":119.8694},{"id":1139333,"name":"baliri","country":"id","lat":-0.9317,"lon":119.5226},{"id":1169065,"name":"dama","country":"id","lat":-0.9856,"lon":119.7485},{"id":1303209,"name":"uwepolo","country":"id","lat":-0.6322,"lon":120.0581},{"id":1283983,"name":"sunju","country":"id","lat":-0.9471,"lon":119.8724},{"id":1154409,"name":"boyantanga","country":"id","lat":-0.9213,"lon":119.8432},{"id":1274976,"name":"sidondo satu","country":"id","lat":-1.0931,"lon":119.9084},{"id":1136287,"name":"babakainu","country":"id","lat":-1.03378,"lon":119.6657},{"id":1138125,"name":"bahagia","country":"id","lat":-1.1364,"lon":120.0916},{"id":1193819,"name":"kalimbubu","country":"id","lat":-0.8038,"lon":119.8774},{"id":1265229,"name":"roranga","country":"id","lat":-0.8516,"lon":119.6178},{"id":1256038,"name":"polapa","country":"id","lat":-0.7256,"lon":119.6824},{"id":1273952,"name":"sewao","country":"id","lat":-0.689,"lon":119.8915},{"id":1200133,"name":"katukunangka","country":"id","lat":-0.998333,"lon":119.528889},{"id":1289898,"name":"tatura","country":"id","lat":-0.9192,"lon":119.8878},{"id":1149714,"name":"bingge","country":"id","lat":-0.9819,"lon":119.9152},{"id":1194573,"name":"kalolu","country":"id","lat":-0.686,"lon":119.7094},{"id":1238441,"name":"oedjoena","country":"id","lat":-0.75,"lon":119.75},{"id":1269216,"name":"sarumbaya","country":"id","lat":-0.8489,"lon":119.6778},{"id":1218126,"name":"lengaru","country":"id","lat":-0.8952,"lon":119.9043},{"id":1214050,"name":"lalombi","country":"id","lat":-0.8544,"lon":119.6056},{"id":1138914,"name":"balamoa","country":"id","lat":-1.0689,"lon":119.8722},{"id":1214292,"name":"lambasada","country":"id","lat":-0.7939,"lon":119.6361},{"id":1288700,"name":"tanjungkuning","country":"id","lat":-0.5155,"lon":119.8152},{"id":1306134,"name":"watumaeta","country":"id","lat":-1.3995,"lon":120.3197},{"id":1242100,"name":"palara","country":"id","lat":-0.7606,"lon":119.8599},{"id":1307397,"name":"wintowongo","country":"id","lat":-0.7116,"lon":119.7518},{"id":1168930,"name":"dalaka","country":"id","lat":-0.6508,"lon":119.8116},{"id":1240370,"name":"padangsari","country":"id","lat":-0.967,"lon":120.4004},{"id":1156518,"name":"bumijambu","country":"id","lat":-0.6079,"lon":119.7997},{"id":1139294,"name":"balimbing","country":"id","lat":-1.1461,"lon":120.0989},{"id":1307883,"name":"wolo","country":"id","lat":-0.7918,"lon":119.9332},{"id":1220874,"name":"lolilotto","country":"id","lat":-0.7587,"lon":119.7731},{"id":1261432,"name":"ramba","country":"id","lat":-1.1838,"lon":119.9278},{"id":1274377,"name":"sibonu","country":"id","lat":-1.0143,"lon":119.86215},{"id":1206524,"name":"kintalove","country":"id","lat":-0.7352,"lon":119.8797},{"id":1138724,"name":"bakubakulu","country":"id","lat":-1.098,"lon":119.9885},{"id":1138934,"name":"balane","country":"id","lat":-0.9467,"lon":119.8335},{"id":1183171,"name":"gunta","country":"id","lat":-0.7714,"lon":119.8912},{"id":1289463,"name":"tarana","country":"id","lat":-1.0432,"lon":119.9496},{"id":1225511,"name":"mapida","country":"id","lat":-0.5807,"lon":119.792},{"id":1263944,"name":"rejeki","country":"id","lat":-1.1211,"lon":120.0777},{"id":1267100,"name":"saluponi","country":"id","lat":-1.1859,"lon":119.9464},{"id":1180318,"name":"gigitsari","country":"id","lat":-0.9944,"lon":120.3674},{"id":1250925,"name":"pelangoa","country":"id","lat":-0.6231,"lon":120.0596},{"id":1264836,"name":"risa","country":"id","lat":-1.316667,"lon":119.633333},{"id":1150068,"name":"biromaroe","country":"id","lat":-0.933333,"lon":119.916667},{"id":1304281,"name":"walalero","country":"id","lat":-0.825,"lon":119.6908},{"id":1243618,"name":"panda","country":"id","lat":-0.7053,"lon":119.8519},{"id":1146240,"name":"baturiti","country":"id","lat":-1.0283,"lon":120.3664},{"id":1213575,"name":"lai","country":"id","lat":-0.7659,"lon":119.8596},{"id":1211722,"name":"kungguma","country":"id","lat":-0.6529,"lon":119.8655},{"id":1265023,"name":"rogo","country":"id","lat":-1.1778,"lon":119.8875},{"id":1235246,"name":"ngapa","country":"id","lat":-0.6753,"lon":119.8258},{"id":1228082,"name":"menawa","country":"id","lat":-1.1582,"lon":120.1191},{"id":1253689,"name":"petimbe","country":"id","lat":-1.1268,"lon":120.0363},{"id":1172753,"name":"doewangawengi","country":"id","lat":-1.0,"lon":119.633333},{"id":1158743,"name":"caturmerto","country":"id","lat":-1.0175,"lon":120.4198},{"id":1284253,"name":"surumana lama","country":"id","lat":-0.8496,"lon":119.5669},{"id":1239082,"name":"oloboju","country":"id","lat":-1.0233,"lon":119.94896},{"id":1152960,"name":"bolapaoe","country":"id","lat":-1.4421,"lon":119.9849},{"id":1134661,"name":"anca","country":"id","lat":-1.3175,"lon":120.0553},{"id":1169345,"name":"dangaraa","country":"id","lat":-1.0352,"lon":119.70947},{"id":1135955,"name":"auma","country":"id","lat":-1.0591,"lon":120.4968},{"id":1284588,"name":"tabeo","country":"id","lat":-0.7521,"lon":119.8758},{"id":1253599,"name":"petana","country":"id","lat":-0.9128,"lon":119.8229},{"id":1299735,"name":"towale","country":"id","lat":-0.7236,"lon":119.6976},{"id":1149963,"name":"biongga","country":"id","lat":-0.8023,"lon":119.9363},{"id":1274197,"name":"sibalaja","country":"id","lat":-1.1395,"lon":119.919},{"id":1290022,"name":"tawanjuka","country":"id","lat":-0.9245,"lon":119.8693},{"id":1155040,"name":"buanasari","country":"id","lat":-0.991,"lon":120.3401},{"id":1159040,"name":"cempakasari","country":"id","lat":-1.0075,"lon":120.4686},{"id":1148594,"name":"berdikari","country":"id","lat":-1.1241,"lon":120.0838},{"id":1306265,"name":"waturoi","country":"id","lat":-1.0047,"lon":119.727},{"id":1303208,"name":"uwentiro","country":"id","lat":-0.7,"lon":120.0},{"id":1281229,"name":"sukajati","country":"id","lat":-1.0165,"lon":120.3525},{"id":1243815,"name":"paneki","country":"id","lat":-0.9747,"lon":119.955},{"id":1264826,"name":"rio","country":"id","lat":-0.983333,"lon":119.833333},{"id":1243287,"name":"panau","country":"id","lat":-0.729,"lon":119.8622},{"id":1284561,"name":"taba","country":"id","lat":-0.9614,"lon":119.5065},{"id":1136114,"name":"awulua","country":"id","lat":-0.6765,"lon":120.0782},{"id":1220873,"name":"loli","country":"id","lat":-0.7522,"lon":119.7823},{"id":1197053,"name":"kapiroe","country":"id","lat":-1.1215,"lon":120.0229},{"id":1256245,"name":"pompowai","country":"id","lat":-1.316667,"lon":119.533333},{"id":1223386,"name":"makakata","country":"id","lat":-0.833333,"lon":120.216667},{"id":1194600,"name":"kalongga","country":"id","lat":-1.0354,"lon":119.903},{"id":1153398,"name":"bonemarawa","country":"id","lat":-1.2489,"lon":119.551},{"id":1199716,"name":"kasihsari","country":"id","lat":-0.9768,"lon":120.3531},{"id":1219707,"name":"limboro","country":"id","lat":-0.7201,"lon":119.7018},{"id":1214274,"name":"lambara","country":"id","lat":-1.1654,"lon":119.93},{"id":1194719,"name":"kalurutole","country":"id","lat":-0.875,"lon":119.8322},{"id":1224032,"name":"mamara","country":"id","lat":-0.9103,"lon":119.9201},{"id":1215344,"name":"lanta","country":"id","lat":-0.8734,"lon":119.5523},{"id":1233286,"name":"namo","country":"id","lat":-1.4,"lon":119.95},{"id":1243691,"name":"pandere","country":"id","lat":-1.1926,"lon":119.9424},{"id":1304734,"name":"wanga","country":"id","lat":-1.4947,"lon":120.3284},{"id":1276339,"name":"simoro","country":"id","lat":-1.2543,"lon":119.9434},{"id":1299707,"name":"totosi","country":"id","lat":-0.9131,"lon":119.8321},{"id":1267225,"name":"samanila","country":"id","lat":-0.8071,"lon":119.625},{"id":1303206,"name":"uwemanje","country":"id","lat":-0.9688,"lon":119.8272},{"id":1274393,"name":"sibowi","country":"id","lat":-1.1228,"lon":119.9118},{"id":1138351,"name":"baita","country":"id","lat":-1.0888,"lon":119.8884},{"id":1299322,"name":"tongoa","country":"id","lat":-1.1869,"lon":120.166},{"id":1239608,"name":"paanta","country":"id","lat":-1.483333,"lon":120.366667},{"id":1222364,"name":"lumbutarombo","country":"id","lat":-0.8226,"lon":119.6526},{"id":1285799,"name":"tamadue","country":"id","lat":-1.4664,"lon":120.4163},{"id":1266387,"name":"sakiai","country":"id","lat":-1.2241,"lon":119.9456},{"id":1275716,"name":"silae atas","country":"id","lat":-0.8798,"lon":119.8284},{"id":1226415,"name":"masaribawah","country":"id","lat":-0.9013,"lon":120.2377},{"id":1307540,"name":"wisolo","country":"id","lat":-1.1213,"lon":119.8761},{"id":1239274,"name":"onggolero","country":"id","lat":-0.9755,"lon":119.7741},{"id":1216821,"name":"lebo","country":"id","lat":-0.712,"lon":120.0823},{"id":1138149,"name":"bahari","country":"id","lat":-0.8857,"lon":119.8441},{"id":1223816,"name":"maleni","country":"id","lat":-0.6848,"lon":119.7373},{"id":1306473,"name":"wawujai","country":"id","lat":-0.9744,"lon":119.6936},{"id":1194602,"name":"kalonggo","country":"id","lat":-0.6884,"lon":119.8989},{"id":1266022,"name":"sadaunta","country":"id","lat":-1.3855,"lon":119.9753},{"id":1284939,"name":"taiparanggo","country":"id","lat":-0.9316,"lon":119.8349},{"id":1222333,"name":"lumbubaka","country":"id","lat":-0.6524,"lon":119.8591},{"id":1220878,"name":"lolisaluran","country":"id","lat":-0.7795,"lon":119.7931},{"id":1218518,"name":"letawa","country":"id","lat":-0.901944,"lon":119.533333},{"id":1240676,"name":"padu","country":"id","lat":-1.1514,"lon":119.884},{"id":1157112,"name":"buntina","country":"id","lat":-0.5012,"lon":119.766},{"id":1262299,"name":"rangaranga","country":"id","lat":-0.6017,"lon":119.7998},{"id":1288488,"name":"tanjungbatu","country":"id","lat":-0.665,"lon":119.7399},{"id":1197282,"name":"karama","country":"id","lat":-0.6421,"lon":119.849},{"id":1254042,"name":"pewana","country":"id","lat":-1.1936,"lon":119.8931},{"id":1139474,"name":"balongga","country":"id","lat":-1.1337,"lon":119.8793},{"id":1139695,"name":"bambalemo","country":"id","lat":-0.787,"lon":120.1561},{"id":1138806,"name":"balabonda","country":"id","lat":-0.8731,"lon":119.5429},{"id":1263001,"name":"rarantea","country":"id","lat":-1.0196,"lon":119.8951},{"id":1299571,"name":"torono","country":"id","lat":-1.0635,"lon":120.4792},{"id":1135820,"name":"astina","country":"id","lat":-0.9758,"lon":120.2963},{"id":1139028,"name":"balaroa","country":"id","lat":-1.0233,"lon":119.85868},{"id":1153376,"name":"bonebula","country":"id","lat":-0.9398,"lon":120.2247},{"id":1231455,"name":"motow","country":"id","lat":-1.1679,"lon":120.1448},{"id":1268126,"name":"sangehsari","country":"id","lat":-1.0051,"lon":120.3785},{"id":1199522,"name":"karui","country":"id","lat":-0.9054,"lon":119.8442},{"id":1286909,"name":"tanahharapan","country":"id","lat":-1.143,"lon":120.0766},{"id":1299023,"name":"tomodo","country":"id","lat":-1.0401,"lon":119.7282},{"id":1229047,"name":"metampondo","country":"id","lat":-0.9825,"lon":120.3293},{"id":1300766,"name":"tulo","country":"id","lat":-1.0186,"lon":119.8811},{"id":1305886,"name":"watubula","country":"id","lat":-1.0255,"lon":119.9049},{"id":1205320,"name":"kertosari","country":"id","lat":-1.0435,"lon":120.4197},{"id":1230939,"name":"mongo","country":"id","lat":-0.7733,"lon":119.7173},{"id":1220943,"name":"lolu","country":"id","lat":-0.9037,"lon":119.8769},{"id":1267025,"name":"saluki","country":"id","lat":-1.3012,"lon":119.9482},{"id":1255677,"name":"poero","country":"id","lat":-1.1389,"lon":120.0524},{"id":1194667,"name":"kalukubula","country":"id","lat":-0.9414,"lon":119.8827},{"id":1277369,"name":"sinio","country":"id","lat":-1.0244,"lon":119.73208},{"id":1138464,"name":"bajrosari","country":"id","lat":-0.9652,"lon":120.3647},{"id":1277863,"name":"siroa","country":"id","lat":-1.3037,"lon":119.9493},{"id":1215906,"name":"lasoani","country":"id","lat":-0.7071,"lon":119.7625},{"id":1213284,"name":"laebagu","country":"id","lat":-0.9773,"lon":120.4032},{"id":1139684,"name":"bambaira","country":"id","lat":-0.978889,"lon":119.502778},{"id":1251943,"name":"pengawu","country":"id","lat":-0.9188,"lon":119.8509},{"id":1172839,"name":"dolago","country":"id","lat":-0.8676,"lon":120.2126},{"id":1254631,"name":"piore","country":"id","lat":-1.0296,"lon":120.4388},{"id":1223595,"name":"malakantu","country":"id","lat":-1.1626,"lon":119.9077},{"id":1199187,"name":"karawana","country":"id","lat":-1.0068,"lon":119.9113},{"id":1220880,"name":"lolitasiburi","country":"id","lat":-0.7617,"lon":119.7897},{"id":1298133,"name":"toambe","country":"id","lat":-0.6339,"lon":119.8118},{"id":1191156,"name":"kabonena","country":"id","lat":-0.8865,"lon":119.8306},{"id":1135160,"name":"ape","country":"id","lat":-0.5697,"lon":119.8313},{"id":1244837,"name":"panimba","country":"id","lat":-0.6693,"lon":119.8301},{"id":1304312,"name":"walatana","country":"id","lat":-1.2219,"lon":119.913},{"id":1306578,"name":"wayu","country":"id","lat":-0.9613,"lon":119.7968},{"id":1298220,"name":"tobesule","country":"id","lat":-0.5192,"lon":119.8349},{"id":1253750,"name":"petobo","country":"id","lat":-0.6945,"lon":119.7332},{"id":1139590,"name":"baluase","country":"id","lat":-1.198,"lon":119.8955},{"id":1173012,"name":"dombu","country":"id","lat":-0.9672,"lon":119.7809},{"id":1242126,"name":"palasari","country":"id","lat":-0.9991,"lon":120.3568},{"id":1147220,"name":"beka","country":"id","lat":-0.9896,"lon":119.8631},{"id":1280298,"name":"soulowe","country":"id","lat":-1.0227,"lon":119.9199},{"id":1261379,"name":"ralesiare","country":"id","lat":-1.083333,"lon":119.716667},{"id":1153123,"name":"bomba","country":"id","lat":-1.0076,"lon":119.8579},{"id":1244214,"name":"panggona","country":"id","lat":-0.8875,"lon":119.8565},{"id":1154410,"name":"boyantongo","country":"id","lat":-0.8576,"lon":120.2026},{"id":1305875,"name":"watubone","country":"id","lat":-1.02568,"lon":119.68372},{"id":1176047,"name":"enu","country":"id","lat":-0.5425,"lon":119.7837},{"id":1298902,"name":"tomado","country":"id","lat":-1.3287,"lon":120.0493},{"id":1153400,"name":"boneminggila","country":"id","lat":-1.0931,"lon":119.871015},{"id":1277373,"name":"siniu","country":"id","lat":-0.5608,"lon":120.0502},{"id":1194674,"name":"kalukulau","country":"id","lat":-1.1501,"lon":119.9044},{"id":1153401,"name":"bonemputih","country":"id","lat":-0.5032,"lon":119.7661},{"id":1190296,"name":"jono","country":"id","lat":-1.1129,"lon":119.8725},{"id":1299750,"name":"towaya","country":"id","lat":-0.602,"lon":119.7969},{"id":1226346,"name":"masaengi","country":"id","lat":-0.5845,"lon":119.7929},{"id":1200727,"name":"kayupiya","country":"id","lat":-1.0074,"lon":119.7947},{"id":1149006,"name":"besusu","country":"id","lat":-0.8945,"lon":119.8803},{"id":1284933,"name":"taipambali","country":"id","lat":-0.8736,"lon":119.575},{"id":1237979,"name":"nunu","country":"id","lat":-0.9123,"lon":119.8594},{"id":1225492,"name":"mapane","country":"id","lat":-1.3168,"lon":119.9559},{"id":1196743,"name":"kangkuro","country":"id","lat":-1.3815,"lon":120.0977},{"id":1239035,"name":"olaya","country":"id","lat":-0.8463,"lon":120.1902},{"id":1182162,"name":"greh","country":"id","lat":-1.0094,"lon":120.4052},{"id":1266952,"name":"salua","country":"id","lat":-1.3456,"lon":119.9638},{"id":1220755,"name":"loki","country":"id","lat":-1.166667,"lon":119.883333},{"id":1215545,"name":"lapaloan","country":"id","lat":-0.6839,"lon":119.7206},{"id":1243425,"name":"pancuran","country":"id","lat":-0.7234,"lon":120.0302},{"id":1138725,"name":"bakuganda","country":"id","lat":-0.7834,"lon":119.883},{"id":1151418,"name":"bobolobia","country":"id","lat":-1.133333,"lon":119.7},{"id":1203838,"name":"kembangsariwemea","country":"id","lat":-0.8938,"lon":120.214},{"id":1212744,"name":"labarubi","country":"id","lat":-0.95,"lon":119.766667},{"id":1306278,"name":"watusampu","country":"id","lat":-0.8198,"lon":119.8105},{"id":1256210,"name":"pombewe","country":"id","lat":-0.9627,"lon":119.9477},{"id":1248947,"name":"pasowe","country":"id","lat":-0.833333,"lon":119.7},{"id":1219884,"name":"linggasari","country":"id","lat":-0.9818,"lon":120.3332},{"id":1237713,"name":"noo","country":"id","lat":-1.0014,"lon":119.7394},{"id":1214742,"name":"lampowau","country":"id","lat":-0.8057,"lon":119.8069},{"id":1291663,"name":"telugtugsari","country":"id","lat":-0.9812,"lon":120.3684},{"id":1180430,"name":"ginggin","country":"id","lat":-0.7657,"lon":119.8673},{"id":1154411,"name":"boyaoge","country":"id","lat":-0.9093,"lon":119.8547},{"id":1283962,"name":"sungku","country":"id","lat":-1.4636,"lon":119.9895},{"id":1306311,"name":"watutela","country":"id","lat":-0.846,"lon":119.9222},{"id":1242383,"name":"palintuma","country":"id","lat":-1.0837,"lon":119.7115},{"id":1298780,"name":"tolai","country":"id","lat":-1.003,"lon":120.338},{"id":1154360,"name":"bouyabunga","country":"id","lat":-1.0266,"lon":119.9379},{"id":1228919,"name":"mertasari","country":"id","lat":-0.8236,"lon":120.1763},{"id":1175929,"name":"empogole","country":"id","lat":-0.5576,"lon":120.0278},{"id":1307005,"name":"wera","country":"id","lat":-1.0411,"lon":119.8697},{"id":1222666,"name":"mabere","country":"id","lat":-0.9872,"lon":119.8435},{"id":1255640,"name":"poentoeli","country":"id","lat":-0.933333,"lon":120.366667},{"id":1183982,"name":"gunungsari","country":"id","lat":-1.0029,"lon":120.3241},{"id":1215040,"name":"langga","country":"id","lat":-1.0664,"lon":119.8642},{"id":1274974,"name":"sidondo dua","country":"id","lat":-1.0914,"lon":119.8941},{"id":1155716,"name":"bukitsari","country":"id","lat":-1.0484,"lon":120.4167},{"id":1183799,"name":"gunungmulyo","country":"id","lat":-0.9329,"lon":120.2227},{"id":1250078,"name":"pebondo dua","country":"id","lat":-1.0004,"lon":119.5185},{"id":1282822,"name":"sumbersari","country":"id","lat":-0.9232,"lon":120.2407},{"id":1153023,"name":"bolobia","country":"id","lat":-0.9855,"lon":119.7961},{"id":1207834,"name":"koelawi","country":"id","lat":-1.4417,"lon":119.9861},{"id":1140264,"name":"bandja","country":"id","lat":-1.083333,"lon":119.65},{"id":1266742,"name":"sale","country":"id","lat":-1.1607,"lon":120.0562},{"id":1217958,"name":"lemusa","country":"id","lat":-0.8781,"lon":120.1846},{"id":1191159,"name":"kabonga kecil","country":"id","lat":-0.7069,"lon":119.7588},{"id":1173094,"name":"donggalakodi","country":"id","lat":-0.8998,"lon":119.8201},{"id":1284254,"name":"surumana","country":"id","lat":-0.8604,"lon":119.5704},{"id":1306246,"name":"watuputi","country":"id","lat":-1.02478,"lon":119.69242},{"id":1183277,"name":"gunungbale","country":"id","lat":-0.6716,"lon":119.7472},{"id":1267592,"name":"sambo","country":"id","lat":-1.1083,"lon":119.8747},{"id":1223487,"name":"makmur","country":"id","lat":-1.1441,"lon":120.0563},{"id":1220564,"name":"loeo","country":"id","lat":-1.25,"lon":120.083333},{"id":1305904,"name":"watudea","country":"id","lat":-0.8602,"lon":119.8238},{"id":1246395,"name":"parigimpuu","country":"id","lat":-0.8154,"lon":120.1323},{"id":1262137,"name":"rando","country":"id","lat":-0.8,"lon":119.616667},{"id":1288414,"name":"tanjungangin","country":"id","lat":-0.7202,"lon":120.0081},{"id":1194616,"name":"kalora","country":"id","lat":-1.0737,"lon":119.9039},{"id":1196817,"name":"kanona","country":"id","lat":-0.8952,"lon":119.827},{"id":1276476,"name":"simpanglindu","country":"id","lat":-1.1949,"lon":120.0643},{"id":1294108,"name":"tipo","country":"id","lat":-0.7319,"lon":119.7758},{"id":1222343,"name":"lumbumamara","country":"id","lat":-0.817,"lon":119.679},{"id":1233194,"name":"nambaru","country":"id","lat":-0.9283,"lon":120.2446},{"id":1239081,"name":"olobaru","country":"id","lat":-0.8606,"lon":120.18},{"id":1285860,"name":"tamanbali","country":"id","lat":-0.954,"lon":120.4025}]});