callback({"markets":[{"id":2068384,"name":"esperanza","country":"pe","lat":-2.4833333,"lon":-71.9666667},{"id":680799,"name":"purma","country":"co","lat":-1.9,"lon":-72.05},{"id":684189,"name":"tolima b","country":"co","lat":-1.527728,"lon":-71.983486},{"id":670714,"name":"indostan","country":"co","lat":-1.893077,"lon":-72.347627},{"id":661624,"name":"cartagena","country":"co","lat":-2.444944,"lon":-72.289701},{"id":680667,"name":"puerto tolima","country":"co","lat":-2.183333,"lon":-71.616667},{"id":680325,"name":"puerto carlos","country":"co","lat":-1.856527,"lon":-71.570061},{"id":682791,"name":"santa lucia","country":"co","lat":-1.905469,"lon":-72.29728},{"id":684572,"name":"union","country":"co","lat":-2.133333,"lon":-71.733333},{"id":682783,"name":"santa julia","country":"co","lat":-1.849711,"lon":-72.392979},{"id":660621,"name":"buri buri","country":"co","lat":-2.350923,"lon":-72.085764},{"id":668619,"name":"gondar","country":"co","lat":-1.516667,"lon":-72.05},{"id":2079550,"name":"puca urco","country":"pe","lat":-2.3333333,"lon":-71.9166667},{"id":683475,"name":"soledad","country":"co","lat":-1.846961,"lon":-72.453439},{"id":2062360,"name":"bufeo","country":"pe","lat":-2.3333333,"lon":-71.5166667},{"id":677107,"name":"mediodia","country":"co","lat":-2.083333,"lon":-72.101208}]});