callback({"markets":[{"id":1215434,"name":"laoeroe","country":"id","lat":1.366667,"lon":97.3},{"id":1239329,"name":"ononodjara","country":"id","lat":1.1518,"lon":97.4624},{"id":1170134,"name":"dau","country":"id","lat":1.377,"lon":97.2044},{"id":1143871,"name":"banuwasibahow","country":"id","lat":1.227181,"lon":97.465893},{"id":1277952,"name":"sisiobandrao","country":"id","lat":0.957,"lon":97.4703},{"id":1169340,"name":"dangagari","country":"id","lat":1.0797,"lon":97.3975},{"id":1171058,"name":"detna","country":"id","lat":1.216667,"lon":97.3},{"id":1192013,"name":"kafokalo","country":"id","lat":0.837901,"lon":97.332425},{"id":1216156,"name":"lauru","country":"id","lat":1.08554,"lon":97.490107},{"id":1213407,"name":"lagha","country":"id","lat":1.433333,"lon":97.483333},{"id":1239332,"name":"onozalughu","country":"id","lat":1.3401,"lon":97.237},{"id":1213476,"name":"lahemboho","country":"id","lat":1.155327,"lon":97.393645},{"id":1185178,"name":"hiligara","country":"id","lat":1.1015,"lon":97.4151},{"id":1185179,"name":"hiligeo","country":"id","lat":1.0974,"lon":97.4635},{"id":1224474,"name":"mandrehe","country":"id","lat":1.074,"lon":97.4376},{"id":1277875,"name":"siromboe","country":"id","lat":0.9514,"lon":97.4174},{"id":1292747,"name":"teolo","country":"id","lat":1.143712,"lon":97.449357},{"id":1239325,"name":"ononamolo","country":"id","lat":1.131211,"lon":97.365691},{"id":1176199,"name":"fadoroiraonogea","country":"id","lat":1.3711,"lon":97.2481},{"id":1213376,"name":"lafau","country":"id","lat":1.4021,"lon":97.2141},{"id":1185205,"name":"hilisebuwa","country":"id","lat":1.1722,"lon":97.4424},{"id":1227278,"name":"mazingo","country":"id","lat":1.028844,"lon":97.437152},{"id":1176197,"name":"fadoonowambu","country":"id","lat":0.9995,"lon":97.4192},{"id":1213478,"name":"lahewa","country":"id","lat":1.3943,"lon":97.1675},{"id":1134358,"name":"ambugh","country":"id","lat":1.4063,"lon":97.1304},{"id":1146587,"name":"bawusaloo","country":"id","lat":0.833,"lon":97.3367},{"id":1135988,"name":"awaaj","country":"id","lat":1.4,"lon":97.483333},{"id":1220917,"name":"lolombol","country":"id","lat":1.1136,"lon":97.4693},{"id":1176411,"name":"fodorosifulubanuwa","country":"id","lat":1.019591,"lon":97.449948},{"id":1221333,"name":"looanaa","country":"id","lat":1.22846,"lon":97.425438},{"id":1185170,"name":"hiliduho","country":"id","lat":1.07363,"lon":97.428883},{"id":1184533,"name":"halomona","country":"id","lat":0.8571,"lon":97.3301},{"id":1185219,"name":"hinako","country":"id","lat":0.8588,"lon":97.3358},{"id":1149790,"name":"binole","country":"id","lat":0.8529,"lon":97.3655},{"id":1176119,"name":"erohulo","country":"id","lat":0.817263,"lon":97.341495},{"id":1146556,"name":"bawasawa","country":"id","lat":0.8554,"lon":97.3143},{"id":1139586,"name":"balowondrato","country":"id","lat":0.8711,"lon":97.3557},{"id":1185207,"name":"hilisiromi","country":"id","lat":1.0415,"lon":97.3902},{"id":1279921,"name":"sooromanasi","country":"id","lat":1.346,"lon":97.1859},{"id":1266434,"name":"sakusaku","country":"id","lat":0.8561,"lon":97.3795},{"id":1176224,"name":"faignuna","country":"id","lat":1.177,"lon":97.3137},{"id":1186103,"name":"imana","country":"id","lat":0.8508,"lon":97.331},{"id":1184763,"name":"harefa","country":"id","lat":1.1144,"lon":97.4512},{"id":1154169,"name":"borosi","country":"id","lat":1.256836,"lon":97.251306},{"id":1213236,"name":"ladara","country":"id","lat":1.466667,"lon":97.466667},{"id":1134653,"name":"anauma","country":"id","lat":1.1933,"lon":97.4731},{"id":1176221,"name":"faighunago","country":"id","lat":1.416667,"lon":97.083333},{"id":1176463,"name":"fulolo","country":"id","lat":1.055322,"lon":97.429671},{"id":1275143,"name":"sifaroasi","country":"id","lat":1.1985,"lon":97.2899},{"id":1152268,"name":"boila","country":"id","lat":1.3835,"lon":97.1867},{"id":1220916,"name":"lolomboli","country":"id","lat":1.047841,"lon":97.426029},{"id":1226312,"name":"maruhawa","country":"id","lat":0.9071,"lon":97.2779},{"id":1216368,"name":"lawira","country":"id","lat":1.4,"lon":97.35},{"id":1185187,"name":"hilikara","country":"id","lat":1.3187,"lon":97.199},{"id":1275142,"name":"sifaoroasi","country":"id","lat":1.150405,"lon":97.419729},{"id":1132918,"name":"afoeloe","country":"id","lat":1.265,"lon":97.2442},{"id":1215873,"name":"lasarabagawo","country":"id","lat":1.006107,"lon":97.419336},{"id":1213452,"name":"lahagu","country":"id","lat":1.114675,"lon":97.494241},{"id":1239375,"name":"orahibawogora","country":"id","lat":0.9843,"lon":97.4349},{"id":1139413,"name":"balojasa","country":"id","lat":0.817599,"lon":97.350014},{"id":1176419,"name":"foelolo","country":"id","lat":1.127471,"lon":97.413922},{"id":1300565,"name":"tuheborua","country":"id","lat":1.23161,"lon":97.401126},{"id":1184764,"name":"harefandese","country":"id","lat":1.1932,"lon":97.4278},{"id":1171243,"name":"dima","country":"id","lat":1.333333,"lon":97.333333},{"id":1298583,"name":"togimbogi","country":"id","lat":0.9435,"lon":97.4784}]});