callback({"markets":[{"id":1909771,"name":"santa cruz flores","country":"mx","lat":16.366111,"lon":-97.758333},{"id":1910257,"name":"santa maria huazolotitlan","country":"mx","lat":16.283333,"lon":-97.933333},{"id":1878470,"name":"guayabas","country":"mx","lat":16.066667,"lon":-97.65},{"id":1897826,"name":"pinotepa nacional","country":"mx","lat":16.316667,"lon":-98.016667},{"id":1868529,"name":"culebra","country":"mx","lat":16.266667,"lon":-98.216667},{"id":1866967,"name":"comaltepec","country":"mx","lat":16.318611,"lon":-97.7975},{"id":1913051,"name":"tecolote","country":"mx","lat":16.316667,"lon":-98.483333},{"id":1897489,"name":"piedra amarilla","country":"mx","lat":16.414444,"lon":-97.571111},{"id":1884388,"name":"la luz","country":"mx","lat":16.116111,"lon":-97.599167},{"id":1908073,"name":"san luis yucutaco","country":"mx","lat":16.476944,"lon":-97.7575},{"id":1881141,"name":"jose maria morelos","country":"mx","lat":16.215278,"lon":-97.944444},{"id":1867478,"name":"corralero","country":"mx","lat":16.25,"lon":-98.2},{"id":1896889,"name":"patria nueva","country":"mx","lat":16.1875,"lon":-97.796389},{"id":1891885,"name":"mechoacan","country":"mx","lat":16.333333,"lon":-97.833333},{"id":1880898,"name":"jicayan","country":"mx","lat":16.416667,"lon":-97.983333},{"id":1872430,"name":"el guayabo","country":"mx","lat":16.1875,"lon":-97.796667},{"id":1887802,"name":"la vega","country":"mx","lat":16.0625,"lon":-97.663056},{"id":1896831,"name":"pastoria","country":"mx","lat":16.031111,"lon":-97.596389},{"id":1915446,"name":"toribio","country":"mx","lat":16.083333,"lon":-97.583333},{"id":1904498,"name":"sabrosa","country":"mx","lat":16.05,"lon":-97.583333},{"id":1876154,"name":"el zapotalito","country":"mx","lat":15.992778,"lon":-97.546667},{"id":1910847,"name":"santiago tapextla","country":"mx","lat":16.316667,"lon":-98.383333},{"id":1888444,"name":"llano vibora","country":"mx","lat":16.449167,"lon":-97.531111},{"id":1909021,"name":"san pedro orizaba","country":"mx","lat":16.480278,"lon":-98.326667},{"id":1881849,"name":"la balsa","country":"mx","lat":16.170278,"lon":-97.731944},{"id":1910784,"name":"santiago llano grande","country":"mx","lat":16.494444,"lon":-98.281111},{"id":1864917,"name":"chayuco","country":"mx","lat":16.4,"lon":-97.816667},{"id":1918270,"name":"yeguey","country":"mx","lat":16.1,"lon":-97.733333},{"id":1898077,"name":"platanillo","country":"mx","lat":16.166667,"lon":-97.816667},{"id":1895780,"name":"palma","country":"mx","lat":16.133333,"lon":-97.95},{"id":1908582,"name":"san miguel tetepelcingo","country":"mx","lat":16.383333,"lon":-97.916667},{"id":1866053,"name":"ciruelo","country":"mx","lat":16.283333,"lon":-97.733333},{"id":1910775,"name":"santiago jamiltepec","country":"mx","lat":16.283333,"lon":-97.816667},{"id":1882258,"name":"la canada","country":"mx","lat":16.157222,"lon":-97.6875},{"id":1907432,"name":"san juan colbrado","country":"mx","lat":16.474167,"lon":-97.966944},{"id":1883433,"name":"lagartero","country":"mx","lat":16.25,"lon":-98.033333},{"id":1875617,"name":"el terrero","country":"mx","lat":16.452778,"lon":-98.069444},{"id":1867400,"name":"corozo","country":"mx","lat":16.063333,"lon":-97.732778},{"id":1905466,"name":"sanate","country":"mx","lat":16.25,"lon":-97.683333},{"id":1869118,"name":"dos caminos","country":"mx","lat":16.384167,"lon":-97.797778},{"id":1867753,"name":"coyouche","country":"mx","lat":16.063056,"lon":-97.764167},{"id":1912373,"name":"tamarindo","country":"mx","lat":16.283333,"lon":-98.033333},{"id":1909859,"name":"santa domingo","country":"mx","lat":16.3,"lon":-98.333333},{"id":1911689,"name":"siniyuvi","country":"mx","lat":16.490278,"lon":-97.943889},{"id":1868809,"name":"descabezadero","country":"mx","lat":16.166667,"lon":-98.066667},{"id":1873312,"name":"el monroy","country":"mx","lat":16.0625,"lon":-97.866111},{"id":1876627,"name":"espiga verde","country":"mx","lat":16.033333,"lon":-97.816667},{"id":1864837,"name":"charco plata","country":"mx","lat":16.116667,"lon":-97.75},{"id":1896625,"name":"paso de la reina","country":"mx","lat":16.266667,"lon":-97.6},{"id":1903312,"name":"rancho viejo","country":"mx","lat":16.345,"lon":-97.975},{"id":1897268,"name":"perico","country":"mx","lat":16.466667,"lon":-98.116667},{"id":1879665,"name":"huichicata","country":"mx","lat":16.243056,"lon":-97.694167},{"id":1875705,"name":"el tlacoache","country":"mx","lat":16.031944,"lon":-97.505},{"id":1912853,"name":"tataltepec de valdes","country":"mx","lat":16.311944,"lon":-97.546667},{"id":1914574,"name":"tihuixtle","country":"mx","lat":16.326667,"lon":-97.656111},{"id":1909711,"name":"santa cruz acatepec","country":"mx","lat":16.15,"lon":-97.533333},{"id":1906014,"name":"san felipe","country":"mx","lat":16.315,"lon":-97.952778},{"id":1883709,"name":"laguna miniyua","country":"mx","lat":16.030833,"lon":-97.826667},{"id":1907104,"name":"san jose del progreso","country":"mx","lat":16.108056,"lon":-97.701667},{"id":1918505,"name":"yutanicani","country":"mx","lat":16.281111,"lon":-97.9925},{"id":1870560,"name":"el cacao","country":"mx","lat":16.366667,"lon":-97.766667},{"id":1897533,"name":"piedra del aguila","country":"mx","lat":16.2,"lon":-97.716667},{"id":1904036,"name":"rio leche","country":"mx","lat":16.248889,"lon":-97.600278},{"id":1909510,"name":"santa ana tututepec","country":"mx","lat":16.1875,"lon":-97.544167},{"id":1864839,"name":"charco redondo","country":"mx","lat":16.066667,"lon":-97.75},{"id":1906527,"name":"san isidro del parral","country":"mx","lat":16.413889,"lon":-97.656111},{"id":1866342,"name":"cobitan","country":"mx","lat":16.38,"lon":-97.894444},{"id":1883781,"name":"lagunillas","country":"mx","lat":16.366667,"lon":-98.25},{"id":1867583,"name":"cortijos","country":"mx","lat":16.45,"lon":-98.233333},{"id":1894897,"name":"ocotlan de juarez","country":"mx","lat":16.386667,"lon":-97.677222},{"id":1861189,"name":"blanco","country":"mx","lat":16.216667,"lon":-97.966667},{"id":1894760,"name":"nutio","country":"mx","lat":16.483611,"lon":-97.900556},{"id":1891423,"name":"marina","country":"mx","lat":16.25,"lon":-97.616667},{"id":1876862,"name":"estancia grande","country":"mx","lat":16.35,"lon":-98.2},{"id":1870240,"name":"el azufre","country":"mx","lat":15.993333,"lon":-97.780833},{"id":1915081,"name":"tlapanalquiahuitl","country":"mx","lat":16.45,"lon":-97.5},{"id":1907286,"name":"san jose rio verde","country":"mx","lat":16.139167,"lon":-97.751944},{"id":1863035,"name":"cando","country":"mx","lat":16.45,"lon":-98.083333},{"id":1914812,"name":"tlacamama","country":"mx","lat":16.416667,"lon":-98.066667},{"id":1886226,"name":"las conchitas","country":"mx","lat":16.333333,"lon":-98.45},{"id":1904141,"name":"rivero","country":"mx","lat":16.233333,"lon":-98.116667},{"id":1910131,"name":"santa maia","country":"mx","lat":16.46,"lon":-97.501111},{"id":1862361,"name":"camalote","country":"mx","lat":16.11,"lon":-97.913333},{"id":1864191,"name":"cerro blanco","country":"mx","lat":16.234167,"lon":-97.9475},{"id":1883947,"name":"la humedad","country":"mx","lat":16.218611,"lon":-97.762222},{"id":1862079,"name":"cahuitan","country":"mx","lat":16.283333,"lon":-98.466667},{"id":1877005,"name":"faisan","country":"mx","lat":16.15,"lon":-97.733333},{"id":1868020,"name":"cuajinicuilapa","country":"mx","lat":16.466667,"lon":-98.416667},{"id":1910860,"name":"santiago tetepec","country":"mx","lat":16.333611,"lon":-97.750833},{"id":1882998,"name":"la cumbre","country":"mx","lat":16.283333,"lon":-97.683333},{"id":1910951,"name":"santo domingo armenta","country":"mx","lat":16.346111,"lon":-98.384722},{"id":1876198,"name":"el zarzal","country":"mx","lat":16.076944,"lon":-97.794444},{"id":1919011,"name":"zocotepec","country":"mx","lat":16.15,"lon":-97.516667},{"id":1910272,"name":"santa maria jicaltepec","country":"mx","lat":16.366667,"lon":-98.016667},{"id":1871348,"name":"el ciruelo","country":"mx","lat":16.294444,"lon":-97.693889},{"id":1861425,"name":"boquilla de rio verde","country":"mx","lat":16.166667,"lon":-97.766667},{"id":1879332,"name":"huamuchil","country":"mx","lat":16.383333,"lon":-97.516667},{"id":1899612,"name":"puerto minizo","country":"mx","lat":16.116667,"lon":-98.0},{"id":1860452,"name":"banco de oro","country":"mx","lat":16.201667,"lon":-98.125833},{"id":1865011,"name":"chicalapa","country":"mx","lat":16.1,"lon":-97.583333},{"id":1909111,"name":"san pedro tututepec","country":"mx","lat":16.15,"lon":-97.633333},{"id":1897460,"name":"pie cerro","country":"mx","lat":16.233333,"lon":-98.15},{"id":1864870,"name":"chatanu","country":"mx","lat":16.383333,"lon":-97.633333},{"id":1893147,"name":"montecillos","country":"mx","lat":16.366667,"lon":-98.466667},{"id":1873568,"name":"el ocote","country":"mx","lat":16.356944,"lon":-97.583611},{"id":1905021,"name":"san andres huaxpaltepec","country":"mx","lat":16.316667,"lon":-97.933333},{"id":1873581,"name":"el ojaral","country":"mx","lat":16.250833,"lon":-97.945278},{"id":1895762,"name":"palma del coco","country":"mx","lat":16.283333,"lon":-97.6},{"id":1864614,"name":"chamuscadero","country":"mx","lat":16.05,"lon":-97.766667},{"id":1888490,"name":"lo de candela","country":"mx","lat":16.383333,"lon":-98.083333},{"id":1889654,"name":"los hoyos","country":"mx","lat":16.433333,"lon":-98.433333},{"id":1872187,"name":"el frutillo","country":"mx","lat":16.498889,"lon":-97.771944},{"id":1870775,"name":"el caracol","country":"mx","lat":16.493333,"lon":-97.796667},{"id":1867678,"name":"coyantes","country":"mx","lat":16.166667,"lon":-97.983333},{"id":1892726,"name":"minichu","country":"mx","lat":16.066667,"lon":-97.8},{"id":1893579,"name":"muni","country":"mx","lat":16.35,"lon":-97.766667},{"id":1887703,"name":"la tuza","country":"mx","lat":16.066667,"lon":-97.9},{"id":1866543,"name":"collantes","country":"mx","lat":16.188056,"lon":-97.981389},{"id":1900703,"name":"rancho del santo","country":"mx","lat":16.391944,"lon":-98.173611},{"id":1907650,"name":"san juan jicayan","country":"mx","lat":16.492778,"lon":-98.010278},{"id":1870907,"name":"el carrizo","country":"mx","lat":16.25,"lon":-98.029167},{"id":1864812,"name":"charco de la teja","country":"mx","lat":16.066667,"lon":-97.6},{"id":1891128,"name":"mandinga","country":"mx","lat":16.283333,"lon":-97.766667},{"id":1915295,"name":"tololote","country":"mx","lat":16.25,"lon":-97.516667},{"id":1864298,"name":"cerro hermoso","country":"mx","lat":15.966944,"lon":-97.531944},{"id":1875131,"name":"el santo","country":"mx","lat":16.2175,"lon":-97.748889},{"id":1857273,"name":"achiotes","country":"mx","lat":16.216667,"lon":-98.05},{"id":1874938,"name":"el rosario","country":"mx","lat":16.333611,"lon":-97.771111},{"id":1893471,"name":"motillas","country":"mx","lat":16.311111,"lon":-98.182222},{"id":1862221,"name":"calera","country":"mx","lat":16.2,"lon":-97.616667},{"id":1910425,"name":"santa maria yosocani","country":"mx","lat":16.446389,"lon":-97.884722},{"id":1877240,"name":"francisco","country":"mx","lat":16.15,"lon":-97.6},{"id":1894324,"name":"noria","country":"mx","lat":16.2,"lon":-98.016667},{"id":1891373,"name":"maria de la luz","country":"mx","lat":16.166667,"lon":-97.966667},{"id":1915808,"name":"tres rios","country":"mx","lat":16.483333,"lon":-98.116667},{"id":1872101,"name":"el faisan","country":"mx","lat":16.158056,"lon":-97.708611},{"id":1891125,"name":"mancuernas","country":"mx","lat":16.383333,"lon":-98.066667},{"id":1879941,"name":"ibera","country":"mx","lat":16.116667,"lon":-97.8},{"id":1907895,"name":"san lorenzo","country":"mx","lat":16.383333,"lon":-97.883333},{"id":1906112,"name":"san francisco de abajo","country":"mx","lat":16.116667,"lon":-97.6},{"id":1884801,"name":"la muralla","country":"mx","lat":16.497222,"lon":-97.843611},{"id":1892740,"name":"minitan","country":"mx","lat":16.216667,"lon":-98.133333},{"id":1867993,"name":"cuadrilla","country":"mx","lat":16.316667,"lon":-98.283333},{"id":1871568,"name":"el corral","country":"mx","lat":15.9925,"lon":-97.654167},{"id":1887535,"name":"la teja","country":"mx","lat":16.1875,"lon":-97.716944},{"id":1876265,"name":"emiliano zapata","country":"mx","lat":16.170278,"lon":-97.753056},{"id":1880895,"name":"jicaro","country":"mx","lat":16.183333,"lon":-98.083333},{"id":1906998,"name":"san jose de las flores","country":"mx","lat":16.415833,"lon":-97.749167},{"id":1916358,"name":"union y libertad","country":"mx","lat":16.436944,"lon":-97.796667},{"id":1907812,"name":"san juan yosocani","country":"mx","lat":16.452778,"lon":-97.906111},{"id":1869968,"name":"el alacran","country":"mx","lat":16.383889,"lon":-98.173611},{"id":1918503,"name":"yutandayoo","country":"mx","lat":16.454444,"lon":-98.035556},{"id":1904111,"name":"rio viejo","country":"mx","lat":16.110556,"lon":-97.749444},{"id":1861789,"name":"buenos aires","country":"mx","lat":16.333333,"lon":-98.466667},{"id":1910174,"name":"santa maria chico ometepec","country":"mx","lat":16.175,"lon":-97.966667},{"id":1898279,"name":"pocitos","country":"mx","lat":16.183333,"lon":-97.983333},{"id":1915352,"name":"tomiltepec","country":"mx","lat":16.283333,"lon":-97.866667},{"id":1896653,"name":"paso del jiote","country":"mx","lat":16.225556,"lon":-97.973333},{"id":1875395,"name":"el tamal","country":"mx","lat":16.356944,"lon":-98.173611},{"id":1897825,"name":"pinotepa de don luis","country":"mx","lat":16.416667,"lon":-97.916667},{"id":1864241,"name":"cerro de la esperanza","country":"mx","lat":16.218611,"lon":-97.981111},{"id":1888506,"name":"lo de liborio","country":"mx","lat":16.366667,"lon":-98.133333},{"id":1883616,"name":"laguna de chacahua","country":"mx","lat":15.976944,"lon":-97.695833},{"id":1892747,"name":"miniyua","country":"mx","lat":16.05,"lon":-97.866667},{"id":1873410,"name":"el nanche","country":"mx","lat":16.25,"lon":-98.216667}]});