callback({"markets":[{"id":280021,"name":"machavi","country":"bo","lat":-12.2333333,"lon":-67.3666667},{"id":277323,"name":"ethea","country":"bo","lat":-11.9333333,"lon":-66.8666667},{"id":280655,"name":"muchavi","country":"bo","lat":-12.05,"lon":-67.3},{"id":279895,"name":"los angeles","country":"bo","lat":-12.0166667,"lon":-66.7666667},{"id":271026,"name":"bolivar","country":"bo","lat":-12.2666667,"lon":-67.4333333},{"id":285365,"name":"vicos","country":"bo","lat":-12.35,"lon":-67.2166667},{"id":283454,"name":"santa elena","country":"bo","lat":-11.75,"lon":-66.6666667},{"id":283298,"name":"san manuel","country":"bo","lat":-11.9833333,"lon":-67.2},{"id":271789,"name":"carnavales","country":"bo","lat":-11.95,"lon":-66.85},{"id":270912,"name":"barroquita","country":"bo","lat":-12.2166667,"lon":-67.1166667},{"id":281493,"name":"pascana","country":"bo","lat":-12.0833333,"lon":-66.9833333},{"id":280088,"name":"mamore bay","country":"bo","lat":-11.7,"lon":-66.7},{"id":280187,"name":"marimonos","country":"bo","lat":-12.4833333,"lon":-66.5333333},{"id":271999,"name":"centro yuca","country":"bo","lat":-11.7,"lon":-67.15},{"id":281616,"name":"pena amarilla","country":"bo","lat":-11.5666667,"lon":-66.5666667},{"id":280965,"name":"olla","country":"bo","lat":-11.7666667,"lon":-67.3},{"id":278771,"name":"jatata","country":"bo","lat":-11.8,"lon":-67.2166667},{"id":283849,"name":"socabon","country":"bo","lat":-11.75,"lon":-66.8833333},{"id":272109,"name":"chacro","country":"bo","lat":-11.8166667,"lon":-66.8},{"id":283297,"name":"san manuel","country":"bo","lat":-11.7,"lon":-66.65},{"id":283267,"name":"san juan","country":"bo","lat":-11.9666667,"lon":-66.7833333},{"id":280029,"name":"maco","country":"bo","lat":-12.25,"lon":-66.8333333},{"id":283731,"name":"siete picos","country":"bo","lat":-12.2333333,"lon":-66.5333333},{"id":271346,"name":"california","country":"bo","lat":-11.95,"lon":-66.8333333},{"id":270253,"name":"aime","country":"bo","lat":-11.7833333,"lon":-66.6666667},{"id":283673,"name":"sena","country":"bo","lat":-11.5333333,"lon":-67.1833333},{"id":271614,"name":"capihuara","country":"bo","lat":-11.6666667,"lon":-66.7},{"id":279488,"name":"la olla","country":"bo","lat":-12.1833333,"lon":-66.7666667},{"id":277517,"name":"gomalito","country":"bo","lat":-12.1833333,"lon":-67.0666667},{"id":271597,"name":"capacabana","country":"bo","lat":-11.5833333,"lon":-66.75},{"id":285632,"name":"vitumbo","country":"bo","lat":-11.95,"lon":-66.7833333},{"id":277402,"name":"florida","country":"bo","lat":-12.0833333,"lon":-67.0333333},{"id":277362,"name":"federacion","country":"bo","lat":-11.8166667,"lon":-67.3666667},{"id":282326,"name":"puerto valdez","country":"bo","lat":-11.8666667,"lon":-67.2333333},{"id":284970,"name":"tudela","country":"bo","lat":-11.95,"lon":-67.2},{"id":270998,"name":"blanca flor","country":"bo","lat":-11.8,"lon":-66.8},{"id":281865,"name":"playon","country":"bo","lat":-11.8333333,"lon":-66.7666667},{"id":282236,"name":"puerto florencia","country":"bo","lat":-11.5333333,"lon":-67.3166667},{"id":279948,"name":"los puentes","country":"bo","lat":-12.0333333,"lon":-66.5166667},{"id":280204,"name":"martin","country":"bo","lat":-12.1,"lon":-67.3166667},{"id":284679,"name":"todos santos","country":"bo","lat":-12.4833333,"lon":-66.8666667}]});