callback({"markets":[{"id":2792493,"name":"gokcedere","country":"tr","lat":39.764527,"lon":28.095742},{"id":2771688,"name":"asmalidere koyu","country":"tr","lat":39.83,"lon":28.01},{"id":2778848,"name":"cakilkoyu","country":"tr","lat":40.468071,"lon":28.023817},{"id":2799555,"name":"ilyascilar","country":"tr","lat":40.0,"lon":28.483333},{"id":2792502,"name":"gokcederekoy","country":"tr","lat":39.816667,"lon":28.033333},{"id":2779244,"name":"calova","country":"tr","lat":39.802313,"lon":27.540518},{"id":2817008,"name":"naipli","country":"tr","lat":39.664801,"lon":27.74815},{"id":2784709,"name":"dedeobasi","country":"tr","lat":40.330609,"lon":28.17523},{"id":2776038,"name":"beylik","country":"tr","lat":40.098184,"lon":28.182102},{"id":2790108,"name":"eskisigirci","country":"tr","lat":40.233333,"lon":28.05},{"id":2803043,"name":"karadut","country":"tr","lat":40.283333,"lon":28.333333},{"id":2784416,"name":"darica","country":"tr","lat":40.02237,"lon":27.808639},{"id":2792290,"name":"gobul","country":"tr","lat":39.516667,"lon":28.483333},{"id":2780298,"name":"cataltepe","country":"tr","lat":39.98,"lon":27.9},{"id":2769950,"name":"ariz","country":"tr","lat":40.255448,"lon":28.229605},{"id":2807665,"name":"killik","country":"tr","lat":40.226857,"lon":27.817592},{"id":2794909,"name":"guvencetmi","country":"tr","lat":39.518933,"lon":28.074787},{"id":2766883,"name":"akcakaya","country":"tr","lat":39.575833,"lon":27.8675},{"id":2803748,"name":"karamankoy","country":"tr","lat":39.650617,"lon":27.992599},{"id":2798596,"name":"hotanli","country":"tr","lat":40.208889,"lon":28.311389},{"id":2816816,"name":"mustafakemelpasa","country":"tr","lat":40.035278,"lon":28.411667},{"id":2821533,"name":"sahinkoy","country":"tr","lat":40.236014,"lon":28.31772},{"id":2819161,"name":"ovakoy","country":"tr","lat":39.607169,"lon":27.969442},{"id":2830923,"name":"uluabat","country":"tr","lat":40.203787,"lon":28.433112},{"id":2786998,"name":"dogla","country":"tr","lat":40.283889,"lon":28.239167},{"id":2786815,"name":"doganci","country":"tr","lat":40.1,"lon":28.45},{"id":2809103,"name":"kizillar","country":"tr","lat":40.216667,"lon":28.25},{"id":2817317,"name":"nergiz","country":"tr","lat":39.516667,"lon":27.933333},{"id":2768512,"name":"aleksi","country":"tr","lat":40.069038,"lon":27.886196},{"id":2829699,"name":"tophisar","country":"tr","lat":40.219561,"lon":28.16173},{"id":2816262,"name":"monamak","country":"tr","lat":40.194203,"lon":27.778924},{"id":2770266,"name":"artaki","country":"tr","lat":40.399599,"lon":27.793475},{"id":2788498,"name":"ekinlik","country":"tr","lat":39.904256,"lon":28.212598},{"id":2814499,"name":"mancilik","country":"tr","lat":39.883333,"lon":27.52641},{"id":2806570,"name":"kepekler","country":"tr","lat":39.733056,"lon":28.486111},{"id":2792974,"name":"golecik","country":"tr","lat":40.27887,"lon":28.299044},{"id":2808359,"name":"kirmizilar","country":"tr","lat":39.797919,"lon":27.798597},{"id":2818107,"name":"omerkoy","country":"tr","lat":39.830633,"lon":28.066822},{"id":2818795,"name":"ortasaribey","country":"tr","lat":40.143611,"lon":28.231111},{"id":2766572,"name":"ahmetolen","country":"tr","lat":39.633333,"lon":28.283333},{"id":2828134,"name":"tatlisu","country":"tr","lat":40.409689,"lon":27.921423},{"id":2823360,"name":"sayacik","country":"tr","lat":39.678793,"lon":28.346368},{"id":2789708,"name":"esen","country":"tr","lat":40.100894,"lon":28.057789},{"id":2774821,"name":"bayramic","country":"tr","lat":40.1,"lon":27.8},{"id":2789023,"name":"emirler","country":"tr","lat":40.315227,"lon":28.15316},{"id":2770014,"name":"armutalan","country":"tr","lat":39.816667,"lon":27.8},{"id":2805060,"name":"kavakalan","country":"tr","lat":39.787636,"lon":27.671307},{"id":2816574,"name":"muratlar","country":"tr","lat":40.066667,"lon":27.583333},{"id":2834284,"name":"yenikoy","country":"tr","lat":39.5,"lon":28.133333},{"id":2825802,"name":"sizikoy","country":"tr","lat":40.166667,"lon":27.5},{"id":2818278,"name":"orencik","country":"tr","lat":39.830155,"lon":28.443774},{"id":2800317,"name":"isiklarciftligi koyu","country":"tr","lat":39.65,"lon":27.666667},{"id":2793837,"name":"gulluce","country":"tr","lat":40.032425,"lon":28.312733},{"id":2790856,"name":"findikkoy","country":"tr","lat":39.55954,"lon":27.573273},{"id":2797843,"name":"hidir","country":"tr","lat":40.309559,"lon":27.806167},{"id":2784152,"name":"dallimandira","country":"tr","lat":39.60902,"lon":27.695143},{"id":2802723,"name":"karacaoren","country":"tr","lat":39.716667,"lon":28.116667},{"id":2817006,"name":"naipler","country":"tr","lat":39.58583,"lon":28.343093},{"id":2820540,"name":"piyade","country":"tr","lat":39.701492,"lon":28.367554},{"id":2792764,"name":"gokmusa","country":"tr","lat":39.8,"lon":27.716667},{"id":2836690,"name":"yumrucakli","country":"tr","lat":40.069164,"lon":28.276523},{"id":2787551,"name":"dumanalani","country":"tr","lat":40.133889,"lon":27.535278},{"id":2811733,"name":"kucukkatranci","country":"tr","lat":39.733333,"lon":28.433333},{"id":2796645,"name":"hara","country":"tr","lat":40.133333,"lon":28.316667},{"id":2767703,"name":"ak sakal koy","country":"tr","lat":40.147252,"lon":28.106795},{"id":2836559,"name":"yukariyapici","country":"tr","lat":40.430558,"lon":27.884244},{"id":2785015,"name":"deliler","country":"tr","lat":39.85,"lon":27.516667},{"id":2829917,"name":"toybelen","country":"tr","lat":39.86908,"lon":27.867187},{"id":2832127,"name":"voyvoda","country":"tr","lat":40.132652,"lon":28.43583},{"id":2799903,"name":"incilipinar","country":"tr","lat":40.091944,"lon":28.473333},{"id":2809132,"name":"kiziloluk koyu","country":"tr","lat":39.751944,"lon":28.396667},{"id":2785669,"name":"derekadi","country":"tr","lat":39.95,"lon":28.416667},{"id":2815880,"name":"miletopolis","country":"tr","lat":40.215251,"lon":28.403778},{"id":2810624,"name":"korubasi","country":"tr","lat":39.783333,"lon":28.233333},{"id":2827028,"name":"susughirli","country":"tr","lat":39.913611,"lon":28.157778},{"id":2823122,"name":"sarnickoyu","country":"tr","lat":39.604512,"lon":28.383694},{"id":2834020,"name":"yenicebasimkizdi","country":"tr","lat":39.75,"lon":27.783333},{"id":2817641,"name":"ocaklar","country":"tr","lat":40.44387,"lon":27.757025},{"id":2767045,"name":"akcapinarkoy","country":"tr","lat":40.1,"lon":27.583333},{"id":2834231,"name":"yenikazaklar","country":"tr","lat":40.246852,"lon":27.956252},{"id":2801971,"name":"kansiz","country":"tr","lat":39.83,"lon":28.398889},{"id":2808344,"name":"kirmikir","country":"tr","lat":40.24773,"lon":28.427789},{"id":2804024,"name":"karapurcek","country":"tr","lat":39.972222,"lon":28.220833},{"id":2812089,"name":"kulefli","country":"tr","lat":40.26087,"lon":27.927074},{"id":2780099,"name":"catak","country":"tr","lat":39.95,"lon":27.683333},{"id":2812606,"name":"kurse","country":"tr","lat":39.766667,"lon":28.066667},{"id":2830337,"name":"turplu","country":"tr","lat":39.728288,"lon":27.711637},{"id":2788535,"name":"ekmekci","country":"tr","lat":40.326523,"lon":28.459307},{"id":2797407,"name":"haydar","country":"tr","lat":40.068981,"lon":28.023099},{"id":2801293,"name":"kalaycilar","country":"tr","lat":39.663889,"lon":27.791667},{"id":2787249,"name":"domek","country":"tr","lat":40.065133,"lon":28.049395},{"id":2814384,"name":"maltepe","country":"tr","lat":40.046389,"lon":27.97},{"id":2786758,"name":"dogakoy","country":"tr","lat":40.153958,"lon":28.112837},{"id":2789387,"name":"ergili","country":"tr","lat":40.128889,"lon":28.070556},{"id":2802916,"name":"karadag","country":"tr","lat":39.816667,"lon":27.516667},{"id":2816534,"name":"muradiyesarnic","country":"tr","lat":39.932232,"lon":28.391828},{"id":2812053,"name":"kulakpinar","country":"tr","lat":40.29037,"lon":28.383884},{"id":2812267,"name":"kumkadi","country":"tr","lat":40.15,"lon":28.45},{"id":2785565,"name":"dereciflik","country":"tr","lat":39.566667,"lon":27.8},{"id":2793290,"name":"gorece","country":"tr","lat":39.874385,"lon":28.236511},{"id":2833752,"name":"yazlik","country":"tr","lat":39.783333,"lon":27.566667},{"id":2772600,"name":"ayvatlar","country":"tr","lat":39.710833,"lon":27.985556},{"id":2822682,"name":"sarifaklar","country":"tr","lat":39.6,"lon":28.233333},{"id":2792629,"name":"gokcesucirpan","country":"tr","lat":40.123909,"lon":27.748033},{"id":2792852,"name":"goktepe koyu","country":"tr","lat":39.692121,"lon":27.52917},{"id":2768826,"name":"aliseydi","country":"tr","lat":40.076498,"lon":28.492978},{"id":2812402,"name":"kupeler","country":"tr","lat":39.583333,"lon":27.75},{"id":2824390,"name":"servet","country":"tr","lat":39.713846,"lon":28.118613},{"id":2819765,"name":"pasalar","country":"tr","lat":39.973889,"lon":28.303611},{"id":2816041,"name":"misakca","country":"tr","lat":40.307778,"lon":27.671944},{"id":2800419,"name":"iskele","country":"tr","lat":40.3,"lon":28.45},{"id":2795836,"name":"haciyakup","country":"tr","lat":40.042179,"lon":27.878982},{"id":2803121,"name":"karagoz","country":"tr","lat":39.615027,"lon":28.274328},{"id":2832216,"name":"yagci","country":"tr","lat":39.966667,"lon":28.116667},{"id":2775039,"name":"behram","country":"tr","lat":39.983333,"lon":28.45},{"id":2825951,"name":"sogucak","country":"tr","lat":39.506232,"lon":27.671186},{"id":2780521,"name":"cavuskoy","country":"tr","lat":40.071755,"lon":27.895403},{"id":2779127,"name":"calica","country":"tr","lat":39.983333,"lon":27.75},{"id":2798942,"name":"ibirler","country":"tr","lat":39.763889,"lon":27.948611},{"id":2819762,"name":"pasakoyu","country":"tr","lat":39.553288,"lon":27.981388},{"id":2811188,"name":"koyuneri","country":"tr","lat":39.922911,"lon":27.658788},{"id":2802685,"name":"karacalilikkoyu","country":"tr","lat":40.110725,"lon":28.100383},{"id":2810881,"name":"koseresul","country":"tr","lat":40.166667,"lon":28.066667},{"id":2805544,"name":"kayalarkoy","country":"tr","lat":39.829167,"lon":27.672778},{"id":2789449,"name":"erikli","country":"tr","lat":39.583333,"lon":27.583333},{"id":2796204,"name":"hamamli","country":"tr","lat":40.109906,"lon":27.911252},{"id":2822140,"name":"samli","country":"tr","lat":39.811836,"lon":27.845589},{"id":2772902,"name":"bagalan","country":"tr","lat":39.5,"lon":27.766667},{"id":2835187,"name":"yolagzi","country":"tr","lat":40.130694,"lon":28.316257},{"id":2766962,"name":"akcal","country":"tr","lat":39.601388,"lon":27.559035},{"id":2812311,"name":"kumlu koyu","country":"tr","lat":39.516667,"lon":28.366667},{"id":2809350,"name":"kocaavsar","country":"tr","lat":39.67,"lon":27.615},{"id":2812762,"name":"kurtludugun","country":"tr","lat":39.558557,"lon":27.646762},{"id":2835128,"name":"yogunoluk","country":"tr","lat":39.65,"lon":28.35},{"id":2788975,"name":"eminpinar koyu","country":"tr","lat":39.883333,"lon":28.016667},{"id":2803958,"name":"karapinar","country":"tr","lat":39.964527,"lon":28.319164},{"id":2800433,"name":"iskendere","country":"tr","lat":39.75,"lon":27.766667},{"id":2807919,"name":"kirazkoy","country":"tr","lat":39.6,"lon":27.616667},{"id":2826021,"name":"soguksu","country":"tr","lat":40.010045,"lon":28.048414},{"id":2779823,"name":"candir","country":"tr","lat":39.613611,"lon":28.050833},{"id":2776158,"name":"bezirci","country":"tr","lat":40.285278,"lon":27.826111},{"id":2765841,"name":"adayatak","country":"tr","lat":40.016667,"lon":27.516667},{"id":2813278,"name":"kutludere","country":"tr","lat":40.002992,"lon":27.937366},{"id":2818116,"name":"omerli","country":"tr","lat":40.3125,"lon":28.048333},{"id":2768903,"name":"alona","country":"tr","lat":40.466667,"lon":27.6},{"id":2825899,"name":"soganbuku","country":"tr","lat":39.633333,"lon":27.583333},{"id":2773713,"name":"balikesri","country":"tr","lat":39.649167,"lon":27.886111},{"id":2834031,"name":"yeniceisagir","country":"tr","lat":39.533333,"lon":27.55},{"id":2791767,"name":"gerdeme","country":"tr","lat":40.1,"lon":28.3},{"id":2784326,"name":"danisment","country":"tr","lat":39.869167,"lon":27.633056},{"id":2768039,"name":"alabadin","country":"tr","lat":40.184027,"lon":27.691312},{"id":2772165,"name":"ayaspasa","country":"tr","lat":40.097606,"lon":28.489653},{"id":2811908,"name":"kucuk soguklar","country":"tr","lat":40.183333,"lon":27.816667},{"id":2802585,"name":"karacahisar","country":"tr","lat":39.908846,"lon":27.746184},{"id":2810572,"name":"korpeagac","country":"tr","lat":40.236108,"lon":27.67638},{"id":2791555,"name":"gelgec","country":"tr","lat":40.19825,"lon":27.550867},{"id":2775154,"name":"bektaslar","country":"tr","lat":39.716667,"lon":28.216667},{"id":2776818,"name":"bolceagac","country":"tr","lat":40.079401,"lon":27.965726},{"id":2800780,"name":"kabakli","country":"tr","lat":39.564108,"lon":27.83287},{"id":2826807,"name":"suluklu","country":"tr","lat":39.779618,"lon":27.755088},{"id":2803750,"name":"karamanlar","country":"tr","lat":39.525633,"lon":28.453843},{"id":2780587,"name":"cayagzi","country":"tr","lat":40.488958,"lon":27.973718},{"id":2784660,"name":"dedekasi","country":"tr","lat":39.595817,"lon":28.158172},{"id":2809590,"name":"kocekler","country":"tr","lat":39.551362,"lon":28.327658},{"id":2812663,"name":"kurtdere","country":"tr","lat":39.853816,"lon":27.821871},{"id":2783861,"name":"dada","country":"tr","lat":39.58,"lon":28.36},{"id":2805172,"name":"kavakli","country":"tr","lat":40.033333,"lon":28.366667},{"id":2791011,"name":"furuncuk","country":"tr","lat":39.866667,"lon":27.566667},{"id":2813965,"name":"lutfiye","country":"tr","lat":39.983333,"lon":28.416667},{"id":2806073,"name":"keciderekoy","country":"tr","lat":39.714754,"lon":28.210441},{"id":2816836,"name":"mustecep","country":"tr","lat":39.742353,"lon":27.534489},{"id":2805033,"name":"kavacik","country":"tr","lat":39.675505,"lon":28.49446},{"id":2775990,"name":"beykoyu","country":"tr","lat":40.063889,"lon":28.187222},{"id":2822350,"name":"saraclar","country":"tr","lat":40.115221,"lon":27.752357},{"id":2790070,"name":"eskimezarlik koyu","country":"tr","lat":40.020612,"lon":28.283908},{"id":2809390,"name":"kocaeli","country":"tr","lat":39.626901,"lon":27.551705},{"id":2787460,"name":"duacik","country":"tr","lat":39.597957,"lon":28.198087},{"id":2827659,"name":"tasbasi","country":"tr","lat":39.883333,"lon":27.983333},{"id":2824000,"name":"semiz","country":"tr","lat":39.814801,"lon":27.619134},{"id":2833363,"name":"yaylacayir","country":"tr","lat":39.861349,"lon":28.263716},{"id":2817872,"name":"okcugol","country":"tr","lat":40.065133,"lon":28.166667},{"id":2809321,"name":"kobas","country":"tr","lat":40.03501,"lon":27.904959},{"id":2820179,"name":"peynirkuyusu","country":"tr","lat":39.973611,"lon":27.957222},{"id":2773764,"name":"baliy","country":"tr","lat":39.748611,"lon":27.578889},{"id":2812074,"name":"kulat","country":"tr","lat":39.890278,"lon":28.048056},{"id":2795514,"name":"haciibrahimpinari","country":"tr","lat":39.966667,"lon":27.9},{"id":2803173,"name":"karahalil","country":"tr","lat":39.642413,"lon":28.366894},{"id":2767658,"name":"akpinarciftligi","country":"tr","lat":39.716667,"lon":27.65},{"id":2817256,"name":"necipkoy","country":"tr","lat":39.996097,"lon":27.788927},{"id":2827152,"name":"suve","country":"tr","lat":39.991334,"lon":28.095574},{"id":2787239,"name":"dombaydere","country":"tr","lat":39.55,"lon":28.183333},{"id":2771809,"name":"aticioba","country":"tr","lat":40.066667,"lon":27.55},{"id":2833346,"name":"yaylabasi koyu","country":"tr","lat":39.781667,"lon":28.453889},{"id":2820658,"name":"poyrali","country":"tr","lat":40.247456,"lon":27.842815},{"id":2766947,"name":"akcakoyun","country":"tr","lat":40.259448,"lon":28.364113},{"id":2783197,"name":"comlu","country":"tr","lat":40.222625,"lon":28.095574},{"id":2827275,"name":"tahirova ciftligi","country":"tr","lat":40.281441,"lon":27.592699},{"id":2801303,"name":"kalburcu","country":"tr","lat":39.566667,"lon":28.15},{"id":2811130,"name":"koylu","country":"tr","lat":39.649773,"lon":28.012677},{"id":2801334,"name":"kalebayir","country":"tr","lat":40.090965,"lon":27.885646},{"id":2830437,"name":"tuzakci","country":"tr","lat":40.147572,"lon":27.668039},{"id":2822368,"name":"sarac","country":"tr","lat":39.675388,"lon":28.073477},{"id":2834932,"name":"yigitler","country":"tr","lat":40.496944,"lon":27.523333},{"id":2786904,"name":"doganlar","country":"tr","lat":39.782222,"lon":27.510556},{"id":2806316,"name":"kelesen","country":"tr","lat":40.15,"lon":28.183333},{"id":2785199,"name":"demireli","country":"tr","lat":40.040833,"lon":28.4725},{"id":2797364,"name":"havutca","country":"tr","lat":40.270798,"lon":27.667572},{"id":2779102,"name":"caldere","country":"tr","lat":39.539677,"lon":28.185057},{"id":2802692,"name":"karacalti","country":"tr","lat":39.657778,"lon":28.174444},{"id":2827881,"name":"taslik","country":"tr","lat":40.243547,"lon":28.376201},{"id":2773450,"name":"bakirkoy","country":"tr","lat":40.166111,"lon":28.396944},{"id":2830477,"name":"tuzla","country":"tr","lat":40.461297,"lon":27.661265},{"id":2834642,"name":"yesildere","country":"tr","lat":40.3,"lon":28.183333},{"id":2768608,"name":"alibeykoyu","country":"tr","lat":39.871198,"lon":28.049395},{"id":2789367,"name":"ergama","country":"tr","lat":39.626628,"lon":27.638668},{"id":2830416,"name":"tutunluk koyu","country":"tr","lat":39.9,"lon":28.233333},{"id":2782245,"name":"cigmis","country":"tr","lat":40.158326,"lon":27.56235},{"id":2776717,"name":"bogaz koy","country":"tr","lat":40.083333,"lon":28.133333},{"id":2810950,"name":"kosova","country":"tr","lat":40.01314,"lon":28.259744},{"id":2786148,"name":"deydin","country":"tr","lat":40.120367,"lon":27.852544},{"id":2773391,"name":"bakacak","country":"tr","lat":39.66,"lon":27.73},{"id":2805692,"name":"kayikci","country":"tr","lat":39.923136,"lon":28.18095},{"id":2789595,"name":"ertugrul","country":"tr","lat":39.57578,"lon":27.70672},{"id":2795500,"name":"hacihuseyin","country":"tr","lat":39.683333,"lon":27.65},{"id":2813956,"name":"luleciler","country":"tr","lat":39.866667,"lon":27.533333},{"id":2799028,"name":"iclaliye","country":"tr","lat":39.966667,"lon":28.066667},{"id":2781187,"name":"celtikci","country":"tr","lat":40.399769,"lon":27.863198},{"id":2773239,"name":"bahcedere","country":"tr","lat":39.55461,"lon":27.7037},{"id":2789659,"name":"eseler","country":"tr","lat":39.730556,"lon":28.085833},{"id":2813252,"name":"kuteyli","country":"tr","lat":40.173374,"lon":27.755551},{"id":2799428,"name":"ilicak","country":"tr","lat":40.176944,"lon":27.7875},{"id":2834754,"name":"yesilova","country":"tr","lat":39.888056,"lon":27.974444},{"id":2816525,"name":"muradiye","country":"tr","lat":40.042736,"lon":28.100303},{"id":2789759,"name":"esenli","country":"tr","lat":39.546308,"lon":28.051314},{"id":2773159,"name":"bahariye","country":"tr","lat":39.941576,"lon":28.421337},{"id":2803085,"name":"karagedik","country":"tr","lat":39.630556,"lon":27.801389},{"id":2797043,"name":"hasanlar","country":"tr","lat":39.616343,"lon":28.436154},{"id":2814958,"name":"mehmetler","country":"tr","lat":39.7,"lon":28.25},{"id":2825972,"name":"sogucuk","country":"tr","lat":39.817225,"lon":28.459573},{"id":2826057,"name":"sogutcayir","country":"tr","lat":39.886389,"lon":28.101111},{"id":2832355,"name":"yahyakoy","country":"tr","lat":39.995689,"lon":28.178145},{"id":2796229,"name":"hamdiye","country":"tr","lat":39.966667,"lon":28.433333},{"id":2782562,"name":"cinarpinar koy","country":"tr","lat":40.085,"lon":27.566667},{"id":2793525,"name":"gozlucayir","country":"tr","lat":39.516667,"lon":27.55},{"id":2794262,"name":"gundogdu","country":"tr","lat":40.170483,"lon":27.630717},{"id":2817685,"name":"odaliada","country":"tr","lat":39.8,"lon":28.0},{"id":2766718,"name":"akbaslar","country":"tr","lat":39.578889,"lon":28.451111},{"id":2798088,"name":"hisaralti","country":"tr","lat":39.983333,"lon":28.466667},{"id":2808015,"name":"kirec","country":"tr","lat":39.534722,"lon":28.359444},{"id":2818109,"name":"omerler","country":"tr","lat":40.016667,"lon":27.766667},{"id":2833020,"name":"yarisalani","country":"tr","lat":39.935935,"lon":27.789924},{"id":2803541,"name":"karakoy","country":"tr","lat":39.866667,"lon":28.183333},{"id":2787873,"name":"dutliman","country":"tr","lat":40.375278,"lon":28.054444},{"id":2780021,"name":"carik","country":"tr","lat":40.264123,"lon":27.834952},{"id":2795312,"name":"haciahmetpinari","country":"tr","lat":39.619088,"lon":28.496389},{"id":2825860,"name":"sofular","country":"tr","lat":39.57362,"lon":27.623851},{"id":2831116,"name":"umitli","country":"tr","lat":40.041202,"lon":28.156356},{"id":2822819,"name":"sarikoy","country":"tr","lat":40.2075,"lon":27.596111},{"id":2772562,"name":"ayvali","country":"tr","lat":39.933333,"lon":27.566667},{"id":2789407,"name":"ericek","country":"tr","lat":39.676944,"lon":28.437222},{"id":2766704,"name":"akbas","country":"tr","lat":39.656476,"lon":27.527089},{"id":2796956,"name":"hasanbey","country":"tr","lat":40.129016,"lon":27.642275},{"id":2822021,"name":"salur","country":"tr","lat":40.095606,"lon":27.935183},{"id":2812272,"name":"kumkoy","country":"tr","lat":40.054586,"lon":27.551756},{"id":2795831,"name":"hacivelioba","country":"tr","lat":40.048309,"lon":27.65},{"id":2794570,"name":"gungormez","country":"tr","lat":40.313499,"lon":28.351156},{"id":2795754,"name":"haciosman","country":"tr","lat":39.995822,"lon":27.812735},{"id":2826788,"name":"sulucek","country":"tr","lat":39.849336,"lon":28.168182},{"id":2821586,"name":"sahmelek","country":"tr","lat":40.328889,"lon":28.243056},{"id":2800184,"name":"irvane","country":"tr","lat":39.683333,"lon":28.033889},{"id":2806398,"name":"keltas","country":"tr","lat":40.013619,"lon":28.453405},{"id":2783990,"name":"dagkadi","country":"tr","lat":40.260278,"lon":28.194722},{"id":2792273,"name":"gobel","country":"tr","lat":40.019722,"lon":28.145556},{"id":2814882,"name":"medrese koy","country":"tr","lat":39.673605,"lon":27.559729},{"id":2788570,"name":"eksidere","country":"tr","lat":40.046169,"lon":27.582639},{"id":2826716,"name":"sultan cayiry","country":"tr","lat":39.864794,"lon":28.153932},{"id":2789286,"name":"erecek","country":"tr","lat":39.933333,"lon":27.9},{"id":2807710,"name":"kinalar","country":"tr","lat":40.27268,"lon":27.528014},{"id":2831191,"name":"uncukiri","country":"tr","lat":39.612222,"lon":28.106667},{"id":2775764,"name":"bespinar","country":"tr","lat":39.5,"lon":27.81},{"id":2778702,"name":"cagis","country":"tr","lat":39.518805,"lon":28.012242},{"id":2819098,"name":"ovabayindir","country":"tr","lat":39.559987,"lon":28.077885},{"id":2832960,"name":"yaren","country":"tr","lat":39.55,"lon":27.616667},{"id":2778453,"name":"buyuksoguklar","country":"tr","lat":40.199075,"lon":27.821755},{"id":2808364,"name":"kirnekoy","country":"tr","lat":39.74511,"lon":27.852775},{"id":2800760,"name":"kabakderekoy","country":"tr","lat":39.687958,"lon":27.829927},{"id":2779545,"name":"camli","country":"tr","lat":40.05073,"lon":28.070332},{"id":2803510,"name":"karakol","country":"tr","lat":39.758056,"lon":27.889722},{"id":2781925,"name":"cibmurtepecik","country":"tr","lat":39.565,"lon":27.936944},{"id":2796123,"name":"halkapinar","country":"tr","lat":39.8,"lon":27.9},{"id":2787009,"name":"dogruca","country":"tr","lat":40.27684,"lon":28.028713},{"id":2803325,"name":"karakabaagac","country":"tr","lat":39.966667,"lon":27.85},{"id":2768131,"name":"alacaoluk","country":"tr","lat":40.098077,"lon":27.515973},{"id":2808684,"name":"kizik","country":"tr","lat":40.051041,"lon":27.936341},{"id":2770093,"name":"arnavutkoy","country":"tr","lat":40.416667,"lon":27.783333},{"id":2781924,"name":"cibmur","country":"tr","lat":39.55,"lon":27.95},{"id":2790065,"name":"eskimanyas","country":"tr","lat":39.983333,"lon":28.05},{"id":2793254,"name":"gonen","country":"tr","lat":40.104901,"lon":27.653991},{"id":2780465,"name":"cavlu","country":"tr","lat":39.535351,"lon":27.634916},{"id":2785189,"name":"demirdere koyu","country":"tr","lat":40.005124,"lon":28.349319},{"id":2782738,"name":"cirkincavus","country":"tr","lat":40.303932,"lon":27.711101},{"id":2768048,"name":"alabarda","country":"tr","lat":39.5,"lon":28.233333},{"id":2831351,"name":"uskupya","country":"tr","lat":40.462891,"lon":27.625854},{"id":2772047,"name":"avrenkoyu","country":"tr","lat":39.966667,"lon":27.95},{"id":2802003,"name":"kapakli","country":"tr","lat":40.0,"lon":27.983333},{"id":2785056,"name":"deliyusuflar","country":"tr","lat":39.778889,"lon":27.790833},{"id":2784762,"name":"degirmenbogazi","country":"tr","lat":39.98,"lon":27.85},{"id":2786812,"name":"doganci","country":"tr","lat":40.066667,"lon":27.8},{"id":2801526,"name":"kalfakoy","country":"tr","lat":39.889462,"lon":28.238197},{"id":2805555,"name":"kayaliderekoy","country":"tr","lat":39.812428,"lon":28.034168},{"id":2806927,"name":"keslik","country":"tr","lat":40.272966,"lon":28.266667},{"id":2833027,"name":"yaris","country":"tr","lat":40.303958,"lon":28.37203},{"id":2831009,"name":"ulukir","country":"tr","lat":40.239766,"lon":27.626033},{"id":2800190,"name":"isaalan","country":"tr","lat":39.705902,"lon":28.313522},{"id":2804106,"name":"karasu","country":"tr","lat":40.25057,"lon":28.285248},{"id":2794457,"name":"guney","country":"tr","lat":39.533333,"lon":28.4},{"id":2826675,"name":"suleymanli","country":"tr","lat":40.042699,"lon":27.838205},{"id":2826914,"name":"sunluk","country":"tr","lat":39.94614,"lon":28.368036},{"id":2809671,"name":"kocoglu","country":"tr","lat":39.957169,"lon":27.88358},{"id":2805746,"name":"kaymakamciftligi koy","country":"tr","lat":39.599546,"lon":28.09319},{"id":2783587,"name":"cukurhuseyin","country":"tr","lat":39.55,"lon":27.75},{"id":2778549,"name":"buzagilik","country":"tr","lat":39.894811,"lon":28.165107},{"id":2818353,"name":"orenli","country":"tr","lat":39.802213,"lon":28.291999},{"id":2823524,"name":"seckoy","country":"tr","lat":39.765305,"lon":28.395006},{"id":2800965,"name":"kadikiri","country":"tr","lat":39.866667,"lon":28.116667},{"id":2768400,"name":"alasar","country":"tr","lat":40.056374,"lon":27.774993},{"id":2795281,"name":"hacetpinari","country":"tr","lat":40.232697,"lon":28.252849},{"id":2797471,"name":"hayirlar","country":"tr","lat":40.289689,"lon":28.447276},{"id":2775988,"name":"beykoyu","country":"tr","lat":39.673704,"lon":28.215759},{"id":2826620,"name":"suleler","country":"tr","lat":39.7,"lon":28.483333},{"id":2803917,"name":"karaorman","country":"tr","lat":39.966667,"lon":28.45},{"id":2821249,"name":"sable","country":"tr","lat":39.783333,"lon":28.216667},{"id":2776669,"name":"bogaz","country":"tr","lat":39.85503,"lon":27.860407},{"id":2800177,"name":"irsadiye","country":"tr","lat":39.95,"lon":28.020556},{"id":2834524,"name":"yeniziraatli","country":"tr","lat":40.297778,"lon":28.0775},{"id":2817924,"name":"okof","country":"tr","lat":39.55,"lon":28.066667},{"id":2780902,"name":"caypinar","country":"tr","lat":39.802221,"lon":27.966708},{"id":2810030,"name":"komurcukadi","country":"tr","lat":39.933333,"lon":28.45},{"id":2804481,"name":"karincali","country":"tr","lat":39.919195,"lon":27.966436},{"id":2787673,"name":"durak","country":"tr","lat":39.706583,"lon":28.271757},{"id":2813978,"name":"macarlar","country":"tr","lat":39.533333,"lon":27.833333},{"id":2819811,"name":"pasha liman","country":"tr","lat":40.489224,"lon":27.607736},{"id":2773617,"name":"balci","country":"tr","lat":40.05,"lon":27.6},{"id":2790141,"name":"eskiziraatli","country":"tr","lat":40.299319,"lon":28.076353},{"id":2775046,"name":"behramkoy","country":"tr","lat":40.000556,"lon":28.440556},{"id":2768680,"name":"alidemirci","country":"tr","lat":39.713611,"lon":27.679444},{"id":2803361,"name":"karakavak","country":"tr","lat":39.533333,"lon":27.8},{"id":2802172,"name":"karaagacalani","country":"tr","lat":40.083449,"lon":27.6},{"id":2767810,"name":"aktarma","country":"tr","lat":39.7,"lon":27.766667},{"id":2834562,"name":"yeroluk","country":"tr","lat":39.9,"lon":27.9},{"id":2779445,"name":"camilioba","country":"tr","lat":39.911795,"lon":27.857416},{"id":2807866,"name":"kiranli","country":"tr","lat":40.266667,"lon":28.333333},{"id":2822627,"name":"saricayir","country":"tr","lat":39.581032,"lon":28.200326},{"id":2809397,"name":"kocagol","country":"tr","lat":40.155556,"lon":27.843056},{"id":2805406,"name":"kayaca","country":"tr","lat":40.07161,"lon":27.96405},{"id":2819647,"name":"panormus","country":"tr","lat":40.352222,"lon":27.976667},{"id":2822312,"name":"sapci","country":"tr","lat":39.916667,"lon":28.45},{"id":2790871,"name":"findikli","country":"tr","lat":39.961944,"lon":27.538056},{"id":2801686,"name":"kamcili","country":"tr","lat":39.816667,"lon":27.916667},{"id":2835044,"name":"yildizkoy","country":"tr","lat":39.798754,"lon":28.181371},{"id":2805610,"name":"kayapinar","country":"tr","lat":39.828889,"lon":27.596389},{"id":2812046,"name":"kulak","country":"tr","lat":40.060928,"lon":27.991659},{"id":2785665,"name":"dereikebir","country":"tr","lat":39.95,"lon":28.2},{"id":2778426,"name":"buyukpinar","country":"tr","lat":39.789692,"lon":27.6937},{"id":2785972,"name":"dervisbey","country":"tr","lat":39.95,"lon":28.1},{"id":2782595,"name":"cinge","country":"tr","lat":40.302081,"lon":27.870136},{"id":2795978,"name":"halalcalar","country":"tr","lat":39.634444,"lon":27.939444},{"id":2819149,"name":"ovaesemen","country":"tr","lat":40.083333,"lon":28.2},{"id":2793266,"name":"gonu","country":"tr","lat":40.116667,"lon":28.283333},{"id":2785231,"name":"demirkapu","country":"tr","lat":39.809444,"lon":28.086944},{"id":2790100,"name":"eskisaribey","country":"tr","lat":40.133333,"lon":28.233333},{"id":2784997,"name":"deliklitas","country":"tr","lat":39.746131,"lon":27.757805},{"id":2773743,"name":"baliklidere","country":"tr","lat":39.955314,"lon":28.158082},{"id":2778910,"name":"cakirci","country":"tr","lat":40.063703,"lon":27.848265},{"id":2778302,"name":"buyukkatranci","country":"tr","lat":39.75227,"lon":28.452043},{"id":2817587,"name":"nusret","country":"tr","lat":39.616788,"lon":28.157751},{"id":2819620,"name":"panayirdere","country":"tr","lat":40.378333,"lon":28.390278},{"id":2777663,"name":"bukdere","country":"tr","lat":39.772484,"lon":28.360227},{"id":2811019,"name":"koteyli","country":"tr","lat":39.716667,"lon":27.933333},{"id":2833354,"name":"yaylabayir koyu","country":"tr","lat":39.841111,"lon":27.966667},{"id":2831575,"name":"uzuncinar","country":"tr","lat":39.85,"lon":27.6},{"id":2775936,"name":"beyendikler","country":"tr","lat":39.5,"lon":28.2},{"id":2789241,"name":"erdel","country":"tr","lat":39.543594,"lon":27.601182},{"id":2798600,"name":"hotaslar","country":"tr","lat":39.649167,"lon":28.095556},{"id":2795316,"name":"haciali ciftligi","country":"tr","lat":40.3,"lon":27.766667},{"id":2794700,"name":"gurcubabayaka","country":"tr","lat":40.133333,"lon":27.6},{"id":2834226,"name":"yenikavak","country":"tr","lat":39.898332,"lon":27.843289},{"id":2782034,"name":"ciftcidere","country":"tr","lat":39.508395,"lon":27.771518},{"id":2775872,"name":"beyce","country":"tr","lat":39.644855,"lon":28.409101},{"id":2778799,"name":"cakallar","country":"tr","lat":39.718039,"lon":27.564817},{"id":2817644,"name":"ocakli","country":"tr","lat":40.048638,"lon":28.293417},{"id":2792742,"name":"gokkoy","country":"tr","lat":39.610484,"lon":27.816667},{"id":2790452,"name":"eyyubbuku","country":"tr","lat":39.65,"lon":28.233333},{"id":2793167,"name":"golyaka","country":"tr","lat":40.184489,"lon":27.871061},{"id":2780729,"name":"cayirhisar","country":"tr","lat":39.598165,"lon":27.897225},{"id":2830711,"name":"ucpinar","country":"tr","lat":39.681791,"lon":27.903392},{"id":2787396,"name":"dorumbey","country":"tr","lat":40.077604,"lon":28.241223},{"id":2786947,"name":"doganpinar","country":"tr","lat":40.297225,"lon":27.895837},{"id":2785702,"name":"derekoy","country":"tr","lat":39.863333,"lon":27.505},{"id":2778844,"name":"cakilkoy","country":"tr","lat":40.33976,"lon":28.127636},{"id":2811717,"name":"kucukkaraagac","country":"tr","lat":40.176353,"lon":28.258512},{"id":2767077,"name":"akcasusurluk","country":"tr","lat":40.294167,"lon":28.428841},{"id":2771827,"name":"atkoy","country":"tr","lat":39.566667,"lon":27.966667},{"id":2803832,"name":"karamustafa","country":"tr","lat":39.825455,"lon":27.514817},{"id":2783778,"name":"cumhuriyet","country":"tr","lat":40.012244,"lon":27.972911},{"id":2772508,"name":"aysebaci","country":"tr","lat":39.681667,"lon":27.946667},{"id":2788246,"name":"eftalye","country":"tr","lat":39.5,"lon":27.9},{"id":2766625,"name":"aidinjk","country":"tr","lat":40.342292,"lon":27.861286},{"id":2809515,"name":"kocapinarkoyu","country":"tr","lat":39.969689,"lon":27.716017},{"id":2820899,"name":"recepkoy","country":"tr","lat":39.717575,"lon":28.142866},{"id":2780027,"name":"carikkoy","country":"tr","lat":40.282198,"lon":28.414527},{"id":2787552,"name":"duman","country":"tr","lat":39.916667,"lon":28.083333},{"id":2771658,"name":"aslihantepecigi","country":"tr","lat":39.581063,"lon":28.0238},{"id":2822523,"name":"sarialan","country":"tr","lat":39.590055,"lon":27.656029},{"id":2814449,"name":"mamun","country":"tr","lat":40.356841,"lon":27.933026},{"id":2824486,"name":"sevketiye","country":"tr","lat":40.093472,"lon":27.846668},{"id":2779350,"name":"cambaz","country":"tr","lat":40.019599,"lon":27.603545},{"id":2807922,"name":"kirazli","country":"tr","lat":40.195233,"lon":28.114624},{"id":2815691,"name":"mezitler","country":"tr","lat":39.536829,"lon":28.278902},{"id":2782918,"name":"cobanhamidiye","country":"tr","lat":40.016667,"lon":27.7},{"id":2781376,"name":"cepni","country":"tr","lat":40.233333,"lon":27.880556},{"id":2799462,"name":"ilicaoba","country":"tr","lat":40.096169,"lon":27.755724},{"id":2773454,"name":"bakirli","country":"tr","lat":40.097123,"lon":27.625513},{"id":2819728,"name":"pasaciftligi","country":"tr","lat":40.238611,"lon":27.745},{"id":2794182,"name":"gunaydin","country":"tr","lat":39.966667,"lon":28.083333},{"id":2795674,"name":"hacimentes","country":"tr","lat":40.158788,"lon":27.765279},{"id":2784576,"name":"dayama","country":"tr","lat":39.89121,"lon":28.496284},{"id":2818493,"name":"ormankadi","country":"tr","lat":40.14773,"lon":28.451816},{"id":2830445,"name":"tuzak","country":"tr","lat":39.716948,"lon":28.362711},{"id":2810637,"name":"korucaoluk","country":"tr","lat":39.927715,"lon":28.059176},{"id":2828361,"name":"tekekoy","country":"tr","lat":39.7,"lon":28.166667},{"id":2787588,"name":"dumbelez","country":"tr","lat":39.967875,"lon":28.016497},{"id":2826138,"name":"sogut","country":"tr","lat":39.95,"lon":27.566667},{"id":2832734,"name":"yamanli","country":"tr","lat":40.101362,"lon":28.43827},{"id":2834246,"name":"yeni kioi","country":"tr","lat":40.394607,"lon":27.900678},{"id":2820066,"name":"perema","country":"tr","lat":40.441944,"lon":28.00087},{"id":2805356,"name":"kayabasi","country":"tr","lat":39.988781,"lon":28.373573},{"id":2806631,"name":"kepsit","country":"tr","lat":39.688889,"lon":28.152222},{"id":2830707,"name":"ucpinarkoyu","country":"tr","lat":40.037033,"lon":27.671524},{"id":2809074,"name":"kizilkoy","country":"tr","lat":40.119919,"lon":27.987756},{"id":2818441,"name":"orhanlar","country":"tr","lat":39.911535,"lon":27.617768},{"id":2791169,"name":"gaybular","country":"tr","lat":40.034039,"lon":27.523401},{"id":2811962,"name":"kucukyenice","country":"tr","lat":39.533333,"lon":27.533333},{"id":2780265,"name":"catallarciftligi","country":"tr","lat":40.083333,"lon":28.25},{"id":2765782,"name":"adakoy","country":"tr","lat":40.021488,"lon":28.21818},{"id":2766661,"name":"akarca","country":"tr","lat":39.939167,"lon":28.419444},{"id":2806571,"name":"kepekli","country":"tr","lat":40.273611,"lon":27.503556},{"id":2824188,"name":"serceoren","country":"tr","lat":39.824444,"lon":28.303611},{"id":2827801,"name":"taskopru koyu","country":"tr","lat":39.983333,"lon":28.233333},{"id":2791183,"name":"gazelliderekoyu","country":"tr","lat":39.542276,"lon":28.466738},{"id":2776755,"name":"bogazpinar","country":"tr","lat":40.0,"lon":28.0},{"id":2783544,"name":"cukurcuk","country":"tr","lat":39.8,"lon":27.566667},{"id":2820666,"name":"poyrazli","country":"tr","lat":40.494549,"lon":27.635454},{"id":2805417,"name":"kayacik","country":"tr","lat":40.346667,"lon":28.006389},{"id":2790629,"name":"fazlikonagi","country":"tr","lat":40.340693,"lon":28.430513},{"id":2790738,"name":"fethiye","country":"tr","lat":39.75,"lon":27.9},{"id":2826407,"name":"soyran","country":"tr","lat":40.262127,"lon":28.470753},{"id":2810982,"name":"kosubogazi","country":"tr","lat":40.05,"lon":28.25},{"id":2803954,"name":"karapinar","country":"tr","lat":39.5,"lon":27.633333},{"id":2834076,"name":"yenice","country":"tr","lat":39.57927,"lon":28.082171},{"id":2814137,"name":"mahbubeler","country":"tr","lat":40.292696,"lon":28.119731},{"id":2777002,"name":"bostanci","country":"tr","lat":40.214167,"lon":27.6925},{"id":2784155,"name":"dallimezarlik","country":"tr","lat":39.95,"lon":28.35},{"id":2766903,"name":"akcakertil","country":"tr","lat":39.547503,"lon":28.235376},{"id":2823490,"name":"sebebli","country":"tr","lat":39.95,"lon":27.65},{"id":2804561,"name":"karlikkoy","country":"tr","lat":39.909444,"lon":27.740278},{"id":2794380,"name":"gunesli","country":"tr","lat":40.050115,"lon":27.628129},{"id":2805127,"name":"kavakkoy","country":"tr","lat":40.218889,"lon":27.770556},{"id":2799937,"name":"incirlioba","country":"tr","lat":40.097658,"lon":27.546878},{"id":2800407,"name":"iskan","country":"tr","lat":39.516667,"lon":27.8},{"id":2768083,"name":"alacabayir koy","country":"tr","lat":39.88,"lon":27.93},{"id":2781189,"name":"celtikci","country":"tr","lat":40.060917,"lon":28.230286}]});