callback({"markets":[{"id":1996573,"name":"ikei","country":"ng","lat":4.314722,"lon":6.368333},{"id":2011450,"name":"opuatobo","country":"ng","lat":4.369341,"lon":5.965027},{"id":1989110,"name":"ebekiri","country":"ng","lat":4.416111,"lon":6.311111},{"id":1991745,"name":"ganigbene","country":"ng","lat":4.389982,"lon":5.859786},{"id":2002288,"name":"kulaingbene","country":"ng","lat":4.426186,"lon":5.848716},{"id":2016676,"name":"tuimpeigagbene","country":"ng","lat":4.408004,"lon":5.85394},{"id":1995082,"name":"hitlergbene","country":"ng","lat":4.44517,"lon":5.890268},{"id":1978532,"name":"abalagiagbene","country":"ng","lat":4.477469,"lon":5.878717},{"id":2012772,"name":"portharcourtgbene","country":"ng","lat":4.455437,"lon":5.950268},{"id":2003988,"name":"logogbene","country":"ng","lat":4.403458,"lon":5.920749},{"id":1986623,"name":"captninakiri","country":"ng","lat":4.426269,"lon":6.303882},{"id":2017508,"name":"twon","country":"ng","lat":4.3,"lon":6.233333},{"id":2011729,"name":"orukulu","country":"ng","lat":4.316667,"lon":6.133333},{"id":2007544,"name":"ngukulagbene","country":"ng","lat":4.467416,"lon":5.925669},{"id":1978467,"name":"abadikiri","country":"ng","lat":4.39287,"lon":5.85631},{"id":1986000,"name":"botokiri","country":"ng","lat":4.469444,"lon":6.486111},{"id":2003891,"name":"liama","country":"ng","lat":4.286446,"lon":6.175545},{"id":2001718,"name":"konga","country":"ng","lat":4.335833,"lon":6.054722},{"id":1991220,"name":"fumutorutu","country":"ng","lat":4.477469,"lon":5.969733},{"id":2008480,"name":"obogoro","country":"ng","lat":4.375419,"lon":5.956293},{"id":1995958,"name":"igbelebiekiri","country":"ng","lat":4.371801,"lon":5.984706},{"id":1986590,"name":"bwama","country":"ng","lat":4.330833,"lon":6.048056},{"id":1989625,"name":"ekanakiri","country":"ng","lat":4.433004,"lon":6.318402},{"id":1991520,"name":"galubakiri","country":"ng","lat":4.475556,"lon":6.25},{"id":2010382,"name":"okunbiri","country":"ng","lat":4.304444,"lon":6.025833},{"id":1984015,"name":"babatoriagbene","country":"ng","lat":4.48164,"lon":5.745668},{"id":1980773,"name":"akaragbene","country":"ng","lat":4.440143,"lon":5.984064},{"id":2016083,"name":"tomkiri","country":"ng","lat":4.383333,"lon":6.266667},{"id":1994072,"name":"guaragbene","country":"ng","lat":4.429875,"lon":5.981604},{"id":1993659,"name":"ginegbene","country":"ng","lat":4.460036,"lon":5.910161},{"id":1982287,"name":"angaghakiri","country":"ng","lat":4.433333,"lon":6.3},{"id":1992426,"name":"gbelegbene","country":"ng","lat":4.410571,"lon":5.855668},{"id":1996435,"name":"ijawkiri","country":"ng","lat":4.474722,"lon":6.263056},{"id":2012712,"name":"pisegbene","country":"ng","lat":4.483174,"lon":5.921334},{"id":1983567,"name":"awazakiri","country":"ng","lat":4.415954,"lon":6.3097},{"id":1991226,"name":"fununu","country":"ng","lat":4.317222,"lon":6.103056},{"id":2016020,"name":"tlajekiri","country":"ng","lat":4.2975,"lon":6.283889},{"id":2011440,"name":"opourubou","country":"ng","lat":4.363491,"lon":6.247216},{"id":2000020,"name":"kakaingbene","country":"ng","lat":4.44025,"lon":5.988663},{"id":1980694,"name":"akabaleu","country":"ng","lat":4.329444,"lon":6.392668},{"id":1980787,"name":"akassa","country":"ng","lat":4.323356,"lon":6.066423},{"id":2006695,"name":"munighakiri","country":"ng","lat":4.431111,"lon":6.330278},{"id":2016690,"name":"tukugbene","country":"ng","lat":4.423405,"lon":5.845668},{"id":2000231,"name":"kamborra","country":"ng","lat":4.484617,"lon":5.910892},{"id":2020456,"name":"warri","country":"ng","lat":4.3,"lon":6.25},{"id":1989532,"name":"egwema pogu","country":"ng","lat":4.304797,"lon":6.190261},{"id":1990606,"name":"ewelsuo","country":"ng","lat":4.468611,"lon":6.271389},{"id":2011446,"name":"opu akassa","country":"ng","lat":4.283889,"lon":6.084722},{"id":1986037,"name":"brass","country":"ng","lat":4.315057,"lon":6.241756},{"id":2011235,"name":"oni","country":"ng","lat":4.466667,"lon":6.266667},{"id":2008760,"name":"odioma","country":"ng","lat":4.329098,"lon":6.43082},{"id":2002001,"name":"kpongbokiri","country":"ng","lat":4.40108,"lon":6.281053},{"id":1989531,"name":"egwema","country":"ng","lat":4.283333,"lon":6.183333},{"id":1993867,"name":"gold coast","country":"ng","lat":4.42118,"lon":6.330744},{"id":2006233,"name":"minibio","country":"ng","lat":4.30629,"lon":6.053733},{"id":1989465,"name":"egeregere","country":"ng","lat":4.312523,"lon":6.157979},{"id":2016548,"name":"tubokoroya","country":"ng","lat":4.438646,"lon":5.862567},{"id":2006232,"name":"minibeleu","country":"ng","lat":4.314722,"lon":6.0625},{"id":2000124,"name":"kalaragbene","country":"ng","lat":4.466453,"lon":5.822246},{"id":2011875,"name":"osugbene","country":"ng","lat":4.398752,"lon":5.969733},{"id":2012635,"name":"pepegbene","country":"ng","lat":4.480357,"lon":5.747487},{"id":2015991,"name":"tipama","country":"ng","lat":4.409127,"lon":5.90107},{"id":2001042,"name":"keleigbene","country":"ng","lat":4.412496,"lon":5.873387},{"id":1978844,"name":"abolikiri","country":"ng","lat":4.492576,"lon":6.340269},{"id":1985413,"name":"beyentorugbene","country":"ng","lat":4.47902,"lon":5.752139},{"id":1979640,"name":"aganatoku","country":"ng","lat":4.452543,"lon":6.275641},{"id":1990297,"name":"ereweibio","country":"ng","lat":4.329171,"lon":6.033522},{"id":1988256,"name":"diema","country":"ng","lat":4.303967,"lon":6.331101},{"id":2020320,"name":"walterkiri","country":"ng","lat":4.417867,"lon":6.263427},{"id":1989458,"name":"egelefie","country":"ng","lat":4.313333,"lon":6.172222},{"id":2017507,"name":"twonkubu","country":"ng","lat":4.326389,"lon":6.249722},{"id":2014073,"name":"sangana","country":"ng","lat":4.322531,"lon":5.982798},{"id":2015099,"name":"sonotubogbene","country":"ng","lat":4.48549,"lon":5.951123},{"id":1990625,"name":"ewoama","country":"ng","lat":4.311389,"lon":6.277222},{"id":2001853,"name":"korugbaba","country":"ng","lat":4.35786,"lon":6.26724},{"id":1989126,"name":"ebidorgbene","country":"ng","lat":4.457736,"lon":5.796096},{"id":1990295,"name":"erereghakiri","country":"ng","lat":4.362778,"lon":6.385833},{"id":2000453,"name":"karabapogu","country":"ng","lat":4.3,"lon":6.316667},{"id":2010619,"name":"olobia","country":"ng","lat":4.426363,"lon":5.826381},{"id":1995877,"name":"igbabele","country":"ng","lat":4.316667,"lon":6.216667},{"id":2016732,"name":"tuluama","country":"ng","lat":4.311662,"lon":6.171781},{"id":1985271,"name":"belatiwa","country":"ng","lat":4.287431,"lon":6.200236},{"id":2006444,"name":"monikiri","country":"ng","lat":4.402939,"lon":6.304612},{"id":2011972,"name":"otokolopiri","country":"ng","lat":4.333049,"lon":6.376376},{"id":2016677,"name":"tuinpega","country":"ng","lat":4.415918,"lon":5.899251},{"id":2011331,"name":"onungopogi","country":"ng","lat":4.416944,"lon":6.295},{"id":1985623,"name":"biriseyegbene","country":"ng","lat":4.463351,"lon":5.82},{"id":2000742,"name":"katagbene","country":"ng","lat":4.399234,"lon":5.870535},{"id":2010558,"name":"old-foniweitoro","country":"ng","lat":4.403298,"lon":5.848235},{"id":2014036,"name":"samsonkiri","country":"ng","lat":4.416667,"lon":6.3},{"id":1989987,"name":"elepa","country":"ng","lat":4.416667,"lon":6.2},{"id":2010361,"name":"okumbiribelo","country":"ng","lat":4.291944,"lon":6.061944},{"id":2002494,"name":"kunupogu","country":"ng","lat":4.303333,"lon":6.276111},{"id":2002297,"name":"kulama ii","country":"ng","lat":4.428966,"lon":5.828823},{"id":2000137,"name":"kalebilema","country":"ng","lat":4.472147,"lon":6.35856},{"id":2011436,"name":"oporopogbene","country":"ng","lat":4.481709,"lon":5.919476},{"id":2010242,"name":"okpoma","country":"ng","lat":4.303213,"lon":6.292511},{"id":2012645,"name":"perewarigbene","country":"ng","lat":4.447736,"lon":5.893797},{"id":2011725,"name":"orukiri","country":"ng","lat":4.421111,"lon":6.253333},{"id":2000407,"name":"kanuskiri","country":"ng","lat":4.353889,"lon":6.262222},{"id":2012048,"name":"otuofor","country":"ng","lat":4.362924,"lon":5.980642},{"id":2002298,"name":"kulama","country":"ng","lat":4.472763,"lon":5.775865},{"id":1979718,"name":"agbalamabugokiri","country":"ng","lat":4.415683,"lon":6.441195},{"id":2005873,"name":"mbasikiri","country":"ng","lat":4.466818,"lon":6.254071},{"id":1982292,"name":"angalakubosei","country":"ng","lat":4.418333,"lon":6.265278},{"id":2015791,"name":"tebitabator","country":"ng","lat":4.479771,"lon":5.915601},{"id":1990933,"name":"fantuo","country":"ng","lat":4.37822,"lon":6.321534},{"id":2020230,"name":"wagetie","country":"ng","lat":4.318056,"lon":6.134722},{"id":2000158,"name":"kallah","country":"ng","lat":4.386048,"lon":6.245172},{"id":2010236,"name":"okpokiri","country":"ng","lat":4.4,"lon":6.266667},{"id":2001298,"name":"kinkiamabugo","country":"ng","lat":4.445278,"lon":6.344444},{"id":2010575,"name":"old mission","country":"ng","lat":4.302823,"lon":6.235369},{"id":2001348,"name":"kirikakiri","country":"ng","lat":4.335076,"lon":6.252847},{"id":1988295,"name":"dikimatubu","country":"ng","lat":4.3,"lon":6.283333}]});