callback({"markets":[{"id":2037248,"name":"fore","country":"no","lat":66.916667,"lon":13.616667},{"id":2037639,"name":"gjerset","country":"no","lat":66.883333,"lon":13.666667},{"id":2046546,"name":"vigdel","country":"no","lat":67.0,"lon":13.916667},{"id":2035202,"name":"ballset","country":"no","lat":66.833333,"lon":13.666667},{"id":2044628,"name":"sore fugloy","country":"no","lat":67.05,"lon":13.783333},{"id":2042915,"name":"rendalsviken","country":"no","lat":66.7,"lon":13.65},{"id":2041894,"name":"neverdal","country":"no","lat":66.833333,"lon":13.766667},{"id":2045284,"name":"sund i salten","country":"no","lat":67.066667,"lon":14.05},{"id":2045111,"name":"storvik","country":"no","lat":66.966667,"lon":13.8},{"id":2042839,"name":"ravik","country":"no","lat":67.116667,"lon":14.15},{"id":2038589,"name":"helligvaer","country":"no","lat":67.416667,"lon":13.933333},{"id":2037579,"name":"gilset","country":"no","lat":66.966667,"lon":13.966667},{"id":2037603,"name":"gjela","country":"no","lat":67.183333,"lon":14.433333},{"id":2039412,"name":"jenslund","country":"no","lat":66.8,"lon":13.533333},{"id":2035956,"name":"briksvaer","country":"no","lat":67.283333,"lon":14.0},{"id":2046280,"name":"valle","country":"no","lat":67.0,"lon":13.983333},{"id":2041934,"name":"nordarnoy","country":"no","lat":67.166667,"lon":14.016667},{"id":2036236,"name":"djupvik","country":"no","lat":66.866667,"lon":13.716667},{"id":2035615,"name":"bodo","country":"no","lat":67.283333,"lon":14.383333},{"id":2039827,"name":"kjopstad","country":"no","lat":67.066667,"lon":14.266667},{"id":2039413,"name":"jensvoll","country":"no","lat":67.266667,"lon":14.466667},{"id":2040150,"name":"kringla","country":"no","lat":67.183333,"lon":14.25},{"id":2042129,"name":"nygaardsjoen","country":"no","lat":67.116667,"lon":14.3},{"id":2036167,"name":"dalen","country":"no","lat":66.933333,"lon":13.616667},{"id":2036701,"name":"ertenvaag","country":"no","lat":67.116667,"lon":14.316667},{"id":2043710,"name":"seines","country":"no","lat":67.216667,"lon":14.383333},{"id":2042881,"name":"reipa","country":"no","lat":66.9,"lon":13.65},{"id":2041160,"name":"maarnes","country":"no","lat":67.15,"lon":14.1},{"id":2046283,"name":"valnes i bodin","country":"no","lat":67.2,"lon":14.466667},{"id":2040306,"name":"kvarrsnes","country":"no","lat":67.0,"lon":14.183333},{"id":2035420,"name":"bjaerangsfjord","country":"no","lat":66.75,"lon":13.766667},{"id":2037287,"name":"forstranda","country":"no","lat":67.016667,"lon":13.966667},{"id":2043924,"name":"skaalsvik","country":"no","lat":67.083333,"lon":14.316667},{"id":2041974,"name":"nordfugloy","country":"no","lat":67.066667,"lon":13.85},{"id":2041395,"name":"mesoy","country":"no","lat":66.866667,"lon":13.633333},{"id":2043222,"name":"rosnes","country":"no","lat":67.083333,"lon":14.25},{"id":2038532,"name":"hella","country":"no","lat":67.2,"lon":14.433333},{"id":2044754,"name":"spilderen","country":"no","lat":66.866667,"lon":13.733333},{"id":2035617,"name":"bodogard","country":"no","lat":67.266667,"lon":14.433333},{"id":2037254,"name":"for","country":"no","lat":67.0,"lon":13.966667},{"id":2046853,"name":"ytre okslia","country":"no","lat":67.15,"lon":14.333333},{"id":2036391,"name":"eggesvik","country":"no","lat":67.083333,"lon":14.433333},{"id":2043684,"name":"saura","country":"no","lat":66.766667,"lon":13.55},{"id":2039751,"name":"kjelling","country":"no","lat":67.066667,"lon":14.333333},{"id":2041014,"name":"lopsmarken","country":"no","lat":67.316667,"lon":14.45},{"id":2040275,"name":"kvalvik","country":"no","lat":67.433333,"lon":13.983333},{"id":2039029,"name":"horsdal","country":"no","lat":67.1,"lon":14.05},{"id":2037690,"name":"glaamen","country":"no","lat":66.816667,"lon":13.966667},{"id":2040708,"name":"lekanger i salten","country":"no","lat":67.116667,"lon":14.033333},{"id":2036641,"name":"engavag","country":"no","lat":66.766667,"lon":13.5},{"id":2041622,"name":"mosvoll","country":"no","lat":66.883333,"lon":13.716667},{"id":2042517,"name":"oterstranden","country":"no","lat":66.95,"lon":13.9},{"id":2041339,"name":"melfjordbotn","country":"no","lat":66.516667,"lon":13.683333},{"id":2037833,"name":"grimstad","country":"no","lat":66.95,"lon":13.7},{"id":2037138,"name":"fleina","country":"no","lat":67.1,"lon":13.916667},{"id":2034897,"name":"arnoy","country":"no","lat":67.133333,"lon":13.966667},{"id":2038200,"name":"hammervik","country":"no","lat":67.266667,"lon":14.35},{"id":2044716,"name":"sorvaer","country":"no","lat":67.4,"lon":13.9},{"id":2036979,"name":"finset","country":"no","lat":66.966667,"lon":13.983333},{"id":2036885,"name":"fenes","country":"no","lat":67.383333,"lon":14.266667},{"id":2044111,"name":"skivika","country":"no","lat":67.3,"lon":14.433333},{"id":2036411,"name":"eidbugten","country":"no","lat":66.833333,"lon":13.733333},{"id":2039331,"name":"indyr","country":"no","lat":67.033333,"lon":14.033333},{"id":2042279,"name":"oldra","country":"no","lat":66.766667,"lon":13.616667},{"id":2042369,"name":"oppsal","country":"no","lat":66.95,"lon":13.983333},{"id":2034730,"name":"alsvik","country":"no","lat":67.183333,"lon":14.283333},{"id":2041402,"name":"mevik","country":"no","lat":66.95,"lon":13.733333},{"id":2036944,"name":"finnes","country":"no","lat":66.966667,"lon":13.733333},{"id":2042412,"name":"ornes","country":"no","lat":66.866667,"lon":13.7},{"id":2043188,"name":"ronvik","country":"no","lat":67.283333,"lon":14.416667},{"id":2038856,"name":"holandsfjord","country":"no","lat":66.716667,"lon":13.683333},{"id":2044061,"name":"skavolldalen","country":"no","lat":67.0,"lon":14.1},{"id":2038376,"name":"haugvik","country":"no","lat":66.8,"lon":13.933333},{"id":2043541,"name":"sandaa","country":"no","lat":66.85,"lon":13.75},{"id":2043762,"name":"selstad","country":"no","lat":66.816667,"lon":13.8},{"id":2039984,"name":"kobbosen","country":"no","lat":67.2,"lon":14.45},{"id":2038657,"name":"hernes","country":"no","lat":67.266667,"lon":14.366667},{"id":2044160,"name":"skjelvik","country":"no","lat":67.05,"lon":14.233333},{"id":2038155,"name":"halsa i helgeland","country":"no","lat":66.75,"lon":13.583333}]});