callback({"markets":[{"id":2386610,"name":"cheskidovskiy","country":"ru","lat":55.866667,"lon":79.866667},{"id":2368191,"name":"bashmakovskiy","country":"ru","lat":55.714816,"lon":79.664953},{"id":2388966,"name":"dalnyaya orlovka","country":"ru","lat":55.510309,"lon":79.72824},{"id":2531150,"name":"svetlaya griva","country":"ru","lat":55.6425,"lon":80.082778},{"id":2534369,"name":"taushla","country":"ru","lat":55.766667,"lon":80.216667},{"id":2480386,"name":"oparino","country":"ru","lat":55.7,"lon":79.516667},{"id":2399350,"name":"geroyskiy","country":"ru","lat":55.85,"lon":80.166667},{"id":2472732,"name":"novoborodino","country":"ru","lat":55.512871,"lon":79.534341},{"id":2451051,"name":"malaya zonovka","country":"ru","lat":55.75,"lon":79.566667},{"id":2572920,"name":"zorin","country":"ru","lat":55.95,"lon":79.583333},{"id":2432573,"name":"krasnenkiy","country":"ru","lat":55.883333,"lon":80.316667},{"id":2386240,"name":"cherny mys","country":"ru","lat":55.545278,"lon":80.072222},{"id":2456414,"name":"maynak","country":"ru","lat":55.633333,"lon":80.483333},{"id":2431763,"name":"kozyrovo","country":"ru","lat":55.516667,"lon":80.366667},{"id":2358247,"name":"achekanskiy","country":"ru","lat":55.518877,"lon":79.792048},{"id":2502799,"name":"rodovaya griva","country":"ru","lat":56.166667,"lon":80.416667},{"id":2529622,"name":"sukhaya rechka","country":"ru","lat":55.816667,"lon":79.75},{"id":2400005,"name":"glubokovskiy","country":"ru","lat":55.6775,"lon":79.843611},{"id":2502330,"name":"revunskiy","country":"ru","lat":55.703744,"lon":79.690499},{"id":2502970,"name":"rogovskiye","country":"ru","lat":55.95,"lon":79.666667},{"id":2472917,"name":"novodubrovka","country":"ru","lat":55.706389,"lon":79.979444},{"id":2445322,"name":"lisi norki","country":"ru","lat":55.875833,"lon":80.0875},{"id":2568265,"name":"zarechno-ubinskiy","country":"ru","lat":55.548611,"lon":79.973333},{"id":2429968,"name":"kosminskiy","country":"ru","lat":55.633333,"lon":79.833333},{"id":2564723,"name":"yezhula","country":"ru","lat":55.699896,"lon":79.512635},{"id":2455165,"name":"martemyanovskiy","country":"ru","lat":55.913333,"lon":80.368889},{"id":2568981,"name":"zavidnyy","country":"ru","lat":55.866667,"lon":80.166667},{"id":2487797,"name":"peshkovskiy","country":"ru","lat":55.641214,"lon":79.685445},{"id":2362327,"name":"anikinskiy","country":"ru","lat":56.033333,"lon":80.416667},{"id":2480376,"name":"oparina griva","country":"ru","lat":55.75,"lon":79.783333},{"id":2484425,"name":"panychevskiy","country":"ru","lat":55.6,"lon":80.266667},{"id":2442758,"name":"lebedinskiy","country":"ru","lat":55.597757,"lon":79.548703},{"id":2523356,"name":"soyuznyy","country":"ru","lat":55.883333,"lon":80.15},{"id":2536978,"name":"tobolka","country":"ru","lat":55.8625,"lon":80.048056}]});