callback({"markets":[{"id":2808511,"name":"kisla","country":"tr","lat":38.352462,"lon":37.103898},{"id":2790607,"name":"fatmali","country":"tr","lat":37.533108,"lon":36.755688},{"id":2786072,"name":"devederesi","country":"tr","lat":38.183333,"lon":36.5},{"id":2826681,"name":"suleymanli","country":"tr","lat":37.875278,"lon":36.831667},{"id":2801310,"name":"kalcalti","country":"tr","lat":38.178702,"lon":37.068635},{"id":2818240,"name":"ordekli","country":"tr","lat":38.366667,"lon":36.5},{"id":2799780,"name":"incecik","country":"tr","lat":38.366667,"lon":37.3419},{"id":2778743,"name":"caglayancerit","country":"tr","lat":37.749594,"lon":37.296223},{"id":2822889,"name":"sarimollali","country":"tr","lat":37.619737,"lon":36.615651},{"id":2811859,"name":"kucukoren","country":"tr","lat":37.643887,"lon":37.452816},{"id":2819838,"name":"payamlibag","country":"tr","lat":37.575403,"lon":37.384285},{"id":2833628,"name":"yazidere","country":"tr","lat":38.153923,"lon":37.000873},{"id":2829034,"name":"tetirlik","country":"tr","lat":37.537493,"lon":37.272841},{"id":2800840,"name":"kabasakal","country":"tr","lat":37.75,"lon":37.083333},{"id":2787330,"name":"donukler","country":"tr","lat":37.866667,"lon":36.866667},{"id":2787308,"name":"dongel","country":"tr","lat":37.867108,"lon":36.655787},{"id":2818312,"name":"orenderesi","country":"tr","lat":38.260386,"lon":36.791526},{"id":2777553,"name":"budakli","country":"tr","lat":37.7,"lon":37.016667},{"id":2801830,"name":"kandil","country":"tr","lat":38.033333,"lon":37.083333},{"id":2785772,"name":"dereli","country":"tr","lat":37.610873,"lon":36.968174},{"id":2798914,"name":"huyuklu","country":"tr","lat":38.183454,"lon":36.923688},{"id":2788835,"name":"elmali","country":"tr","lat":38.466667,"lon":37.066667},{"id":2766736,"name":"akbeyli","country":"tr","lat":37.743457,"lon":37.110254},{"id":2775641,"name":"besen","country":"tr","lat":37.826521,"lon":36.890044},{"id":2790940,"name":"firnis","country":"tr","lat":37.804504,"lon":36.650822},{"id":2818209,"name":"onsen","country":"tr","lat":37.524502,"lon":36.792053},{"id":2788268,"name":"egemenlik","country":"tr","lat":37.560305,"lon":36.92306},{"id":2781936,"name":"cicekalani","country":"tr","lat":37.512087,"lon":37.28395},{"id":2828193,"name":"tavsanli","country":"tr","lat":38.427937,"lon":37.49834},{"id":2815338,"name":"mericler","country":"tr","lat":38.049621,"lon":36.977519},{"id":2771821,"name":"atizi","country":"tr","lat":37.533333,"lon":36.916667},{"id":2767631,"name":"akpinar","country":"tr","lat":38.101349,"lon":37.221058},{"id":2767723,"name":"aksaray","country":"tr","lat":37.703488,"lon":37.439001},{"id":2809180,"name":"kizilseki","country":"tr","lat":37.557675,"lon":36.677626},{"id":2777817,"name":"bulutluoglu","country":"tr","lat":37.656397,"lon":36.776845},{"id":2777725,"name":"bulanik","country":"tr","lat":37.617732,"lon":37.142833},{"id":2813578,"name":"kuzucak","country":"tr","lat":37.583213,"lon":37.203732},{"id":2771674,"name":"asmadibi","country":"tr","lat":37.744971,"lon":36.671901},{"id":2770826,"name":"asagiicme","country":"tr","lat":38.036333,"lon":37.156167},{"id":2772938,"name":"bagcecik","country":"tr","lat":38.083333,"lon":36.916667},{"id":2777288,"name":"bozdere koyu","country":"tr","lat":37.708278,"lon":37.452725},{"id":2799443,"name":"ilicakoy","country":"tr","lat":37.854708,"lon":36.864803},{"id":2827679,"name":"tasburun","country":"tr","lat":38.15922,"lon":37.205745},{"id":2830235,"name":"turkmenler","country":"tr","lat":37.963822,"lon":37.094876},{"id":2799310,"name":"ikizpinar","country":"tr","lat":38.272075,"lon":37.44442},{"id":2818770,"name":"ortaoren","country":"tr","lat":38.116667,"lon":37.1},{"id":2830390,"name":"tutluca","country":"tr","lat":38.383333,"lon":36.8},{"id":2788816,"name":"elmalar","country":"tr","lat":37.542672,"lon":37.109195},{"id":2790348,"name":"evzaniye","country":"tr","lat":38.285862,"lon":37.153008},{"id":2812887,"name":"kurucaova","country":"tr","lat":37.959167,"lon":36.5775},{"id":2791216,"name":"gazikoy","country":"tr","lat":38.459804,"lon":37.380831},{"id":2776208,"name":"bicin","country":"tr","lat":37.918708,"lon":37.399487},{"id":2777145,"name":"boybeyler","country":"tr","lat":37.76756,"lon":36.991157},{"id":2795423,"name":"hacieyyoplu","country":"tr","lat":37.718277,"lon":37.115534},{"id":2812744,"name":"kurtlar","country":"tr","lat":37.54042,"lon":36.789171},{"id":2797025,"name":"hasankendi","country":"tr","lat":38.236436,"lon":37.152931},{"id":2774222,"name":"basdervisli","country":"tr","lat":37.719075,"lon":37.169709},{"id":2788763,"name":"elmacati mahallesi","country":"tr","lat":38.456542,"lon":36.589833},{"id":2809571,"name":"koccagiz","country":"tr","lat":37.869734,"lon":36.772301},{"id":2826189,"name":"sokulu","country":"tr","lat":38.440946,"lon":37.257675},{"id":2816494,"name":"muminusagi","country":"tr","lat":37.6,"lon":36.516667},{"id":2803112,"name":"karagol koyu","country":"tr","lat":37.506879,"lon":37.461796},{"id":2774651,"name":"baydemirli","country":"tr","lat":37.762059,"lon":37.03681},{"id":2769017,"name":"altinelma","country":"tr","lat":38.366878,"lon":36.873336},{"id":2805493,"name":"kayagecit","country":"tr","lat":38.473567,"lon":37.136463},{"id":2827129,"name":"suur","country":"tr","lat":37.566667,"lon":36.6},{"id":2798706,"name":"hunu","country":"tr","lat":38.35,"lon":36.833333},{"id":2783950,"name":"dagdere","country":"tr","lat":38.105646,"lon":37.026202},{"id":2809080,"name":"kizilkoy","country":"tr","lat":38.01136,"lon":36.681853},{"id":2826922,"name":"sunnet","country":"tr","lat":38.133249,"lon":37.46097},{"id":2831200,"name":"ungut","country":"tr","lat":37.598438,"lon":36.83306},{"id":2788618,"name":"elbistan","country":"tr","lat":38.205909,"lon":37.198295},{"id":2768964,"name":"altas","country":"tr","lat":38.170438,"lon":36.97936},{"id":2829293,"name":"timuraga","country":"tr","lat":38.055469,"lon":36.592706},{"id":2797483,"name":"hayler","country":"tr","lat":37.9,"lon":37.35},{"id":2791416,"name":"gedikagzi","country":"tr","lat":38.475585,"lon":37.480164},{"id":2831713,"name":"uzuntepeovasi","country":"tr","lat":38.005788,"lon":37.209069},{"id":2826490,"name":"sucati","country":"tr","lat":37.773477,"lon":36.694294},{"id":2811852,"name":"kucuknacar","country":"tr","lat":37.623428,"lon":37.171324},{"id":2837403,"name":"zeytindere","country":"tr","lat":37.540548,"lon":36.741962},{"id":2837298,"name":"zerdekes","country":"tr","lat":38.09551,"lon":37.256895},{"id":2789018,"name":"emirilyas","country":"tr","lat":38.299122,"lon":36.884606},{"id":2778444,"name":"buyuksevin","country":"tr","lat":38.290641,"lon":36.813697},{"id":2783252,"name":"copur","country":"tr","lat":38.299339,"lon":37.440704},{"id":2785198,"name":"demirel","country":"tr","lat":37.609147,"lon":36.631068},{"id":2803763,"name":"karamanli","country":"tr","lat":37.797535,"lon":37.023286},{"id":2773708,"name":"balikcil","country":"tr","lat":38.283333,"lon":37.133333},{"id":2792319,"name":"gocer","country":"tr","lat":37.64042,"lon":37.440655},{"id":2828170,"name":"tavla","country":"tr","lat":38.403076,"lon":36.522746},{"id":2814592,"name":"marabuz","country":"tr","lat":38.493333,"lon":36.781667},{"id":2790900,"name":"finik","country":"tr","lat":38.071347,"lon":36.730469},{"id":2803056,"name":"karaelbistan","country":"tr","lat":38.216667,"lon":37.15},{"id":2803896,"name":"karaomer","country":"tr","lat":38.121026,"lon":36.691273},{"id":2786256,"name":"dikenli","country":"tr","lat":37.924254,"lon":37.035018},{"id":2792546,"name":"gokcek","country":"tr","lat":38.399123,"lon":37.254559},{"id":2822191,"name":"sancakagil","country":"tr","lat":38.450384,"lon":36.542623},{"id":2775591,"name":"bertiz","country":"tr","lat":37.72229,"lon":37.135141},{"id":2773501,"name":"bakrac","country":"tr","lat":38.307216,"lon":36.932626},{"id":2834751,"name":"yesilova","country":"tr","lat":37.711109,"lon":37.487357},{"id":2784834,"name":"degirmenkaya","country":"tr","lat":38.022112,"lon":37.302907},{"id":2830078,"name":"tunaboylu","country":"tr","lat":37.71129,"lon":37.247902},{"id":2788634,"name":"eldelek","country":"tr","lat":38.258629,"lon":37.238249},{"id":2831173,"name":"umutlu","country":"tr","lat":37.87027,"lon":37.312991},{"id":2766724,"name":"akbayir","country":"tr","lat":38.162438,"lon":37.332999},{"id":2833515,"name":"yaylaustu","country":"tr","lat":37.597214,"lon":36.579596},{"id":2834034,"name":"yenicekale","country":"tr","lat":37.59621,"lon":36.63111},{"id":2808579,"name":"kitiz","country":"tr","lat":38.154319,"lon":36.875504},{"id":2828561,"name":"telemelek","country":"tr","lat":37.716667,"lon":36.716667},{"id":2783586,"name":"cukurhisar","country":"tr","lat":37.825075,"lon":36.567323},{"id":2834458,"name":"yeniyapan","country":"tr","lat":37.617315,"lon":36.672285},{"id":2785536,"name":"derebogazi","country":"tr","lat":37.535802,"lon":36.703732},{"id":2810891,"name":"koseyahya","country":"tr","lat":38.2,"lon":37.433333},{"id":2803044,"name":"karadut","country":"tr","lat":37.766667,"lon":36.65},{"id":2806703,"name":"kerimli","country":"tr","lat":37.525123,"lon":36.523078},{"id":2828431,"name":"tekir","country":"tr","lat":37.882832,"lon":36.619305},{"id":2820811,"name":"rahmacilar","country":"tr","lat":37.546149,"lon":36.598173},{"id":2817548,"name":"nurhak","country":"tr","lat":37.962878,"lon":37.420229},{"id":2787266,"name":"domuzdere","country":"tr","lat":38.128772,"lon":36.757637},{"id":2780418,"name":"catova","country":"tr","lat":38.264426,"lon":37.203448},{"id":2769862,"name":"arikahmet","country":"tr","lat":38.022838,"lon":36.560167},{"id":2822782,"name":"sarikaya","country":"tr","lat":37.602357,"lon":36.986062},{"id":2794995,"name":"guvercinlik","country":"tr","lat":38.244004,"lon":37.131578},{"id":2769236,"name":"ambarcik","country":"tr","lat":38.239885,"lon":37.292471},{"id":2837380,"name":"zeynepusagi","country":"tr","lat":37.69159,"lon":37.297523},{"id":2805819,"name":"kaynar","country":"tr","lat":37.797193,"lon":36.548285},{"id":2818243,"name":"ordek","country":"tr","lat":38.215701,"lon":36.829744},{"id":2818812,"name":"ortatepe","country":"tr","lat":38.064755,"lon":36.526543},{"id":2766559,"name":"ahmetli","country":"tr","lat":37.683333,"lon":36.533333},{"id":2795701,"name":"hacimustafaciftligi koyu","country":"tr","lat":37.515591,"lon":36.903054},{"id":2782118,"name":"ciftlikkale","country":"tr","lat":38.033333,"lon":37.15},{"id":2765462,"name":"abbasiye","country":"tr","lat":37.710038,"lon":37.460106},{"id":2810053,"name":"komurkoy","country":"tr","lat":38.157939,"lon":36.575898},{"id":2768671,"name":"aliclibucak","country":"tr","lat":38.082863,"lon":36.524686},{"id":2766531,"name":"ahmetcik","country":"tr","lat":38.025408,"lon":36.657474},{"id":2783085,"name":"cokyasar","country":"tr","lat":37.520255,"lon":37.059195},{"id":2785289,"name":"demirlik","country":"tr","lat":37.955017,"lon":36.992889},{"id":2772977,"name":"bagdinkebir","country":"tr","lat":37.501481,"lon":37.359167},{"id":2810985,"name":"kosuklu","country":"tr","lat":37.691693,"lon":37.482741},{"id":2783447,"name":"cuceli","country":"tr","lat":37.562078,"lon":36.790018},{"id":2778753,"name":"caglihan","country":"tr","lat":38.206259,"lon":36.985499},{"id":2818418,"name":"orhangazi","country":"tr","lat":37.617315,"lon":36.727822},{"id":2768516,"name":"alembey","country":"tr","lat":38.253818,"lon":37.165189},{"id":2809657,"name":"koclar","country":"tr","lat":37.756093,"lon":36.930387},{"id":2782561,"name":"cinarpinar","country":"tr","lat":37.694365,"lon":36.562753},{"id":2801717,"name":"kamiscik","country":"tr","lat":38.113964,"lon":36.87312},{"id":2789053,"name":"emirli","country":"tr","lat":38.25,"lon":36.883333},{"id":2821054,"name":"reyhanli","country":"tr","lat":37.536743,"lon":36.549242},{"id":2822973,"name":"saritasdami","country":"tr","lat":38.4,"lon":37.2},{"id":2822653,"name":"saricukur","country":"tr","lat":37.667044,"lon":36.868161},{"id":2799820,"name":"incekoy","country":"tr","lat":38.373311,"lon":36.926907},{"id":2771929,"name":"avcilar","country":"tr","lat":37.843076,"lon":36.805461},{"id":2801288,"name":"kalaycik","country":"tr","lat":38.397527,"lon":37.104496},{"id":2819767,"name":"pasalar","country":"tr","lat":37.644227,"lon":36.747363},{"id":2826549,"name":"sugul","country":"tr","lat":38.466667,"lon":37.116667},{"id":2808232,"name":"kirkisrak","country":"tr","lat":38.465307,"lon":36.668169},{"id":2774474,"name":"basustu","country":"tr","lat":38.244986,"lon":36.845918},{"id":2807661,"name":"killi","country":"tr","lat":37.636658,"lon":36.553195},{"id":2832609,"name":"yalintas","country":"tr","lat":38.365686,"lon":37.419693},{"id":2819362,"name":"ozbey","country":"tr","lat":38.216667,"lon":37.45},{"id":2797606,"name":"helete","country":"tr","lat":37.8,"lon":37.466667},{"id":2802971,"name":"karadere","country":"tr","lat":37.52066,"lon":36.657903},{"id":2824350,"name":"serkiscayiri","country":"tr","lat":38.327797,"lon":36.760951},{"id":2778400,"name":"buyuknacar","country":"tr","lat":37.615792,"lon":37.287426},{"id":2769326,"name":"anbar","country":"tr","lat":37.978226,"lon":37.13519},{"id":2818907,"name":"oslu","country":"tr","lat":37.568405,"lon":36.687756},{"id":2785984,"name":"dervisler","country":"tr","lat":37.6,"lon":36.7},{"id":2789070,"name":"emirusagi","country":"tr","lat":37.675969,"lon":37.260932},{"id":2820237,"name":"pinarbasi","country":"tr","lat":37.583333,"lon":36.859167},{"id":2780059,"name":"carsak","country":"tr","lat":38.429542,"lon":36.55794},{"id":2777316,"name":"bozhuyuk","country":"tr","lat":38.145482,"lon":36.500605},{"id":2799117,"name":"igdemli","country":"tr","lat":38.22016,"lon":36.805743},{"id":2771622,"name":"aslanbey","country":"tr","lat":37.994238,"lon":36.527714},{"id":2766148,"name":"agcasor","country":"tr","lat":38.210849,"lon":36.770919},{"id":2803717,"name":"karamagra","country":"tr","lat":38.474434,"lon":37.175534},{"id":2787883,"name":"dutluca","country":"tr","lat":37.917681,"lon":36.67601},{"id":2811117,"name":"koyceviran","country":"tr","lat":38.466667,"lon":37.25},{"id":2772144,"name":"ayaklicaoluk","country":"tr","lat":37.590448,"lon":37.047866},{"id":2798385,"name":"hombur","country":"tr","lat":37.764632,"lon":37.207746},{"id":2781950,"name":"cicekkoy","country":"tr","lat":38.216264,"lon":37.247931},{"id":2827607,"name":"tarlacik","country":"tr","lat":38.38539,"lon":36.978666},{"id":2829629,"name":"topaktas","country":"tr","lat":38.492926,"lon":36.710734},{"id":2795510,"name":"haciibrahahimusagi","country":"tr","lat":37.872741,"lon":36.800097},{"id":2826193,"name":"soku","country":"tr","lat":37.617898,"lon":37.41396},{"id":2804329,"name":"karaziyaret","country":"tr","lat":37.557659,"lon":36.895411},{"id":2766279,"name":"aglica","country":"tr","lat":38.259034,"lon":37.15},{"id":2833597,"name":"yazibelen","country":"tr","lat":38.352107,"lon":36.958541},{"id":2766233,"name":"agiloba","country":"tr","lat":38.097226,"lon":36.963166},{"id":2770061,"name":"armutlu","country":"tr","lat":37.50366,"lon":37.256503},{"id":2805298,"name":"kavsut","country":"tr","lat":38.197271,"lon":36.567349},{"id":2771371,"name":"asagiulubahce","country":"tr","lat":37.5074,"lon":37.324292},{"id":2790042,"name":"eskikoy","country":"tr","lat":37.943753,"lon":37.454247},{"id":2811916,"name":"kucuksu","country":"tr","lat":38.054772,"lon":36.651905},{"id":2765930,"name":"afsar","country":"tr","lat":37.57817,"lon":36.79414},{"id":2803127,"name":"karagoz","country":"tr","lat":38.277183,"lon":36.987269},{"id":2816586,"name":"muratli","country":"tr","lat":37.50465,"lon":36.527742},{"id":2827471,"name":"tanir","country":"tr","lat":37.852894,"lon":36.672017},{"id":2766142,"name":"agcasar","country":"tr","lat":38.078646,"lon":37.349902},{"id":2768526,"name":"alemdar","country":"tr","lat":38.363989,"lon":37.029442},{"id":2790534,"name":"fakioglu","country":"tr","lat":38.498278,"lon":37.124219},{"id":2767672,"name":"akpinar koyu","country":"tr","lat":38.433333,"lon":37.483333},{"id":2777393,"name":"bozoglan","country":"tr","lat":37.733333,"lon":36.666667},{"id":2819372,"name":"ozcan","country":"tr","lat":38.110585,"lon":37.288281},{"id":2793087,"name":"gollu","country":"tr","lat":37.606276,"lon":36.994504},{"id":2770084,"name":"armutsuyu mezraasi","country":"tr","lat":38.446935,"lon":37.130447},{"id":2776428,"name":"birecik","country":"tr","lat":38.222422,"lon":36.876698},{"id":2825377,"name":"sinekli","country":"tr","lat":38.316667,"lon":36.983333},{"id":2811766,"name":"kucukkizilcik","country":"tr","lat":38.196677,"lon":36.665005},{"id":2796899,"name":"hartlap","country":"tr","lat":37.54515,"lon":36.694245},{"id":2809680,"name":"kocovasi","country":"tr","lat":38.495569,"lon":36.93491},{"id":2778338,"name":"buyukkizilcik","country":"tr","lat":38.202122,"lon":36.71152},{"id":2804944,"name":"kastal","country":"tr","lat":38.17584,"lon":37.468411},{"id":2826295,"name":"sorgun","country":"tr","lat":37.589998,"lon":37.493467},{"id":2802774,"name":"karacasu","country":"tr","lat":37.509352,"lon":36.975314},{"id":2784151,"name":"dallikavak","country":"tr","lat":38.457082,"lon":36.617882},{"id":2798889,"name":"huyucek","country":"tr","lat":38.139663,"lon":37.421714},{"id":2810489,"name":"korkmaz","country":"tr","lat":38.088512,"lon":36.793124},{"id":2800801,"name":"kabaktepe koyu","country":"tr","lat":38.033459,"lon":37.007141},{"id":2780171,"name":"catalagac","country":"tr","lat":37.668314,"lon":37.484235},{"id":2778473,"name":"buyuktatlar","country":"tr","lat":38.489981,"lon":36.978834},{"id":2778876,"name":"cakioba","country":"tr","lat":37.983333,"lon":36.95},{"id":2816974,"name":"nadir","country":"tr","lat":38.155409,"lon":36.952542},{"id":2800658,"name":"izgin","country":"tr","lat":38.237675,"lon":37.091246},{"id":2830188,"name":"turkcayiri","country":"tr","lat":38.266667,"lon":36.766667},{"id":2769481,"name":"apiklar","country":"tr","lat":38.161067,"lon":36.703938},{"id":2804370,"name":"kargabuku","country":"tr","lat":38.154144,"lon":36.824809},{"id":2799979,"name":"inekli","country":"tr","lat":37.718784,"lon":37.474524},{"id":2808938,"name":"kizildamlar","country":"tr","lat":37.571944,"lon":36.745},{"id":2787953,"name":"duzbag","country":"tr","lat":37.795071,"lon":37.466443},{"id":2831844,"name":"varhatpinar koyu","country":"tr","lat":38.416667,"lon":37.233333},{"id":2822706,"name":"sariguzel","country":"tr","lat":37.922,"lon":36.963436},{"id":2791161,"name":"gavuroren","country":"tr","lat":38.283333,"lon":37.366667},{"id":2790941,"name":"firnizkoy","country":"tr","lat":37.533333,"lon":36.633333},{"id":2804714,"name":"kartal","country":"tr","lat":37.516655,"lon":37.128784},{"id":2785725,"name":"derekoy","country":"tr","lat":37.569646,"lon":37.046057},{"id":2806865,"name":"kesifli","country":"tr","lat":37.550041,"lon":36.715791},{"id":2808022,"name":"kireckoy","country":"tr","lat":37.978056,"lon":36.504444},{"id":2807685,"name":"kiloglu","country":"tr","lat":37.700802,"lon":37.081391},{"id":2789145,"name":"engizek usagi","country":"tr","lat":37.773859,"lon":37.330312},{"id":2776366,"name":"binboga","country":"tr","lat":38.286915,"lon":36.737408},{"id":2805185,"name":"kavakli","country":"tr","lat":37.591071,"lon":36.764444},{"id":2811388,"name":"kozludere koyu","country":"tr","lat":37.618637,"lon":37.102133},{"id":2831883,"name":"varyanli","country":"tr","lat":37.54091,"lon":36.531529},{"id":2806434,"name":"kemalli","country":"tr","lat":37.739224,"lon":37.130395},{"id":2810847,"name":"koseli","country":"tr","lat":37.60566,"lon":36.73245},{"id":2829196,"name":"tilkiler","country":"tr","lat":37.515513,"lon":37.48064},{"id":2799092,"name":"igde","country":"tr","lat":38.15752,"lon":37.093985},{"id":2803273,"name":"karahoyuk","country":"tr","lat":38.259657,"lon":37.114754},{"id":2768664,"name":"alicli","country":"tr","lat":38.49409,"lon":37.004231},{"id":2793421,"name":"goynuk","country":"tr","lat":37.676278,"lon":37.434263},{"id":2801849,"name":"kangal","country":"tr","lat":38.230041,"lon":37.498182},{"id":2774092,"name":"baris","country":"tr","lat":38.003755,"lon":37.336003},{"id":2819581,"name":"palavar","country":"tr","lat":38.483333,"lon":37.133333},{"id":2806682,"name":"kerevin","country":"tr","lat":38.495664,"lon":36.873355},{"id":2768819,"name":"alisar","country":"tr","lat":37.932167,"lon":37.038484},{"id":2811957,"name":"kucukyapalak","country":"tr","lat":38.28706,"lon":37.22703},{"id":2778513,"name":"buyukyapalak","country":"tr","lat":38.32748,"lon":37.274706},{"id":2829561,"name":"tombak","country":"tr","lat":38.121673,"lon":36.950203},{"id":2777622,"name":"buget","country":"tr","lat":38.426298,"lon":36.98778},{"id":2789414,"name":"ericek","country":"tr","lat":38.077579,"lon":36.877933},{"id":2801947,"name":"kanli","country":"tr","lat":37.947051,"lon":37.112275},{"id":2802214,"name":"karaagac","country":"tr","lat":37.616667,"lon":37.35},{"id":2797444,"name":"haydarli","country":"tr","lat":37.583333,"lon":37.466667},{"id":2801950,"name":"kanlikavak","country":"tr","lat":38.1175,"lon":36.608333},{"id":2836906,"name":"yusufhacili","country":"tr","lat":37.569495,"lon":37.067764},{"id":2814609,"name":"marash","country":"tr","lat":37.584705,"lon":36.926405},{"id":2811906,"name":"kucuksobecimen","country":"tr","lat":38.483121,"lon":36.594073},{"id":2806684,"name":"kerhan","country":"tr","lat":37.605814,"lon":37.060768},{"id":2780114,"name":"catak","country":"tr","lat":38.091709,"lon":36.823559},{"id":2823441,"name":"sazkoy","country":"tr","lat":37.975531,"lon":37.033461},{"id":2814324,"name":"malap","country":"tr","lat":38.134527,"lon":37.390024},{"id":2821962,"name":"salliusagi","country":"tr","lat":37.548798,"lon":37.428592},{"id":2793297,"name":"goredin","country":"tr","lat":37.766667,"lon":36.816667},{"id":2820178,"name":"peynirdere","country":"tr","lat":37.583514,"lon":37.06897},{"id":2779529,"name":"camlica","country":"tr","lat":37.575656,"lon":37.257498},{"id":2813165,"name":"kuskayasi","country":"tr","lat":38.289423,"lon":37.031611},{"id":2780406,"name":"catmayayla","country":"tr","lat":37.75975,"lon":37.071576},{"id":2795410,"name":"hacidere","country":"tr","lat":37.916667,"lon":36.766667},{"id":2794653,"name":"gupluce","country":"tr","lat":38.15,"lon":37.166667},{"id":2802080,"name":"kapikaya","country":"tr","lat":37.832282,"lon":36.779259},{"id":2804770,"name":"kasanliagillari","country":"tr","lat":38.445954,"lon":37.00843},{"id":2789224,"name":"ercene","country":"tr","lat":38.20465,"lon":36.961087},{"id":2823027,"name":"sariyatak","country":"tr","lat":38.45,"lon":37.233333},{"id":2773941,"name":"balusagi","country":"tr","lat":37.963884,"lon":36.739781},{"id":2794369,"name":"gunesen","country":"tr","lat":38.466667,"lon":36.516667},{"id":2777827,"name":"bundukkoyu","country":"tr","lat":37.733517,"lon":36.536251},{"id":2834149,"name":"yenidemir","country":"tr","lat":37.667203,"lon":36.629225},{"id":2792912,"name":"golcegiz","country":"tr","lat":37.733751,"lon":36.846658},{"id":2807444,"name":"kilavuzlu","country":"tr","lat":37.626222,"lon":36.80431},{"id":2777105,"name":"boyali","country":"tr","lat":37.774368,"lon":37.084297},{"id":2766338,"name":"agveren","country":"tr","lat":38.245517,"lon":37.209081},{"id":2824181,"name":"sercekuyusu koyu","country":"tr","lat":38.385132,"lon":37.445583},{"id":2770909,"name":"asagi kargabuk","country":"tr","lat":38.166667,"lon":36.85},{"id":2827532,"name":"tapkirdami","country":"tr","lat":38.4,"lon":37.483333},{"id":2795711,"name":"hacininoglu","country":"tr","lat":37.89466,"lon":36.964198},{"id":2790242,"name":"evcihuyuk","country":"tr","lat":38.344468,"lon":37.21228},{"id":2828101,"name":"tatlar","country":"tr","lat":38.469422,"lon":37.004095},{"id":2794841,"name":"gursel","country":"tr","lat":37.953554,"lon":37.284518},{"id":2782097,"name":"ciftlik","country":"tr","lat":37.984192,"lon":37.191017},{"id":2793555,"name":"gozpinar","country":"tr","lat":38.01403,"lon":37.232632},{"id":2809265,"name":"kizirli","country":"tr","lat":37.538107,"lon":37.476216},{"id":2782949,"name":"cobanli","country":"tr","lat":37.692593,"lon":36.965994},{"id":2805621,"name":"kayapinar","country":"tr","lat":38.413937,"lon":37.315744},{"id":2827777,"name":"taskesen","country":"tr","lat":38.020182,"lon":36.728979},{"id":2821303,"name":"sadalak","country":"tr","lat":37.773072,"lon":36.769262},{"id":2829680,"name":"topcular","country":"tr","lat":38.020878,"lon":36.801179},{"id":2811047,"name":"koture","country":"tr","lat":38.202438,"lon":36.833238},{"id":2783667,"name":"cukurpinar","country":"tr","lat":38.297468,"lon":36.772142},{"id":2791362,"name":"gecit koyu","country":"tr","lat":38.25,"lon":37.283333},{"id":2782899,"name":"cobanbeyli","country":"tr","lat":38.317576,"lon":36.903425},{"id":2834363,"name":"yeni mahallesi","country":"tr","lat":38.49041,"lon":36.501058},{"id":2769944,"name":"aritas","country":"tr","lat":38.345818,"lon":36.831149},{"id":2806693,"name":"kerimen","country":"tr","lat":37.876892,"lon":36.938255},{"id":2825959,"name":"sogucak","country":"tr","lat":38.15,"lon":36.95},{"id":2818670,"name":"ortakli","country":"tr","lat":38.15788,"lon":37.019272},{"id":2785464,"name":"derbent","country":"tr","lat":38.033333,"lon":37.3},{"id":2796980,"name":"hasancikli","country":"tr","lat":37.706042,"lon":36.773151},{"id":2786037,"name":"deveboynu","country":"tr","lat":38.156874,"lon":36.798105},{"id":2779502,"name":"camlibel","country":"tr","lat":37.78343,"lon":36.810807},{"id":2775792,"name":"bestepe","country":"tr","lat":38.335556,"lon":37.428333},{"id":2818790,"name":"ortaoymak","country":"tr","lat":38.011592,"lon":36.993864},{"id":2826844,"name":"suluyayla","country":"tr","lat":37.563144,"lon":36.514146},{"id":2775642,"name":"besenli","country":"tr","lat":37.664628,"lon":37.239748},{"id":2778074,"name":"buyukatli","country":"tr","lat":38.342918,"lon":37.018132},{"id":2795742,"name":"haciomer","country":"tr","lat":38.062666,"lon":36.604082},{"id":2833052,"name":"yarpuz","country":"tr","lat":38.247693,"lon":36.91399},{"id":2787319,"name":"dongere","country":"tr","lat":37.561247,"lon":36.633269},{"id":2821715,"name":"sakarkaya koyu","country":"tr","lat":37.64643,"lon":37.405898},{"id":2825665,"name":"sisne","country":"tr","lat":37.998824,"lon":36.731997},{"id":2833663,"name":"yazikoy","country":"tr","lat":38.178782,"lon":36.774627},{"id":2801422,"name":"kale","country":"tr","lat":37.762277,"lon":37.163293},{"id":2800528,"name":"ismailli","country":"tr","lat":37.619067,"lon":36.712725},{"id":2783007,"name":"cogulhan","country":"tr","lat":38.35,"lon":37.016667},{"id":2784790,"name":"degirmen","country":"tr","lat":38.416003,"lon":36.580853},{"id":2798731,"name":"hurman","country":"tr","lat":38.360341,"lon":36.928666},{"id":2785168,"name":"demircilik","country":"tr","lat":38.238056,"lon":37.333056},{"id":2811948,"name":"kucukungut","country":"tr","lat":37.695819,"lon":37.373022},{"id":2793334,"name":"goricek","country":"tr","lat":38.444155,"lon":37.062621},{"id":2779070,"name":"calbak","country":"tr","lat":38.060684,"lon":37.273659},{"id":2831084,"name":"ulutas","country":"tr","lat":37.598739,"lon":37.038671},{"id":2811033,"name":"kotukoy","country":"tr","lat":38.088718,"lon":37.137117},{"id":2833462,"name":"yaylakurtul","country":"tr","lat":37.990002,"lon":37.047491},{"id":2823376,"name":"saygili","country":"tr","lat":37.534846,"lon":36.588134},{"id":2820905,"name":"recepli","country":"tr","lat":37.558265,"lon":36.643317},{"id":2833030,"name":"yaritepe","country":"tr","lat":38.033414,"lon":36.54883},{"id":2818882,"name":"orucpinari","country":"tr","lat":37.707855,"lon":37.314376},{"id":2826412,"name":"soysalli","country":"tr","lat":38.093977,"lon":37.077282},{"id":2830785,"name":"ugrak","country":"tr","lat":37.8,"lon":36.833333},{"id":2794223,"name":"gundere","country":"tr","lat":38.26719,"lon":37.357493},{"id":2776873,"name":"bolukdamlar","country":"tr","lat":37.659706,"lon":37.327481},{"id":2806641,"name":"keralmaz","country":"tr","lat":37.672956,"lon":37.475681},{"id":2783205,"name":"comuduz","country":"tr","lat":38.393031,"lon":37.005652},{"id":2811806,"name":"kucuk","country":"tr","lat":38.193603,"lon":37.481201},{"id":2766129,"name":"agcalar","country":"tr","lat":37.546758,"lon":37.453474},{"id":2832893,"name":"yaprakli","country":"tr","lat":38.236905,"lon":37.109719},{"id":2781046,"name":"cela","country":"tr","lat":38.059738,"lon":37.187864},{"id":2832993,"name":"yarimca","country":"tr","lat":38.478704,"lon":37.37472},{"id":2812820,"name":"kurtul","country":"tr","lat":37.6324,"lon":36.724736}]});