callback({"markets":[{"id":2460561,"name":"mokhnatyy log","country":"ru","lat":54.015045,"lon":79.57695},{"id":2381504,"name":"bukreevo-pleso","country":"ru","lat":54.133333,"lon":79.936389},{"id":2523490,"name":"spasovskiy","country":"ru","lat":54.05,"lon":80.216667},{"id":2569895,"name":"zemerovskiy","country":"ru","lat":53.983333,"lon":80.05},{"id":2385378,"name":"cherkasskiy","country":"ru","lat":53.55,"lon":80.166667},{"id":2432380,"name":"krasnaya roshcha","country":"ru","lat":54.466667,"lon":80.366667},{"id":2442729,"name":"lebedikha","country":"ru","lat":53.616667,"lon":80.116667},{"id":2475307,"name":"novotravinskiy","country":"ru","lat":54.19,"lon":79.536667},{"id":2474383,"name":"novoplatovka","country":"ru","lat":53.51581,"lon":79.756174},{"id":2388097,"name":"chumanskoye","country":"ru","lat":53.516667,"lon":80.433333},{"id":2524546,"name":"stalinskiy","country":"ru","lat":54.433333,"lon":80.45},{"id":2359735,"name":"akuyevskiy","country":"ru","lat":53.533333,"lon":80.066667},{"id":2426533,"name":"komarye","country":"ru","lat":54.421389,"lon":80.212222},{"id":2424825,"name":"kochki","country":"ru","lat":54.335833,"lon":80.480556},{"id":2385477,"name":"chernaki","country":"ru","lat":54.076196,"lon":79.81059},{"id":2511606,"name":"serp-molot","country":"ru","lat":53.6697,"lon":79.8551},{"id":2417125,"name":"khabarovskiy","country":"ru","lat":53.845537,"lon":79.76549},{"id":2539966,"name":"tselinnyy","country":"ru","lat":53.750574,"lon":79.542454},{"id":2569518,"name":"zelenaya roshcha","country":"ru","lat":53.904074,"lon":79.644395},{"id":2379044,"name":"borisovskiy","country":"ru","lat":53.566667,"lon":80.166667},{"id":2437491,"name":"kulema","country":"ru","lat":54.133333,"lon":79.5},{"id":2545134,"name":"uryvagevo","country":"ru","lat":53.794,"lon":79.9429},{"id":2447516,"name":"lukosskiye khutora","country":"ru","lat":54.016667,"lon":80.266667},{"id":2415830,"name":"kaygorodka","country":"ru","lat":53.6,"lon":79.6},{"id":2513387,"name":"shatokhinskiy","country":"ru","lat":53.95,"lon":79.633333},{"id":2435245,"name":"krivoye","country":"ru","lat":53.6875,"lon":80.147222},{"id":2553293,"name":"vershinina","country":"ru","lat":53.516667,"lon":80.466667},{"id":2370913,"name":"beregovoye","country":"ru","lat":53.766667,"lon":80.133333},{"id":2521136,"name":"sogornaya","country":"ru","lat":54.296944,"lon":79.951111},{"id":2489092,"name":"pika","country":"ru","lat":53.933333,"lon":79.933333},{"id":2474550,"name":"novoreshetovskiy","country":"ru","lat":54.133333,"lon":80.383333},{"id":2485400,"name":"pavlogradskiy","country":"ru","lat":53.5,"lon":79.916667},{"id":2456535,"name":"mayskoye","country":"ru","lat":54.075155,"lon":79.759921},{"id":2546207,"name":"ust-kurya","country":"ru","lat":53.662976,"lon":79.731984},{"id":2568134,"name":"zaprudikhinskiy","country":"ru","lat":53.95806,"lon":79.637532},{"id":2475683,"name":"novoyagodnyy","country":"ru","lat":54.4,"lon":79.833333},{"id":2490135,"name":"pleso-kurya","country":"ru","lat":53.628,"lon":79.9146},{"id":2440637,"name":"kuznetskiy","country":"ru","lat":54.241667,"lon":79.9025},{"id":2397754,"name":"frolovskiy","country":"ru","lat":54.160278,"lon":79.740556},{"id":2447528,"name":"lukovka","country":"ru","lat":53.920556,"lon":80.269722},{"id":2485405,"name":"pavlo-ivanovka","country":"ru","lat":53.583333,"lon":79.65},{"id":2573590,"name":"zykovo","country":"ru","lat":53.816667,"lon":80.1},{"id":2563930,"name":"yermakovskiy","country":"ru","lat":54.133333,"lon":80.3},{"id":2424791,"name":"kochipovskiy","country":"ru","lat":54.466667,"lon":80.4},{"id":2502219,"name":"reshety","country":"ru","lat":54.214167,"lon":80.214167},{"id":2445208,"name":"lipovskiy","country":"ru","lat":53.966667,"lon":79.983333},{"id":2429042,"name":"korotoyak","country":"ru","lat":53.756377,"lon":79.674222},{"id":2417134,"name":"khabary","country":"ru","lat":53.625877,"lon":79.534501},{"id":2465335,"name":"natsmen","country":"ru","lat":54.066667,"lon":80.4},{"id":2544964,"name":"urozhaynyy","country":"ru","lat":53.7928,"lon":79.533489},{"id":2484256,"name":"pankrushikha","country":"ru","lat":53.831944,"lon":80.340556},{"id":2386057,"name":"chernovskoye","country":"ru","lat":54.154167,"lon":80.004444},{"id":2520363,"name":"smirnovskiy","country":"ru","lat":53.803148,"lon":79.809789},{"id":2392630,"name":"dovolenskoye","country":"ru","lat":54.496496,"lon":79.667273},{"id":2468734,"name":"nizhne-solonovskiy","country":"ru","lat":54.033333,"lon":79.766667},{"id":2371883,"name":"bespyatyy","country":"ru","lat":54.184259,"lon":79.697322},{"id":2410863,"name":"kainskiy","country":"ru","lat":53.8,"lon":79.683333},{"id":2549683,"name":"velizhanka","country":"ru","lat":53.869444,"lon":80.158056},{"id":2529684,"name":"sukhiye rakity","country":"ru","lat":53.6,"lon":80.466667},{"id":2573539,"name":"zyatkovo","country":"ru","lat":53.6,"lon":80.333333},{"id":2443416,"name":"lenskiy","country":"ru","lat":54.016667,"lon":80.133333},{"id":2441355,"name":"kyzyl-tu","country":"ru","lat":54.0,"lon":80.4},{"id":2433411,"name":"krasnoye znamya","country":"ru","lat":54.266667,"lon":80.316667},{"id":2372171,"name":"beznogovskiy","country":"ru","lat":54.4,"lon":80.05},{"id":2545136,"name":"uryvayevo","country":"ru","lat":53.7597,"lon":79.8521},{"id":2538461,"name":"travnoye","country":"ru","lat":54.24494,"lon":79.617519},{"id":2557517,"name":"vozki","country":"ru","lat":53.583333,"lon":79.716667},{"id":2491675,"name":"podoynikova","country":"ru","lat":53.865833,"lon":80.468611},{"id":2427671,"name":"konstantinovskiy","country":"ru","lat":54.1,"lon":80.216667},{"id":2380717,"name":"bryanskiy","country":"ru","lat":54.209335,"lon":79.747687},{"id":2479314,"name":"oktyabr","country":"ru","lat":53.55,"lon":79.75},{"id":2372707,"name":"biryuchya dubrava","country":"ru","lat":53.65,"lon":80.333333},{"id":2531229,"name":"svetloye","country":"ru","lat":53.6,"lon":79.783333},{"id":2501220,"name":"rayskiy","country":"ru","lat":53.983333,"lon":80.166667},{"id":2510298,"name":"semenov omut","country":"ru","lat":53.55,"lon":80.066667},{"id":2438960,"name":"kurinskiy","country":"ru","lat":53.9555,"lon":79.8539},{"id":2474592,"name":"novorossiyskiy","country":"ru","lat":54.255556,"lon":79.788889},{"id":2497729,"name":"proletarskiy trud","country":"ru","lat":53.933333,"lon":80.383333},{"id":2442827,"name":"lebyazhiy","country":"ru","lat":53.716667,"lon":80.266667},{"id":2475651,"name":"novovoznesenskiy","country":"ru","lat":53.866667,"lon":79.566667},{"id":2415498,"name":"kateshino","country":"ru","lat":53.733333,"lon":79.95},{"id":2528089,"name":"stepnoy","country":"ru","lat":53.9221,"lon":79.578252}]});