callback({"markets":[{"id":2997532,"name":"buford","country":"us","lat":47.9986111,"lon":-103.9908333},{"id":2979799,"name":"ludington","country":"us","lat":47.8261111,"lon":-104.0611111},{"id":2997435,"name":"alexander","country":"us","lat":47.8430556,"lon":-103.6422222},{"id":2979293,"name":"crane","country":"us","lat":47.5758333,"lon":-104.2619444},{"id":2979426,"name":"fischer park","country":"us","lat":47.7166667,"lon":-104.1444444},{"id":2980223,"name":"sidney","country":"us","lat":47.7166667,"lon":-104.1558333},{"id":2998268,"name":"williston","country":"us","lat":48.1333333,"lon":-103.6333333},{"id":2997729,"name":"gladys","country":"us","lat":48.4952778,"lon":-103.8197222},{"id":2998211,"name":"trenton","country":"us","lat":48.0705556,"lon":-103.8363889},{"id":2980125,"name":"riverview","country":"us","lat":47.6741667,"lon":-104.1744444},{"id":2979929,"name":"newlon junction","country":"us","lat":47.6586111,"lon":-104.1966667},{"id":2998256,"name":"west bonetraill","country":"us","lat":48.4019444,"lon":-103.9483333},{"id":2997508,"name":"bonetraill","country":"us","lat":48.4163889,"lon":-103.8380556},{"id":2997931,"name":"marley","country":"us","lat":48.025,"lon":-103.9044444},{"id":2979515,"name":"girard","country":"us","lat":47.8677778,"lon":-104.4211111},{"id":2979480,"name":"froid","country":"us","lat":48.3344444,"lon":-104.4955556},{"id":2979464,"name":"four seasons trailer court","country":"us","lat":47.7191667,"lon":-104.1536111},{"id":2997623,"name":"dore","country":"us","lat":47.9205556,"lon":-104.0305556},{"id":2997466,"name":"avoca","country":"us","lat":48.185,"lon":-103.5236111},{"id":2980237,"name":"sioux pass","country":"us","lat":47.9225,"lon":-104.3252778},{"id":2997933,"name":"marmon","country":"us","lat":48.3872222,"lon":-103.6555556},{"id":2979831,"name":"mccabe","country":"us","lat":48.2436111,"lon":-104.3772222},{"id":2979860,"name":"midway","country":"us","lat":47.515,"lon":-104.32},{"id":2979941,"name":"nohly","country":"us","lat":47.9955556,"lon":-104.0913889},{"id":2997560,"name":"charbonneau","country":"us","lat":47.8533333,"lon":-103.7627778},{"id":2979406,"name":"fairview","country":"us","lat":47.8563889,"lon":-104.0444444},{"id":2997550,"name":"cartwright","country":"us","lat":47.8597222,"lon":-103.9258333},{"id":2998083,"name":"rawson","country":"us","lat":47.8194444,"lon":-103.5402778},{"id":2979738,"name":"lanark","country":"us","lat":48.1430556,"lon":-104.3569444},{"id":2980108,"name":"ridgelawn","country":"us","lat":47.7919444,"lon":-104.0858333},{"id":2979623,"name":"hoffmanville","country":"us","lat":47.5108333,"lon":-104.3019444},{"id":2997644,"name":"east fairview","country":"us","lat":47.8533333,"lon":-104.0391667},{"id":2997779,"name":"harding","country":"us","lat":47.8533333,"lon":-104.0147222},{"id":2980509,"name":"wooley","country":"us","lat":47.765,"lon":-104.1052778},{"id":2980003,"name":"piche","country":"us","lat":47.6086111,"lon":-104.2302778},{"id":2980133,"name":"rock crossing","country":"us","lat":48.4925,"lon":-104.3469444},{"id":2980254,"name":"snowden","country":"us","lat":48.0269444,"lon":-104.0836111},{"id":2978996,"name":"bainville","country":"us","lat":48.14,"lon":-104.2222222}]});