callback({"markets":[{"id":380326,"name":"yakoussou","country":"cf","lat":3.9,"lon":18.05},{"id":380497,"name":"zanga","country":"cf","lat":3.8833333,"lon":17.9666667},{"id":375525,"name":"bangui ii","country":"cf","lat":3.8833333,"lon":18.0166667},{"id":379844,"name":"sakolongo","country":"cf","lat":4.1783333,"lon":18.3788889},{"id":380143,"name":"tongolo","country":"cf","lat":4.1719444,"lon":18.2361111},{"id":379699,"name":"petit loko","country":"cf","lat":3.6666667,"lon":18.0333333},{"id":376646,"name":"bosse","country":"cf","lat":4.4833333,"lon":18.2333333},{"id":378161,"name":"kakoua","country":"cf","lat":3.95,"lon":17.7333333},{"id":379231,"name":"ndimango","country":"cf","lat":4.2363889,"lon":18.2094444},{"id":378604,"name":"lebe ii","country":"cf","lat":3.8333333,"lon":17.5333333},{"id":375928,"name":"bibabourou","country":"cf","lat":4.3666667,"lon":17.85},{"id":378104,"name":"irouta","country":"cf","lat":3.9833333,"lon":17.65},{"id":376926,"name":"boundoi","country":"cf","lat":4.45,"lon":17.7},{"id":376643,"name":"bossangoro","country":"cf","lat":4.45,"lon":17.5166667},{"id":376622,"name":"bosambo","country":"cf","lat":4.3833333,"lon":18.4666667},{"id":376555,"name":"bongombe","country":"cf","lat":4.05,"lon":18.1333333},{"id":378237,"name":"karapara","country":"cf","lat":4.3166667,"lon":17.7333333},{"id":376574,"name":"bongui","country":"cf","lat":4.3833333,"lon":17.6666667},{"id":379910,"name":"sebokele","country":"cf","lat":4.2163889,"lon":18.3961111},{"id":379232,"name":"ndimbi","country":"cf","lat":4.0630556,"lon":18.0525},{"id":379006,"name":"mboule","country":"cf","lat":4.3833333,"lon":17.8},{"id":376453,"name":"bombaranga","country":"cf","lat":4.0,"lon":17.6166667},{"id":379691,"name":"peketo","country":"cf","lat":4.1713889,"lon":18.2363889},{"id":376095,"name":"bobere","country":"cf","lat":4.0038889,"lon":18.4563889},{"id":376273,"name":"bogboua","country":"cf","lat":3.95,"lon":18.1833333},{"id":376894,"name":"boumbabia","country":"cf","lat":4.1058333,"lon":18.4347222},{"id":377516,"name":"dongo","country":"cf","lat":3.7666667,"lon":18.1333333},{"id":376584,"name":"bonini","country":"cf","lat":4.3833333,"lon":17.5},{"id":377448,"name":"djondo","country":"cf","lat":3.65,"lon":18.2333333},{"id":376103,"name":"bobili","country":"cf","lat":4.0833333,"lon":18.0},{"id":377788,"name":"gbokopeteme","country":"cf","lat":4.1991667,"lon":18.1525},{"id":376092,"name":"bobengui","country":"cf","lat":3.6166667,"lon":18.15},{"id":376906,"name":"boumenkoy","country":"cf","lat":4.4833333,"lon":17.5},{"id":378229,"name":"kapou ii","country":"cf","lat":4.2444444,"lon":18.2763889},{"id":376973,"name":"boussemba","country":"cf","lat":3.7166667,"lon":18.15},{"id":377095,"name":"buda","country":"cf","lat":4.4666667,"lon":18.1},{"id":377023,"name":"boyamaii","country":"cf","lat":4.0444444,"lon":18.1163889},{"id":379741,"name":"pongbo","country":"cf","lat":4.1,"lon":17.5},{"id":378379,"name":"konga","country":"cf","lat":4.4313889,"lon":18.3769444},{"id":375165,"name":"bafili","country":"cf","lat":4.4833333,"lon":18.4833333},{"id":376689,"name":"botambi","country":"cf","lat":4.2044444,"lon":18.4997222},{"id":376760,"name":"boubanzegue","country":"cf","lat":4.05,"lon":18.0833333},{"id":376234,"name":"boganda","country":"cf","lat":3.9,"lon":18.1666667},{"id":380568,"name":"zomia","country":"cf","lat":3.65,"lon":17.9833333},{"id":376501,"name":"bondji","country":"cf","lat":3.9,"lon":17.55},{"id":380351,"name":"yamboro","country":"cf","lat":4.3166667,"lon":18.4},{"id":376272,"name":"bogboro","country":"cf","lat":4.45,"lon":17.7666667},{"id":375205,"name":"bagota","country":"cf","lat":3.7666667,"lon":17.55},{"id":378924,"name":"m\u0027ba","country":"cf","lat":4.4166667,"lon":17.7833333},{"id":379203,"name":"ndangala","country":"cf","lat":4.3166667,"lon":18.3666667},{"id":375303,"name":"bale","country":"cf","lat":3.9166667,"lon":17.8166667},{"id":376443,"name":"bomango","country":"cf","lat":3.9166667,"lon":17.9},{"id":378694,"name":"loukondja","country":"cf","lat":3.6333333,"lon":18.0},{"id":375511,"name":"bangouma","country":"cf","lat":3.6333333,"lon":18.0166667},{"id":375179,"name":"bagandou","country":"cf","lat":3.7833333,"lon":17.85},{"id":378278,"name":"kelinga","country":"cf","lat":3.6833333,"lon":18.3333333},{"id":375524,"name":"bangui i","country":"cf","lat":3.9,"lon":18.0166667},{"id":379100,"name":"mo","country":"cf","lat":4.35,"lon":18.1},{"id":376853,"name":"boukama","country":"cf","lat":4.15,"lon":17.7166667},{"id":376903,"name":"boumbe","country":"cf","lat":4.1166667,"lon":18.25},{"id":379834,"name":"sagbado","country":"cf","lat":3.8666667,"lon":18.4666667},{"id":376160,"name":"bode","country":"cf","lat":4.3333333,"lon":17.9166667},{"id":375923,"name":"biami","country":"cf","lat":3.9666667,"lon":18.1666667},{"id":376697,"name":"boteke","country":"cf","lat":3.6333333,"lon":18.05},{"id":375845,"name":"bemina i","country":"cf","lat":3.9666667,"lon":17.7166667},{"id":376402,"name":"bokouma","country":"cf","lat":3.75,"lon":17.8666667},{"id":375071,"name":"babassoua","country":"cf","lat":3.9,"lon":18.15},{"id":379718,"name":"pissa","country":"cf","lat":4.0519444,"lon":18.1977778},{"id":380452,"name":"yombo","country":"cf","lat":4.2519444,"lon":18.4011111},{"id":376096,"name":"bobeti","country":"cf","lat":3.95,"lon":17.8666667},{"id":376503,"name":"bondjio","country":"cf","lat":4.1166667,"lon":17.7},{"id":376917,"name":"boundia","country":"cf","lat":4.4858333,"lon":18.3236111},{"id":380533,"name":"zende","country":"cf","lat":4.1866667,"lon":18.0711111},{"id":378508,"name":"kourou","country":"cf","lat":4.2666667,"lon":17.7666667},{"id":376678,"name":"bossongo ii","country":"cf","lat":4.2227778,"lon":18.2644444},{"id":376777,"name":"bouchia","country":"cf","lat":3.75,"lon":18.1666667},{"id":375819,"name":"belou","country":"cf","lat":3.8,"lon":18.0833333},{"id":376974,"name":"boussimba","country":"cf","lat":3.6833333,"lon":18.1666667},{"id":379510,"name":"ouakombo","country":"cf","lat":3.8833333,"lon":17.95},{"id":378684,"name":"loko","country":"cf","lat":3.6333333,"lon":18.0333333},{"id":377791,"name":"gebe","country":"cf","lat":4.3452778,"lon":18.0352778},{"id":380279,"name":"yabila","country":"cf","lat":4.2833333,"lon":17.8666667},{"id":376472,"name":"bombolo","country":"cf","lat":3.8833333,"lon":18.4833333},{"id":378152,"name":"kaka","country":"cf","lat":3.65,"lon":17.9666667},{"id":376091,"name":"bobele ii","country":"cf","lat":4.0333333,"lon":18.3833333},{"id":376088,"name":"bobeke","country":"cf","lat":3.9166667,"lon":18.1833333},{"id":375363,"name":"bambiti","country":"cf","lat":4.1833333,"lon":17.6666667},{"id":379907,"name":"sebala","country":"cf","lat":4.1327778,"lon":18.3897222},{"id":378981,"name":"mbokassa","country":"cf","lat":4.15,"lon":18.25},{"id":379698,"name":"pesselle","country":"cf","lat":4.2,"lon":18.25},{"id":386438,"name":"sandjala","country":"cg","lat":3.6833333,"lon":17.5666667},{"id":379015,"name":"mbousi","country":"cf","lat":4.3169444,"lon":18.1194444},{"id":380280,"name":"yabimbo","country":"cf","lat":4.1080556,"lon":18.3938889},{"id":378236,"name":"karaoua","country":"cf","lat":4.1666667,"lon":18.05},{"id":379340,"name":"ngoro","country":"cf","lat":4.4666667,"lon":17.9},{"id":379968,"name":"singa","country":"cf","lat":3.7333333,"lon":18.2},{"id":379729,"name":"pokoli","country":"cf","lat":4.45,"lon":17.55},{"id":380309,"name":"yaka","country":"cf","lat":4.1261111,"lon":18.245},{"id":376379,"name":"bokopi","country":"cf","lat":3.6166667,"lon":18.1666667},{"id":380572,"name":"zondo","country":"cf","lat":4.3,"lon":18.2833333},{"id":376916,"name":"boundara","country":"cf","lat":3.9333333,"lon":18.2166667},{"id":378923,"name":"mba","country":"cf","lat":4.1666667,"lon":17.7},{"id":375846,"name":"bemina ii","country":"cf","lat":3.9833333,"lon":17.7},{"id":376037,"name":"boaka","country":"cf","lat":4.0333333,"lon":17.8333333},{"id":377035,"name":"boyoba","country":"cf","lat":3.75,"lon":18.1333333},{"id":376679,"name":"bossongo-manaï¿½uvres","country":"cf","lat":4.205,"lon":18.2547222},{"id":378975,"name":"mbi","country":"cf","lat":4.0166667,"lon":18.0666667},{"id":375518,"name":"banguele","country":"cf","lat":3.9166667,"lon":18.0},{"id":376331,"name":"bohomandji","country":"cf","lat":3.9166667,"lon":18.2},{"id":377002,"name":"bouzele","country":"cf","lat":4.4166667,"lon":18.4166667},{"id":377674,"name":"gale","country":"cf","lat":4.2833333,"lon":17.5166667},{"id":376089,"name":"bobele","country":"cf","lat":4.0166667,"lon":18.4166667},{"id":379273,"name":"ngabo","country":"cf","lat":3.6333333,"lon":18.25},{"id":376057,"name":"bobadoule","country":"cf","lat":4.4530556,"lon":18.025},{"id":379836,"name":"sakai","country":"cf","lat":4.4158333,"lon":18.4716667},{"id":377382,"name":"dimbanga","country":"cf","lat":4.32,"lon":18.175},{"id":378126,"name":"kabou","country":"cf","lat":4.2905556,"lon":18.2825},{"id":377022,"name":"boyama","country":"cf","lat":4.1,"lon":18.2333333},{"id":376909,"name":"boumoroto","country":"cf","lat":3.7,"lon":18.15},{"id":380425,"name":"yatigamba","country":"cf","lat":4.35,"lon":18.4833333},{"id":379131,"name":"motouka","country":"cf","lat":3.9166667,"lon":17.8833333},{"id":376570,"name":"bonguele","country":"cf","lat":4.0241667,"lon":18.0566667},{"id":379848,"name":"sakpa i","country":"cf","lat":4.3166667,"lon":18.4833333},{"id":376620,"name":"bosako","country":"cf","lat":4.2166667,"lon":17.85},{"id":374983,"name":"ancien bakani","country":"cf","lat":3.9333333,"lon":18.35},{"id":375968,"name":"bimo","country":"cf","lat":4.3333333,"lon":18.3166667},{"id":378901,"name":"mbaiki","country":"cf","lat":3.8833333,"lon":18.0},{"id":379113,"name":"mongounda","country":"cf","lat":4.0386111,"lon":18.0238889},{"id":376250,"name":"bogbade","country":"cf","lat":4.4666667,"lon":18.25},{"id":380049,"name":"talo","country":"cf","lat":4.2552778,"lon":18.4980556},{"id":378309,"name":"kinga","country":"cf","lat":3.7666667,"lon":17.7166667},{"id":376672,"name":"bossindo","country":"cf","lat":3.6333333,"lon":18.0666667},{"id":377016,"name":"boyali","country":"cf","lat":4.0833333,"lon":18.2333333},{"id":379218,"name":"ndengue","country":"cf","lat":4.2452778,"lon":18.2516667},{"id":375382,"name":"banaza","country":"cf","lat":4.1666667,"lon":17.95},{"id":376248,"name":"bogaye","country":"cf","lat":4.05,"lon":17.8333333},{"id":376759,"name":"boubangui","country":"cf","lat":4.05,"lon":18.1166667},{"id":376710,"name":"botoko","country":"cf","lat":4.05,"lon":18.1},{"id":377026,"name":"boyarie","country":"cf","lat":3.6833333,"lon":18.45},{"id":378991,"name":"mboma","country":"cf","lat":4.0333333,"lon":18.0666667},{"id":376526,"name":"bongamo","country":"cf","lat":4.2666667,"lon":18.2833333},{"id":378605,"name":"lebe i","country":"cf","lat":3.8,"lon":17.5166667},{"id":377155,"name":"chef omo","country":"cf","lat":4.2355556,"lon":18.2727778},{"id":379927,"name":"seoundou","country":"cf","lat":4.0775,"lon":18.3533333},{"id":378997,"name":"mboola","country":"cf","lat":4.4333333,"lon":18.2833333},{"id":376771,"name":"bouboua i","country":"cf","lat":4.1333333,"lon":17.7333333},{"id":376241,"name":"bogani","country":"cf","lat":3.8833333,"lon":18.4333333},{"id":377295,"name":"dede","country":"cf","lat":3.8666667,"lon":18.0166667},{"id":376673,"name":"bossobo","country":"cf","lat":4.0166667,"lon":17.6166667},{"id":376424,"name":"bollamba","country":"cf","lat":4.0,"lon":17.6},{"id":379970,"name":"sinzongo","country":"cf","lat":4.0666667,"lon":18.2166667},{"id":376470,"name":"bombo","country":"cf","lat":4.3,"lon":17.5},{"id":378735,"name":"madoukou","country":"cf","lat":3.7666667,"lon":17.5166667},{"id":378630,"name":"libota","country":"cf","lat":3.7833333,"lon":17.6},{"id":377789,"name":"gbope","country":"cf","lat":4.2052778,"lon":18.3897222},{"id":379917,"name":"sekia","country":"cf","lat":4.3166667,"lon":18.4166667},{"id":376944,"name":"bounzakou","country":"cf","lat":4.3666667,"lon":17.75},{"id":378996,"name":"mbongote","country":"cf","lat":4.25,"lon":18.2833333},{"id":375338,"name":"bamango","country":"cf","lat":4.0333333,"lon":17.8833333},{"id":375404,"name":"bande","country":"cf","lat":4.3666667,"lon":17.9333333},{"id":375352,"name":"bambare","country":"cf","lat":4.2166667,"lon":17.5833333},{"id":377101,"name":"bukoko","country":"cf","lat":3.9,"lon":17.9333333}]});