callback({"markets":[{"id":1292656,"name":"tengkuulu","country":"id","lat":0.48379,"lon":120.27291},{"id":1133593,"name":"alau","country":"id","lat":0.44343,"lon":120.3309},{"id":1175664,"name":"eas","country":"id","lat":-0.02,"lon":119.902},{"id":1279649,"name":"somel","country":"id","lat":0.2488,"lon":119.9015},{"id":1277866,"name":"siroea","country":"id","lat":0.2148,"lon":119.8638},{"id":1275737,"name":"silambea","country":"id","lat":0.433333,"lon":120.316667},{"id":1226125,"name":"marisa","country":"id","lat":0.2475,"lon":120.1785},{"id":1304284,"name":"walandano","country":"id","lat":-0.1293,"lon":119.7644},{"id":1223972,"name":"malonas","country":"id","lat":0.258,"lon":119.9045},{"id":1227996,"name":"membusul","country":"id","lat":0.4503,"lon":120.2925},{"id":1274022,"name":"siaga","country":"id","lat":0.038,"lon":120.0999},{"id":1173126,"name":"dongkas","country":"id","lat":0.358,"lon":120.2558},{"id":1192001,"name":"kaeli","country":"id","lat":0.4,"lon":120.2736},{"id":1238881,"name":"ogoloangkai","country":"id","lat":0.0747,"lon":119.8905},{"id":1298852,"name":"tolole","country":"id","lat":-0.4929,"lon":120.0464},{"id":1279820,"name":"songka","country":"id","lat":0.40479,"lon":120.29362},{"id":1173102,"name":"donggoeloe","country":"id","lat":-0.2532,"lon":120.0045},{"id":1275569,"name":"sikea","country":"id","lat":-0.0084,"lon":119.8883},{"id":1149792,"name":"binomo","country":"id","lat":0.3764,"lon":119.8735},{"id":1226377,"name":"masang","country":"id","lat":0.1166,"lon":119.8742},{"id":1223765,"name":"malawa","country":"id","lat":0.0141,"lon":119.8854},{"id":1136155,"name":"baal","country":"id","lat":0.47679,"lon":120.34019},{"id":1259564,"name":"pulosu","country":"id","lat":0.4793,"lon":119.905},{"id":1242831,"name":"pambero","country":"id","lat":0.3,"lon":119.9},{"id":1140425,"name":"bandungan","country":"id","lat":0.49563,"lon":120.42287},{"id":1173118,"name":"dongkalang","country":"id","lat":0.1629,"lon":120.1222},{"id":1174972,"name":"dusunan","country":"id","lat":0.397,"lon":120.2873},{"id":1277486,"name":"siojong","country":"id","lat":0.2161,"lon":119.8994},{"id":1261631,"name":"ranangkali","country":"id","lat":-0.1251,"lon":119.9546},{"id":1230909,"name":"monggolondo","country":"id","lat":0.42388,"lon":120.30941},{"id":1238883,"name":"ogombongi","country":"id","lat":0.0643,"lon":120.1083},{"id":1252519,"name":"pepasilanang","country":"id","lat":0.4556,"lon":120.3598},{"id":1147873,"name":"bendojo","country":"id","lat":0.233333,"lon":120.15},{"id":1277074,"name":"sindosa","country":"id","lat":-0.4036,"lon":119.8036},{"id":1175663,"name":"eamo","country":"id","lat":0.4513,"lon":120.3481},{"id":1238889,"name":"ogoreno","country":"id","lat":0.47027,"lon":120.34591},{"id":1193201,"name":"kaliboeroe","country":"id","lat":-0.4554,"lon":119.7628},{"id":1154186,"name":"bosa","country":"id","lat":-0.1342,"lon":119.8302},{"id":1238879,"name":"ogolemo","country":"id","lat":0.2335,"lon":120.1613},{"id":1276013,"name":"silumbea","country":"id","lat":-0.0407,"lon":119.8834},{"id":1265232,"name":"roras","country":"id","lat":0.0792,"lon":119.893},{"id":1269067,"name":"sarindja","country":"id","lat":-0.3,"lon":119.75},{"id":1223903,"name":"malino","country":"id","lat":0.1159,"lon":119.865},{"id":1277618,"name":"sipi","country":"id","lat":-0.235,"lon":119.823},{"id":1274180,"name":"sibado","country":"id","lat":-0.2165,"lon":119.8283},{"id":1134543,"name":"ampibabo","country":"id","lat":-0.4526,"lon":120.0659},{"id":1298961,"name":"tombi selatan","country":"id","lat":-0.4516,"lon":120.019},{"id":1256181,"name":"polumele","country":"id","lat":0.4614,"lon":120.25938},{"id":1172114,"name":"djeramba","country":"id","lat":0.161389,"lon":120.122778},{"id":1173042,"name":"dompu","country":"id","lat":-0.2252,"lon":119.8291},{"id":1227921,"name":"meli","country":"id","lat":-0.0935,"lon":119.8483},{"id":1238885,"name":"ogomojolo","country":"id","lat":0.4951,"lon":120.4735},{"id":1218207,"name":"lengko","country":"id","lat":0.2859,"lon":120.2087},{"id":1153855,"name":"bontomariri","country":"id","lat":0.4633,"lon":119.971},{"id":1245760,"name":"papatolong","country":"id","lat":0.4827,"lon":120.28112},{"id":1153343,"name":"bondoyong","country":"id","lat":0.2259,"lon":120.1519},{"id":1288825,"name":"tanjungpadang","country":"id","lat":-0.231,"lon":119.8043},{"id":1289306,"name":"tape","country":"id","lat":0.1172,"lon":120.1163},{"id":1199733,"name":"kasimbar tengah","country":"id","lat":-0.1448,"lon":120.0307},{"id":1139317,"name":"balintuma","country":"id","lat":-0.2197,"lon":119.8079},{"id":1199925,"name":"katandona","country":"id","lat":-0.4224,"lon":119.8055},{"id":1152053,"name":"boeranga","country":"id","lat":-0.4081,"lon":120.0473},{"id":1298962,"name":"tombi","country":"id","lat":0.0564,"lon":120.1015},{"id":1216715,"name":"lebaksuren","country":"id","lat":-0.1122,"lon":119.9813},{"id":1149582,"name":"binaal","country":"id","lat":0.3359,"lon":120.239},{"id":1231394,"name":"mosing","country":"id","lat":-0.0088,"lon":120.0925},{"id":1246027,"name":"paranda","country":"id","lat":-0.0404,"lon":119.6208},{"id":1288133,"name":"tangkelai","country":"id","lat":0.0767,"lon":120.1066},{"id":1254832,"name":"p.k.m.t. sikara","country":"id","lat":-0.3207,"lon":119.7803},{"id":1157113,"name":"buntinga","country":"id","lat":-0.3759,"lon":119.7567},{"id":1190301,"name":"jonooge","country":"id","lat":-0.2492,"lon":119.818},{"id":1268538,"name":"santibaru","country":"id","lat":-0.1373,"lon":119.9906},{"id":1275863,"name":"silenggi","country":"id","lat":-0.0161,"lon":119.6742},{"id":1155242,"name":"budimukti","country":"id","lat":0.136,"lon":119.8967},{"id":1277751,"name":"siraurang","country":"id","lat":0.298,"lon":119.8884},{"id":1145019,"name":"batangmupil","country":"id","lat":0.2962,"lon":119.8951},{"id":1244811,"name":"panii","country":"id","lat":0.2144,"lon":119.93146},{"id":1217845,"name":"lemokasumba","country":"id","lat":0.3194,"lon":119.8608},{"id":1274290,"name":"sibeli","country":"id","lat":-0.2483,"lon":120.0035},{"id":1299064,"name":"tompis","country":"id","lat":-0.1394,"lon":120.033},{"id":1212858,"name":"laboehan","country":"id","lat":-0.233333,"lon":119.966667},{"id":1146764,"name":"beau","country":"id","lat":0.4769,"lon":120.4098},{"id":1223547,"name":"malabo","country":"id","lat":0.2814,"lon":120.2058},{"id":1254521,"name":"pinipao","country":"id","lat":0.133333,"lon":119.85},{"id":1274288,"name":"sibelia","country":"id","lat":0.3761,"lon":120.2735},{"id":1221021,"name":"lompio","country":"id","lat":-0.1971,"lon":119.8195},{"id":1277139,"name":"siney","country":"id","lat":0.0081,"lon":120.1015},{"id":1275849,"name":"silemba","country":"id","lat":-0.2553,"lon":120.0043},{"id":1245015,"name":"panjulati","country":"id","lat":-0.4087,"lon":119.7785},{"id":1277125,"name":"sinei","country":"id","lat":-0.02,"lon":120.0852},{"id":1275457,"name":"sija","country":"id","lat":0.289,"lon":120.1734},{"id":1305095,"name":"wara","country":"id","lat":-0.478056,"lon":119.765},{"id":1137557,"name":"babatona","country":"id","lat":0.4905,"lon":120.0118},{"id":1284918,"name":"taipa bawah","country":"id","lat":0.4838,"lon":120.0022},{"id":1232077,"name":"muktiagung","country":"id","lat":0.1534,"lon":119.9207},{"id":1153070,"name":"bolong","country":"id","lat":0.2416,"lon":120.1706},{"id":1266094,"name":"sadula","country":"id","lat":0.4877,"lon":120.0174},{"id":1277596,"name":"sipeso","country":"id","lat":-0.3671,"lon":119.7952},{"id":1173120,"name":"dongkalanmambu","country":"id","lat":0.4351,"lon":120.328},{"id":1196230,"name":"kampungtengah","country":"id","lat":-0.2579,"lon":120.0032},{"id":1257279,"name":"ponggerang","country":"id","lat":0.2396,"lon":119.9033},{"id":1278284,"name":"siusu","country":"id","lat":-0.4008,"lon":119.7654},{"id":1286610,"name":"tamogu","country":"id","lat":0.4945,"lon":120.4018},{"id":1275323,"name":"sigolang","country":"id","lat":-0.0223,"lon":120.0937},{"id":1257423,"name":"ponsalea","country":"id","lat":0.3041,"lon":120.2195},{"id":1294035,"name":"tintina","country":"id","lat":0.3215,"lon":119.9062},{"id":1279764,"name":"sone","country":"id","lat":-0.008611,"lon":120.0975},{"id":1280806,"name":"subintanag","country":"id","lat":0.445,"lon":120.3038},{"id":1223560,"name":"malag","country":"id","lat":0.4699,"lon":119.9628},{"id":1292719,"name":"tenombo","country":"id","lat":0.3892,"lon":120.2869},{"id":1212963,"name":"labuan","country":"id","lat":-0.0632,"lon":120.0358},{"id":1213592,"name":"laimanta","country":"id","lat":-0.173056,"lon":120.007778},{"id":1267302,"name":"sambaradi","country":"id","lat":0.383333,"lon":120.283333},{"id":1245763,"name":"papayasang","country":"id","lat":0.3399,"lon":120.2266},{"id":1299029,"name":"tomoli","country":"id","lat":-0.3802,"lon":120.0342},{"id":1297067,"name":"tjipuru","country":"id","lat":0.0831,"lon":119.8807},{"id":1254544,"name":"pinotu","country":"id","lat":-0.2674,"lon":120.0024},{"id":1227831,"name":"melanggo","country":"id","lat":0.145,"lon":120.1268},{"id":1274344,"name":"siboa","country":"id","lat":0.4994,"lon":120.028},{"id":1262326,"name":"rangga","country":"id","lat":-0.116,"lon":119.8411},{"id":1275261,"name":"sigenti","country":"id","lat":0.1271,"lon":120.1262},{"id":1242114,"name":"palasa","country":"id","lat":0.4822,"lon":120.4288},{"id":1221298,"name":"lonsung","country":"id","lat":0.0183,"lon":120.1005},{"id":1281787,"name":"sukawangi","country":"id","lat":0.3326,"lon":119.8895},{"id":1274192,"name":"sibaju","country":"id","lat":0.1014,"lon":119.8737},{"id":1298853,"name":"tolomalo","country":"id","lat":-0.492,"lon":119.7869},{"id":1274987,"name":"sidoot","country":"id","lat":-0.3132,"lon":120.0123},{"id":1238873,"name":"ogobu","country":"id","lat":0.3431,"lon":120.2398},{"id":1256221,"name":"pomoloeloe","country":"id","lat":-0.0731,"lon":119.7508},{"id":1285510,"name":"talembalemba","country":"id","lat":-0.1257,"lon":119.6905},{"id":1203243,"name":"kekeo","country":"id","lat":-0.1131,"lon":119.7807},{"id":1239169,"name":"ombo","country":"id","lat":-0.2882,"lon":119.777},{"id":1274404,"name":"sibualong","country":"id","lat":0.0551,"lon":119.8805},{"id":1223971,"name":"malonas empat","country":"id","lat":0.2491,"lon":119.9133},{"id":1289953,"name":"tawalo","country":"id","lat":-0.147,"lon":119.9845},{"id":1133659,"name":"alindaoe","country":"id","lat":-0.3542,"lon":119.7626},{"id":1276029,"name":"silutung","country":"id","lat":-0.0089,"lon":120.0497},{"id":1244603,"name":"pangkula","country":"id","lat":-0.2754,"lon":120.0055},{"id":1268651,"name":"sapang","country":"id","lat":0.1322,"lon":120.1253},{"id":1169188,"name":"dampalei","country":"id","lat":-0.2367,"lon":119.8019},{"id":1275972,"name":"siloo","country":"id","lat":0.2586,"lon":120.1915},{"id":1226477,"name":"masila","country":"id","lat":-0.338333,"lon":120.030278},{"id":1140655,"name":"bangkalang","country":"id","lat":0.1842,"lon":120.1219},{"id":1222356,"name":"lumbung","country":"id","lat":-0.1179,"lon":119.9696},{"id":1213322,"name":"laemanta","country":"id","lat":-0.1741,"lon":120.0084},{"id":1139314,"name":"balinggi dua","country":"id","lat":0.3516,"lon":119.9131},{"id":1286622,"name":"tampabajas","country":"id","lat":-0.3504,"lon":120.03},{"id":1139679,"name":"bamba","country":"id","lat":-0.3647,"lon":119.7544},{"id":1219710,"name":"limbosung","country":"id","lat":0.47419,"lon":119.94383},{"id":1246871,"name":"pasambi","country":"id","lat":0.45,"lon":120.0015},{"id":1277376,"name":"sinjalia","country":"id","lat":-0.1087,"lon":119.7912},{"id":1218092,"name":"lende","country":"id","lat":-0.1861,"lon":119.8185},{"id":1267595,"name":"sambote","country":"id","lat":0.0463,"lon":119.8789},{"id":1243176,"name":"panampai","country":"id","lat":-0.268,"lon":119.7854},{"id":1243911,"name":"pangalasiang","country":"id","lat":0.4827,"lon":119.906},{"id":1274305,"name":"sibera","country":"id","lat":-0.1724,"lon":119.8207},{"id":1226254,"name":"maros","country":"id","lat":0.4778,"lon":120.0548},{"id":1220987,"name":"lombok","country":"id","lat":0.3919,"lon":120.2788},{"id":1134022,"name":"aluma","country":"id","lat":0.2284,"lon":119.9354},{"id":1242112,"name":"palasa lambori","country":"id","lat":0.4861,"lon":120.4458},{"id":1215355,"name":"lantapan","country":"id","lat":0.4508,"lon":119.9703},{"id":1279517,"name":"solidu","country":"id","lat":-0.0433,"lon":120.0703},{"id":1274207,"name":"sibalida","country":"id","lat":0.1038,"lon":120.1001},{"id":1212769,"name":"labea","country":"id","lat":-0.1214,"lon":119.8329},{"id":1277746,"name":"siratang","country":"id","lat":0.252,"lon":119.9172},{"id":1276180,"name":"simasabi","country":"id","lat":0.3081,"lon":119.9103},{"id":1246057,"name":"paranggi","country":"id","lat":-0.4676,"lon":120.0627},{"id":1143710,"name":"bantayang","country":"id","lat":0.462,"lon":120.0163},{"id":1239190,"name":"omo","country":"id","lat":-0.0794,"lon":119.667},{"id":1146589,"name":"bayaba","country":"id","lat":0.4797,"lon":120.3639},{"id":1256248,"name":"pomulan","country":"id","lat":0.47068,"lon":120.37699},{"id":1299093,"name":"tompo","country":"id","lat":-0.0593,"lon":119.6407},{"id":1199601,"name":"karyamukti","country":"id","lat":0.1703,"lon":119.9319},{"id":1264920,"name":"rodo","country":"id","lat":0.25,"lon":119.866667},{"id":1217558,"name":"lembagu","country":"id","lat":-0.1668,"lon":120.0194},{"id":1212931,"name":"labuana","country":"id","lat":-0.1509,"lon":119.8046},{"id":1146592,"name":"baya","country":"id","lat":0.005,"lon":119.8864},{"id":1138051,"name":"bagis","country":"id","lat":-0.1293,"lon":120.0373},{"id":1227964,"name":"melui","country":"id","lat":-0.0715,"lon":119.856},{"id":1256117,"name":"polobuu","country":"id","lat":0.2063,"lon":120.143},{"id":1199640,"name":"kasambar","country":"id","lat":-0.1493,"lon":120.0308},{"id":1298566,"name":"toga","country":"id","lat":-0.485,"lon":120.0494},{"id":1302217,"name":"ulatan","country":"id","lat":0.4621,"lon":120.3777},{"id":1298964,"name":"tombi utara","country":"id","lat":-0.4496,"lon":120.021},{"id":1254208,"name":"pilampaya","country":"id","lat":-0.083333,"lon":120.0},{"id":1239557,"name":"ou","country":"id","lat":0.4603,"lon":119.9053},{"id":1143797,"name":"bantola","country":"id","lat":-0.016667,"lon":119.883333},{"id":1225059,"name":"maninili","country":"id","lat":0.0521,"lon":120.1077},{"id":1214355,"name":"lambonang","country":"id","lat":0.2279,"lon":119.9114},{"id":1287020,"name":"tanahruntuh","country":"id","lat":-0.0616,"lon":119.8658},{"id":1151369,"name":"bobalo","country":"id","lat":0.4308,"lon":120.3211},{"id":1274871,"name":"sidole","country":"id","lat":-0.4768,"lon":120.0356},{"id":1256164,"name":"poloto","country":"id","lat":0.2825,"lon":120.1883},{"id":1251472,"name":"pemukiman kembali masyarakat terasing pinayor","country":"id","lat":0.0935,"lon":119.8889},{"id":1277743,"name":"siraru","country":"id","lat":0.4311,"lon":119.8812},{"id":1266471,"name":"salag","country":"id","lat":0.25204,"lon":119.94889},{"id":1274342,"name":"siboalae","country":"id","lat":0.4854,"lon":120.2937},{"id":1299254,"name":"tonggolobibi","country":"id","lat":0.4797,"lon":119.9755},{"id":1148629,"name":"berendia","country":"id","lat":0.0,"lon":119.916667},{"id":1284937,"name":"taipan","country":"id","lat":0.466667,"lon":120.0},{"id":1278334,"name":"siweli","country":"id","lat":-0.0141,"lon":119.8859},{"id":1146621,"name":"bayang","country":"id","lat":0.3843,"lon":119.8819},{"id":1284938,"name":"taipaobal","country":"id","lat":0.4709,"lon":120.2711},{"id":1238891,"name":"ogotenge","country":"id","lat":-0.1272,"lon":120.0088},{"id":1284097,"name":"suranga","country":"id","lat":-0.1806,"lon":120.0048},{"id":1195053,"name":"kamonji","country":"id","lat":-0.1061,"lon":119.6779},{"id":1257535,"name":"popodi","country":"id","lat":-0.016667,"lon":119.666667},{"id":1144660,"name":"baru","country":"id","lat":-0.0609,"lon":119.8975},{"id":1134277,"name":"ambason","country":"id","lat":0.3254,"lon":120.2329},{"id":1225476,"name":"mapaga","country":"id","lat":-0.1173,"lon":119.8198},{"id":1139714,"name":"bambanipa","country":"id","lat":0.0018,"lon":120.0952},{"id":1191205,"name":"kabukabu","country":"id","lat":0.254167,"lon":120.177778},{"id":1136084,"name":"awisang","country":"id","lat":-0.0502,"lon":119.7402},{"id":1289903,"name":"taubu","country":"id","lat":-0.1352,"lon":119.7009},{"id":1244618,"name":"pangku","country":"id","lat":-0.4835,"lon":120.0277},{"id":1286449,"name":"tambulan","country":"id","lat":-0.083333,"lon":119.766667},{"id":1254326,"name":"pimpit","country":"id","lat":0.0291,"lon":120.082},{"id":1298273,"name":"tobue","country":"id","lat":-0.334,"lon":120.0223},{"id":1238901,"name":"ogu","country":"id","lat":0.2676,"lon":120.2021},{"id":1262959,"name":"rapodanda","country":"id","lat":-0.3207,"lon":120.0157},{"id":1284490,"name":"taada","country":"id","lat":-0.053056,"lon":120.038611},{"id":1230755,"name":"molopoga","country":"id","lat":0.2,"lon":120.133333},{"id":1175686,"name":"eeja","country":"id","lat":0.4481,"lon":120.3452},{"id":1277665,"name":"siputara","country":"id","lat":-0.3393,"lon":119.9891},{"id":1200751,"name":"kayutaba","country":"id","lat":-0.4181,"lon":119.7585},{"id":1286418,"name":"tambolong","country":"id","lat":0.1565,"lon":119.84512},{"id":1217573,"name":"lembahmukti","country":"id","lat":0.3437,"lon":119.904},{"id":1277780,"name":"sirerang","country":"id","lat":0.258,"lon":119.9366},{"id":1246330,"name":"paresang","country":"id","lat":0.15272,"lon":119.92761},{"id":1299749,"name":"towawa","country":"id","lat":-0.0435,"lon":120.0533},{"id":1242162,"name":"palau","country":"id","lat":-0.1028,"lon":119.7696},{"id":1254401,"name":"pinayor","country":"id","lat":0.087,"lon":119.8766},{"id":1205819,"name":"ketong","country":"id","lat":-0.0484,"lon":119.6286},{"id":1289867,"name":"tate","country":"id","lat":-0.1,"lon":119.666667},{"id":1154402,"name":"boya","country":"id","lat":-0.2551,"lon":119.7958},{"id":1256100,"name":"poli","country":"id","lat":0.0,"lon":120.0},{"id":1213262,"name":"lado","country":"id","lat":0.1794,"lon":120.1188},{"id":1139315,"name":"balinggi satu","country":"id","lat":0.3506,"lon":119.9054},{"id":1278340,"name":"siwia","country":"id","lat":-0.0202,"lon":119.6668},{"id":1225049,"name":"manimbaya","country":"id","lat":-0.0135,"lon":119.626},{"id":1225648,"name":"marantasi","country":"id","lat":0.188,"lon":120.1258},{"id":1220997,"name":"lombonga","country":"id","lat":-0.133,"lon":119.8085},{"id":1299525,"name":"toripaku","country":"id","lat":-0.3435,"lon":119.775},{"id":1138721,"name":"baku","country":"id","lat":-0.4257,"lon":119.7568},{"id":1268632,"name":"sao","country":"id","lat":-0.2586,"lon":119.8162},{"id":1157445,"name":"burogo","country":"id","lat":0.498,"lon":120.0214},{"id":1176457,"name":"fufugaong","country":"id","lat":0.47477,"lon":120.30602},{"id":1282176,"name":"sumalili","country":"id","lat":0.43589,"lon":119.96831},{"id":1252203,"name":"peningka","country":"id","lat":-0.1951,"lon":120.0046},{"id":1221430,"name":"loro","country":"id","lat":-0.35,"lon":119.766667},{"id":1213193,"name":"ladang kolawi","country":"id","lat":0.216667,"lon":119.933333},{"id":1257697,"name":"posona","country":"id","lat":-0.1053,"lon":120.0343},{"id":1222636,"name":"mabaas","country":"id","lat":0.352,"lon":120.2094},{"id":1264416,"name":"rerang","country":"id","lat":0.2927,"lon":119.8792},{"id":1232516,"name":"munte","country":"id","lat":0.4763,"lon":119.9266},{"id":1257774,"name":"potomoea","country":"id","lat":-0.05,"lon":119.966667},{"id":1293390,"name":"tibo","country":"id","lat":-0.4924,"lon":119.7657},{"id":1217850,"name":"lemo","country":"id","lat":0.0287,"lon":119.884},{"id":1287167,"name":"tanampedagi","country":"id","lat":-0.4904,"lon":120.0116},{"id":1219051,"name":"lewanu","country":"id","lat":-0.1388,"lon":119.7067},{"id":1242310,"name":"paleong","country":"id","lat":0.238,"lon":119.925},{"id":1212687,"name":"labalang","country":"id","lat":-0.1531,"lon":120.0286},{"id":1272975,"name":"sepayo","country":"id","lat":0.1848,"lon":120.1234},{"id":1285196,"name":"talaga","country":"id","lat":0.1985,"lon":119.8558},{"id":1277235,"name":"singgiliang","country":"id","lat":0.18872,"lon":119.89798},{"id":1275755,"name":"silangsa","country":"id","lat":0.3595,"lon":120.2062},{"id":1132429,"name":"abo","country":"id","lat":-0.1029,"lon":119.8496},{"id":1223797,"name":"malei","country":"id","lat":-0.122,"lon":119.6877},{"id":1301956,"name":"ujungbou","country":"id","lat":-0.2641,"lon":119.7884},{"id":1157764,"name":"bwool","country":"id","lat":0.1088,"lon":120.1111},{"id":1275137,"name":"sienjoi","country":"id","lat":-0.3108,"lon":120.012},{"id":1242095,"name":"palapi","country":"id","lat":-0.1268,"lon":120.016},{"id":1242132,"name":"palasa tangki","country":"id","lat":0.4774,"lon":120.4225},{"id":1274023,"name":"siage","country":"id","lat":0.1441,"lon":120.0957},{"id":1286612,"name":"tamoli","country":"id","lat":-0.389444,"lon":120.041111},{"id":1238871,"name":"ogobagis","country":"id","lat":0.2888,"lon":120.2002},{"id":1274709,"name":"sidoan","country":"id","lat":0.2765,"lon":120.204},{"id":1298335,"name":"todompi","country":"id","lat":-0.2288,"lon":120.0041},{"id":1240433,"name":"pada","country":"id","lat":-0.0368,"lon":120.0604},{"id":1262486,"name":"rano","country":"id","lat":-0.0433,"lon":119.7132},{"id":1281972,"name":"sukorejo","country":"id","lat":0.3412,"lon":119.8935},{"id":1265599,"name":"rumu","country":"id","lat":0.0396,"lon":119.882},{"id":1145332,"name":"batoesoeja","country":"id","lat":-0.4149,"lon":119.7654},{"id":1194912,"name":"kambayang","country":"id","lat":0.1414,"lon":119.8327},{"id":1284917,"name":"taipa atas","country":"id","lat":0.4573,"lon":119.9848},{"id":1299521,"name":"toribulu","country":"id","lat":-0.3172,"lon":120.0163},{"id":1147388,"name":"belangbelang","country":"id","lat":-0.2897,"lon":120.0101},{"id":1301905,"name":"ujuna","country":"id","lat":-0.2052,"lon":119.8133},{"id":1242133,"name":"palasa tengah","country":"id","lat":0.4825,"lon":120.433},{"id":1275237,"name":"sigega","country":"id","lat":0.15,"lon":120.0762}]});