callback({"markets":[{"id":416466,"name":"ndokminokon i","country":"cm","lat":4.3666667,"lon":10.45},{"id":411085,"name":"bonalea mandouka","country":"cm","lat":4.3458333,"lon":9.7344444},{"id":411223,"name":"bouea","country":"cm","lat":3.6586111,"lon":9.6422222},{"id":416764,"name":"ngombawasse","country":"cm","lat":4.065,"lon":9.5022222},{"id":418755,"name":"tinaso","country":"cm","lat":3.6186111,"lon":9.9572222},{"id":418466,"name":"so lopa","country":"cm","lat":3.6833333,"lon":10.25},{"id":416471,"name":"ndoknyam","country":"cm","lat":4.25,"lon":10.1666667},{"id":411120,"name":"bondapende","country":"cm","lat":4.4069444,"lon":9.8761111},{"id":415130,"name":"mbengue","country":"cm","lat":3.65,"lon":10.4166667},{"id":412480,"name":"eumba","country":"cm","lat":3.5666667,"lon":9.7},{"id":414228,"name":"logpom","country":"cm","lat":4.0875,"lon":9.7663889},{"id":411073,"name":"bona-daja","country":"cm","lat":4.2166667,"lon":9.65},{"id":411099,"name":"bonandjeng","country":"cm","lat":4.4136111,"lon":9.8958333},{"id":414266,"name":"longtoka","country":"cm","lat":4.4911111,"lon":9.9708333},{"id":410308,"name":"bangue","country":"cm","lat":4.1077778,"lon":9.7525},{"id":416481,"name":"ndokomouen","country":"cm","lat":4.4333333,"lon":10.15},{"id":415122,"name":"mbenga","country":"cm","lat":3.9666667,"lon":9.7666667},{"id":410390,"name":"bassa","country":"cm","lat":4.0569444,"lon":9.7477778},{"id":411067,"name":"bonabeke","country":"cm","lat":4.4719444,"lon":9.9708333},{"id":410980,"name":"bogbo","country":"cm","lat":4.0775,"lon":9.8541667},{"id":417486,"name":"nono","country":"cm","lat":4.2947222,"lon":9.8244444},{"id":417436,"name":"nkoungoue","country":"cm","lat":3.7983333,"lon":9.9030556},{"id":417710,"name":"okola","country":"cm","lat":3.6313889,"lon":9.9283333},{"id":415886,"name":"mokolo","country":"cm","lat":3.7402778,"lon":9.9513889},{"id":414527,"name":"malangue","country":"cm","lat":4.0711111,"lon":9.7561111},{"id":416597,"name":"new bell","country":"cm","lat":4.0352778,"lon":9.7169444},{"id":410822,"name":"bingando","country":"cm","lat":3.6766667,"lon":9.7411111},{"id":419062,"name":"yankouzok","country":"cm","lat":3.5933333,"lon":9.82},{"id":413896,"name":"koum","country":"cm","lat":4.4611111,"lon":9.7833333},{"id":411118,"name":"bonayamesse","country":"cm","lat":4.3958333,"lon":9.8752778},{"id":415944,"name":"mongombe","country":"cm","lat":3.8166667,"lon":10.1166667},{"id":411093,"name":"bonambwasse","country":"cm","lat":4.1569444,"lon":9.6738889},{"id":416105,"name":"mulanga","country":"cm","lat":4.15,"lon":9.55},{"id":416445,"name":"ndokbaemb","country":"cm","lat":4.3166667,"lon":10.4166667},{"id":414897,"name":"matong","country":"cm","lat":4.4833333,"lon":9.7833333},{"id":417416,"name":"nkoua","country":"cm","lat":3.7166667,"lon":10.1},{"id":415234,"name":"mbondjo ii","country":"cm","lat":4.2175,"lon":9.5241667},{"id":415046,"name":"mbanga","country":"cm","lat":3.6088889,"lon":9.8294444},{"id":410454,"name":"bayang","country":"cm","lat":3.6833333,"lon":10.4333333},{"id":412206,"name":"ekite","country":"cm","lat":3.7833333,"lon":10.0666667},{"id":411356,"name":"bwadibo","country":"cm","lat":4.0916667,"lon":9.5819444},{"id":411068,"name":"bonaberi","country":"cm","lat":4.0844444,"lon":9.6661111},{"id":416744,"name":"ngog woute","country":"cm","lat":3.5633333,"lon":9.9372222},{"id":413817,"name":"kostom","country":"cm","lat":3.5266667,"lon":9.6738889},{"id":410881,"name":"bissombe i","country":"cm","lat":4.0166667,"lon":10.1},{"id":417599,"name":"nya mbong","country":"cm","lat":3.7,"lon":9.7666667},{"id":411201,"name":"botonga","country":"cm","lat":3.5763889,"lon":9.6980556},{"id":411087,"name":"bonalembe","country":"cm","lat":4.4361111,"lon":9.945},{"id":416053,"name":"mouyouka i","country":"cm","lat":4.4641667,"lon":9.5675},{"id":412979,"name":"gongolo","country":"cm","lat":4.3166667,"lon":9.95},{"id":411071,"name":"bonabouab","country":"cm","lat":3.5777778,"lon":9.6477778},{"id":416815,"name":"ngori","country":"cm","lat":3.9863889,"lon":9.7886111},{"id":414101,"name":"lebe","country":"cm","lat":4.1019444,"lon":9.6491667},{"id":410552,"name":"bell","country":"cm","lat":4.05,"lon":9.7166667},{"id":413903,"name":"kounang","country":"cm","lat":4.3397222,"lon":9.7855556},{"id":411063,"name":"bomono ba mbengue","country":"cm","lat":4.1441667,"lon":9.5888889},{"id":416022,"name":"moundja moussadi","country":"cm","lat":4.25,"lon":9.8022222},{"id":419017,"name":"yadibo ii","country":"cm","lat":3.6677778,"lon":9.7816667},{"id":417339,"name":"nkom","country":"cm","lat":4.0,"lon":10.1833333},{"id":416598,"name":"new bonako","country":"cm","lat":4.1477778,"lon":9.5066667},{"id":412067,"name":"eben","country":"cm","lat":3.6022222,"lon":9.7313889},{"id":411064,"name":"bomono gare","country":"cm","lat":4.175,"lon":9.6013889},{"id":419018,"name":"yadibo i","country":"cm","lat":3.6666667,"lon":9.8166667},{"id":416416,"name":"ndobeginge i","country":"cm","lat":4.4,"lon":10.1666667},{"id":411098,"name":"bonandika","country":"cm","lat":4.3530556,"lon":9.7411111},{"id":417411,"name":"nkouabaye","country":"cm","lat":3.63,"lon":9.9138889},{"id":419051,"name":"yandom","country":"cm","lat":4.1836111,"lon":9.6727778},{"id":411106,"name":"bonangole","country":"cm","lat":4.4333333,"lon":9.9666667},{"id":414918,"name":"mayen","country":"cm","lat":4.2883333,"lon":9.6391667},{"id":415951,"name":"monoka","country":"cm","lat":4.1691667,"lon":9.5622222},{"id":411081,"name":"bonako-mungo","country":"cm","lat":4.1,"lon":9.5333333},{"id":409945,"name":"babenga","country":"cm","lat":4.11,"lon":9.5708333},{"id":1797226,"name":"bonambassi","country":"ml","lat":4.3177778,"lon":9.8372222},{"id":418274,"name":"samabouea","country":"cm","lat":3.6477778,"lon":9.6452778},{"id":415699,"name":"miang","country":"cm","lat":4.2941667,"lon":9.7041667},{"id":417598,"name":"nya mben","country":"cm","lat":3.7166667,"lon":9.7666667},{"id":418443,"name":"sodiko","country":"cm","lat":4.1202778,"lon":9.6655556},{"id":414248,"name":"lombe","country":"cm","lat":3.6338889,"lon":9.9861111},{"id":414436,"name":"mahohi","country":"cm","lat":4.1044444,"lon":9.8413889},{"id":414333,"name":"mabanga","country":"cm","lat":4.2130556,"lon":9.6638889},{"id":412474,"name":"etouha","country":"cm","lat":3.6666667,"lon":10.3},{"id":410305,"name":"bangseng","country":"cm","lat":4.4230556,"lon":9.7791667},{"id":411128,"name":"bonebanda","country":"cm","lat":4.1644444,"lon":9.5313889},{"id":413991,"name":"kwoussi","country":"cm","lat":4.35,"lon":9.7666667},{"id":411135,"name":"bonepoupa","country":"cm","lat":4.0833333,"lon":10.0333333},{"id":417052,"name":"nkangaak","country":"cm","lat":3.6447222,"lon":9.7675},{"id":412084,"name":"eboga","country":"cm","lat":3.7413889,"lon":9.7897222},{"id":418289,"name":"sandje","country":"cm","lat":3.8291667,"lon":9.6011111},{"id":411116,"name":"bonasson","country":"cm","lat":4.1047222,"lon":9.5372222},{"id":416799,"name":"ngonga","country":"cm","lat":4.0666667,"lon":10.3666667},{"id":416440,"name":"ndokama","country":"cm","lat":4.25,"lon":10.0833333},{"id":419077,"name":"yassouka","country":"cm","lat":4.195,"lon":9.7266667},{"id":414901,"name":"matounga","country":"cm","lat":3.8,"lon":10.2},{"id":417498,"name":"npombo","country":"cm","lat":3.6166667,"lon":9.7666667},{"id":410393,"name":"bassa ndokati","country":"cm","lat":4.0833333,"lon":9.7},{"id":411115,"name":"bona sedi","country":"cm","lat":4.1833333,"lon":9.6833333},{"id":415156,"name":"mbiako","country":"cm","lat":3.5905556,"lon":9.6416667},{"id":416046,"name":"moutangari","country":"cm","lat":3.9666667,"lon":9.5333333},{"id":413691,"name":"kombiang","country":"cm","lat":4.2277778,"lon":9.6308333},{"id":416000,"name":"moukoume","country":"cm","lat":3.7522222,"lon":9.6025},{"id":411137,"name":"boneyan","country":"cm","lat":4.32,"lon":9.7352778},{"id":414309,"name":"loungahe","country":"cm","lat":4.0,"lon":10.0},{"id":419030,"name":"yalou","country":"cm","lat":3.6833333,"lon":9.7833333},{"id":409640,"name":"akwa","country":"cm","lat":4.05,"lon":9.7},{"id":413730,"name":"konbe i","country":"cm","lat":3.585,"lon":9.9244444},{"id":413773,"name":"kongwe","country":"cm","lat":4.1219444,"lon":9.5241667},{"id":416363,"name":"ndikdoum","country":"cm","lat":4.1,"lon":10.0833333},{"id":415714,"name":"mikine man","country":"cm","lat":3.8666667,"lon":10.1333333},{"id":418527,"name":"soudjoume","country":"cm","lat":3.9833333,"lon":10.1666667},{"id":414763,"name":"mapan","country":"cm","lat":3.7333333,"lon":10.2166667},{"id":419073,"name":"yasika","country":"cm","lat":3.9725,"lon":9.8155556},{"id":415279,"name":"mboumas","country":"cm","lat":3.6166667,"lon":10.0},{"id":415225,"name":"mbomboo","country":"cm","lat":4.3619444,"lon":9.7375},{"id":418530,"name":"souellaba","country":"cm","lat":3.8111111,"lon":9.5483333},{"id":411062,"name":"bomono ba djerou","country":"cm","lat":4.1588889,"lon":9.6147222},{"id":413387,"name":"kagendjok","country":"cm","lat":3.8333333,"lon":10.4333333},{"id":415294,"name":"mboussa sengue","country":"cm","lat":4.0205556,"lon":9.6702778},{"id":414393,"name":"madouma","country":"cm","lat":3.7402778,"lon":9.8688889},{"id":418136,"name":"pongo-songo","country":"cm","lat":3.6166667,"lon":9.9333333},{"id":411089,"name":"bonamakita","country":"cm","lat":4.3397222,"lon":9.8452778},{"id":416074,"name":"mpobo","country":"cm","lat":4.4386111,"lon":9.7816667},{"id":418403,"name":"simben","country":"cm","lat":4.25,"lon":10.0666667},{"id":414323,"name":"lycee","country":"cm","lat":4.0916667,"lon":9.6675},{"id":414631,"name":"mandiba","country":"cm","lat":4.3688889,"lon":9.8763889},{"id":414875,"name":"matanda","country":"cm","lat":3.9408333,"lon":9.6747222},{"id":416438,"name":"ndokak","country":"cm","lat":4.4166667,"lon":10.0833333},{"id":413827,"name":"koto ii","country":"cm","lat":4.3722222,"lon":9.5425},{"id":416478,"name":"ndokok","country":"cm","lat":3.8333333,"lon":10.2833333},{"id":414226,"name":"logoto","country":"cm","lat":3.7083333,"lon":9.7444444},{"id":417877,"name":"ouingok","country":"cm","lat":3.9666667,"lon":10.1166667},{"id":416952,"name":"niangaru","country":"cm","lat":3.8544444,"lon":9.6408333},{"id":414310,"name":"loungan","country":"cm","lat":3.9166667,"lon":10.1333333},{"id":411570,"name":"dikola","country":"cm","lat":3.7252778,"lon":9.9136111},{"id":417063,"name":"nkapa","country":"cm","lat":4.2180556,"lon":9.6108333},{"id":418580,"name":"syo syo","country":"cm","lat":3.855,"lon":9.74},{"id":416075,"name":"mpolbe","country":"cm","lat":3.5886111,"lon":9.9930556},{"id":411357,"name":"bwanda","country":"cm","lat":4.4025,"lon":9.8722222},{"id":411079,"name":"bonakata","country":"cm","lat":4.4266667,"lon":9.9311111},{"id":418477,"name":"song bitomb","country":"cm","lat":3.9666667,"lon":10.4166667},{"id":415972,"name":"mouangko","country":"cm","lat":3.6397222,"lon":9.7769444},{"id":416452,"name":"ndokbele","country":"cm","lat":4.445,"lon":9.9797222},{"id":411092,"name":"bonamboule","country":"cm","lat":4.3191667,"lon":9.7252778},{"id":413746,"name":"kondjok","country":"cm","lat":4.0538889,"lon":9.8605556},{"id":414255,"name":"londo","country":"cm","lat":4.2666667,"lon":9.7},{"id":414223,"name":"log mbo","country":"cm","lat":4.45,"lon":10.4833333},{"id":416423,"name":"ndog bam","country":"cm","lat":3.7811111,"lon":9.8558333},{"id":415590,"name":"messondo","country":"cm","lat":3.6833333,"lon":10.4833333},{"id":413437,"name":"kamba","country":"cm","lat":3.5611111,"lon":9.6583333},{"id":414826,"name":"masok","country":"cm","lat":4.1333333,"lon":10.4666667},{"id":411145,"name":"bongo","country":"cm","lat":4.2263889,"lon":9.7244444},{"id":415833,"name":"missaka","country":"cm","lat":4.1902778,"lon":9.5130556},{"id":411104,"name":"bonangang","country":"cm","lat":4.1086111,"lon":9.7416667},{"id":412388,"name":"epolo","country":"cm","lat":3.6427778,"lon":9.7994444},{"id":414302,"name":"loume","country":"cm","lat":3.7791667,"lon":9.5727778},{"id":414554,"name":"malimbe","country":"cm","lat":3.9,"lon":10.1},{"id":413785,"name":"koo","country":"cm","lat":3.9769444,"lon":9.6402778},{"id":410562,"name":"bemenge","country":"cm","lat":3.66,"lon":9.7927778},{"id":412014,"name":"dusat","country":"cm","lat":4.1,"lon":10.4166667},{"id":416769,"name":"ngombe","country":"cm","lat":4.2208333,"lon":9.775},{"id":410973,"name":"bodjongo","country":"cm","lat":4.0894444,"lon":9.62},{"id":416048,"name":"moutimbelembe","country":"cm","lat":4.2580556,"lon":9.8169444},{"id":411103,"name":"bonangando","country":"cm","lat":4.1486111,"lon":9.6666667},{"id":415016,"name":"mbalmayo","country":"cm","lat":3.7236111,"lon":9.955},{"id":412320,"name":"elog nsogwouti","country":"cm","lat":3.675,"lon":9.7355556},{"id":416132,"name":"mussoko","country":"cm","lat":4.2586111,"lon":9.7202778},{"id":411102,"name":"bonanga","country":"cm","lat":4.3863889,"lon":9.8730556},{"id":416947,"name":"niamtam","country":"cm","lat":4.4833333,"lon":10.1833333},{"id":411061,"name":"bomkoul","country":"cm","lat":4.0958333,"lon":9.7966667},{"id":411398,"name":"cotto","country":"cm","lat":4.1833333,"lon":9.6333333},{"id":410561,"name":"bembo","country":"cm","lat":3.5702778,"lon":9.7041667},{"id":411363,"name":"bwene","country":"cm","lat":4.2972222,"lon":9.8302778},{"id":411122,"name":"bondjadi","country":"cm","lat":3.5925,"lon":9.7441667},{"id":415235,"name":"mbondjo i","country":"cm","lat":4.2297222,"lon":9.5475},{"id":416425,"name":"ndog bong","country":"cm","lat":3.7155556,"lon":9.8591667},{"id":417709,"name":"okokong","country":"cm","lat":3.6125,"lon":9.8652778},{"id":411158,"name":"bonikwe","country":"cm","lat":4.3666667,"lon":9.8833333},{"id":416420,"name":"ndobo","country":"cm","lat":4.1025,"lon":9.6302778},{"id":416770,"name":"ngombi","country":"cm","lat":3.6169444,"lon":9.99},{"id":411040,"name":"bolunga","country":"cm","lat":3.5966667,"lon":9.6944444},{"id":418254,"name":"sakimbanda","country":"cm","lat":3.8369444,"lon":9.8886111},{"id":417374,"name":"nkongminom","country":"cm","lat":4.345,"lon":9.5913889},{"id":415119,"name":"mbenbou","country":"cm","lat":3.7708333,"lon":9.8752778},{"id":414585,"name":"mambanda","country":"cm","lat":4.0725,"lon":9.65},{"id":416465,"name":"ndokminokon ii","country":"cm","lat":4.4,"lon":10.3833333},{"id":419013,"name":"yabazi","country":"cm","lat":4.4544444,"lon":9.9655556},{"id":416830,"name":"ngoue","country":"cm","lat":3.8333333,"lon":10.4833333},{"id":419052,"name":"yandoungou","country":"cm","lat":4.1755556,"lon":9.6938889},{"id":411794,"name":"djopongo","country":"cm","lat":4.1972222,"lon":9.5086111},{"id":409801,"name":"apou","country":"cm","lat":3.6166667,"lon":10.1166667},{"id":410114,"name":"bakongkom","country":"cm","lat":4.3172222,"lon":9.6830556},{"id":410996,"name":"bohengue","country":"cm","lat":3.5722222,"lon":9.7197222},{"id":416114,"name":"mungo","country":"cm","lat":4.1102778,"lon":9.5372222},{"id":414789,"name":"marienberg","country":"cm","lat":3.6222222,"lon":9.8625},{"id":414857,"name":"massoumbou carrefour","country":"cm","lat":4.1269444,"lon":9.8275},{"id":417777,"name":"oniange","country":"cm","lat":3.7505556,"lon":9.6666667},{"id":413560,"name":"kelle ndongong","country":"cm","lat":3.75,"lon":10.3833333},{"id":412383,"name":"epasi","country":"cm","lat":3.8294444,"lon":9.6908333},{"id":411807,"name":"djoukou","country":"cm","lat":4.1333333,"lon":9.9833333},{"id":419014,"name":"yabea","country":"cm","lat":4.2069444,"lon":9.72},{"id":415068,"name":"mbanjako","country":"cm","lat":4.4333333,"lon":9.95},{"id":411174,"name":"boro","country":"cm","lat":4.2,"lon":9.8666667},{"id":416453,"name":"ndokbelle","country":"cm","lat":4.45,"lon":10.0166667},{"id":411361,"name":"bwelelo","country":"cm","lat":4.1666667,"lon":9.6666667},{"id":418482,"name":"song-jei\u0027s","country":"cm","lat":3.7,"lon":10.4},{"id":410281,"name":"bang","country":"cm","lat":4.25,"lon":10.2833333},{"id":414220,"name":"logbessou","country":"cm","lat":4.0833333,"lon":9.7927778},{"id":411130,"name":"bonekoule","country":"cm","lat":4.3352778,"lon":9.8497222},{"id":417041,"name":"nkaganzogou","country":"cm","lat":3.6333333,"lon":9.7833333},{"id":411037,"name":"boloundo","country":"cm","lat":3.8,"lon":9.5666667},{"id":411549,"name":"dibombari","country":"cm","lat":4.1816667,"lon":9.645},{"id":410458,"name":"bayis","country":"cm","lat":4.1119444,"lon":9.8133333},{"id":411202,"name":"botoude","country":"cm","lat":3.6180556,"lon":9.7733333},{"id":416433,"name":"ndogtounga","country":"cm","lat":3.6533333,"lon":9.7913889},{"id":410252,"name":"bandjou","country":"cm","lat":4.2975,"lon":9.6711111},{"id":418450,"name":"so hianga","country":"cm","lat":3.6,"lon":10.4333333},{"id":411538,"name":"diang","country":"cm","lat":4.25,"lon":10.0166667},{"id":417500,"name":"nsake","country":"cm","lat":4.4044444,"lon":9.895},{"id":411117,"name":"bonayamalimbe","country":"cm","lat":4.4186111,"lon":9.92},{"id":416052,"name":"mouyouka ii","country":"cm","lat":4.4436111,"lon":9.5630556},{"id":411359,"name":"bwape","country":"cm","lat":4.0308333,"lon":9.6205556},{"id":413703,"name":"kombo mianjou","country":"cm","lat":3.9730556,"lon":9.5341667},{"id":414222,"name":"loghoui","country":"cm","lat":3.8294444,"lon":9.8872222},{"id":416199,"name":"mwanyambe","country":"cm","lat":4.3905556,"lon":9.7183333},{"id":416506,"name":"ndonga","country":"cm","lat":3.8466667,"lon":9.865},{"id":414696,"name":"mangoule","country":"cm","lat":4.1502778,"lon":9.9538889},{"id":411578,"name":"dikouma","country":"cm","lat":4.4916667,"lon":9.5538889},{"id":413695,"name":"kombo dongo","country":"cm","lat":3.9191667,"lon":9.715},{"id":410514,"name":"bekoko","country":"cm","lat":4.1172222,"lon":9.5758333},{"id":411124,"name":"bondjo","country":"cm","lat":4.2705556,"lon":9.795},{"id":416218,"name":"nachtigal bekeke","country":"cm","lat":4.3611111,"lon":9.5022222},{"id":411091,"name":"bonamatoumbe","country":"cm","lat":4.1144444,"lon":9.6777778},{"id":414553,"name":"malimba","country":"cm","lat":3.5388889,"lon":9.6505556},{"id":413704,"name":"kombo missipi","country":"cm","lat":3.9438889,"lon":9.6958333},{"id":413705,"name":"kombo-moukenda","country":"cm","lat":4.0252778,"lon":9.5511111},{"id":410628,"name":"betombo","country":"cm","lat":3.8,"lon":10.1666667},{"id":409423,"name":"abe","country":"cm","lat":3.65,"lon":9.8166667},{"id":410608,"name":"besoung kang","country":"cm","lat":4.3666667,"lon":9.75},{"id":414129,"name":"lendi","country":"cm","lat":4.1286111,"lon":9.7727778},{"id":412280,"name":"ekouyak","country":"cm","lat":3.65,"lon":10.1166667},{"id":415994,"name":"moukala tanda","country":"cm","lat":4.0122222,"lon":9.5752778},{"id":412446,"name":"etalombo","country":"cm","lat":3.5080556,"lon":9.6941667},{"id":416494,"name":"ndole","country":"cm","lat":4.0608333,"lon":9.88},{"id":411159,"name":"bonindi","country":"cm","lat":4.2830556,"lon":9.8227778},{"id":411555,"name":"diboumbou","country":"cm","lat":3.7833333,"lon":10.1},{"id":415038,"name":"mbanda","country":"cm","lat":3.7975,"lon":9.8822222},{"id":413833,"name":"kotto","country":"cm","lat":3.6397222,"lon":9.9575},{"id":411550,"name":"dibombe","country":"cm","lat":4.3658333,"lon":9.8625},{"id":411095,"name":"bonamone","country":"cm","lat":4.1086111,"lon":9.5427778},{"id":411508,"name":"dene","country":"cm","lat":4.3066667,"lon":9.8369444},{"id":413731,"name":"konbe","country":"cm","lat":3.575,"lon":9.9211111},{"id":417522,"name":"nsepe","country":"cm","lat":3.6666667,"lon":9.9666667},{"id":411454,"name":"daniel","country":"cm","lat":3.8333333,"lon":10.1166667},{"id":416760,"name":"ngoma","country":"cm","lat":4.1175,"lon":9.7858333},{"id":418460,"name":"sok","country":"cm","lat":4.2666667,"lon":10.0833333},{"id":415824,"name":"minyame","country":"cm","lat":3.8,"lon":9.6},{"id":418727,"name":"tieng","country":"cm","lat":4.2333333,"lon":10.0},{"id":410906,"name":"bitoutouk","country":"cm","lat":3.65,"lon":10.25},{"id":411136,"name":"bonepoupa ii","country":"cm","lat":4.1533333,"lon":9.9930556},{"id":411621,"name":"dizangue","country":"cm","lat":3.7666667,"lon":9.9833333},{"id":416941,"name":"niala","country":"cm","lat":4.0411111,"lon":9.7611111},{"id":411224,"name":"boueko","country":"cm","lat":4.2666667,"lon":10.1},{"id":411553,"name":"dibongo","country":"cm","lat":3.7,"lon":10.0333333},{"id":414858,"name":"massoumbou-chantiers","country":"cm","lat":4.0877778,"lon":9.8705556},{"id":415798,"name":"minkwele","country":"cm","lat":4.1072222,"lon":9.6058333},{"id":409682,"name":"alobzok","country":"cm","lat":4.4011111,"lon":9.5683333},{"id":418828,"name":"tounjok","country":"cm","lat":4.2166667,"lon":9.9166667},{"id":411101,"name":"bonandolo","country":"cm","lat":4.3572222,"lon":9.8622222},{"id":413729,"name":"konbe ii","country":"cm","lat":3.5808333,"lon":9.9316667},{"id":417047,"name":"nkamba","country":"cm","lat":3.7416667,"lon":9.6588889},{"id":419037,"name":"yambong","country":"cm","lat":3.55,"lon":10.0166667},{"id":413275,"name":"ileka","country":"cm","lat":3.6730556,"lon":9.9919444},{"id":419080,"name":"yato","country":"cm","lat":4.1577778,"lon":9.5536111},{"id":410378,"name":"basak","country":"cm","lat":4.2166667,"lon":10.25},{"id":418561,"name":"souza gare","country":"cm","lat":4.2422222,"lon":9.6088889},{"id":418134,"name":"pongo piti","country":"cm","lat":3.6666667,"lon":10.05},{"id":410684,"name":"bidale","country":"cm","lat":3.6619444,"lon":9.7725},{"id":411096,"name":"bonamouang","country":"cm","lat":4.0905556,"lon":9.7222222},{"id":419159,"name":"yundi","country":"cm","lat":4.1505556,"lon":9.5294444},{"id":411070,"name":"bonabondo","country":"cm","lat":4.4230556,"lon":9.9008333},{"id":416024,"name":"moungangue","country":"cm","lat":4.0319444,"lon":9.5266667},{"id":410171,"name":"ballip","country":"cm","lat":3.6997222,"lon":9.7377778},{"id":411706,"name":"djebale","country":"cm","lat":4.1180556,"lon":9.7011111},{"id":417069,"name":"nkende","country":"cm","lat":4.2044444,"lon":9.6061111},{"id":411134,"name":"bonepea","country":"cm","lat":4.2347222,"lon":9.7752778},{"id":411083,"name":"bonakwassi","country":"cm","lat":4.3141667,"lon":9.7294444},{"id":410836,"name":"binkou","country":"cm","lat":3.9666667,"lon":10.1666667},{"id":411253,"name":"bouma","country":"cm","lat":4.0255556,"lon":9.5369444},{"id":414156,"name":"libombe","country":"cm","lat":3.8166667,"lon":10.35},{"id":419082,"name":"yavi","country":"cm","lat":3.6213889,"lon":9.7947222},{"id":416480,"name":"ndokomondo","country":"cm","lat":4.3666667,"lon":10.0166667},{"id":418074,"name":"pembe","country":"cm","lat":4.2794444,"lon":9.6147222},{"id":413559,"name":"kelle-mpek","country":"cm","lat":3.6166667,"lon":10.35},{"id":411111,"name":"bonanyama","country":"cm","lat":4.4105556,"lon":9.9002778},{"id":410609,"name":"bessengue","country":"cm","lat":4.0375,"lon":9.8044444},{"id":417641,"name":"nyola","country":"cm","lat":3.5652778,"lon":9.7127778},{"id":414357,"name":"maca","country":"cm","lat":4.1333333,"lon":9.6166667},{"id":414604,"name":"mam","country":"cm","lat":3.7727778,"lon":9.7838889},{"id":411108,"name":"bonanjo","country":"cm","lat":4.0402778,"lon":9.675},{"id":410708,"name":"biendende","country":"cm","lat":4.1638889,"lon":9.6433333},{"id":410834,"name":"binjame","country":"cm","lat":3.7666667,"lon":9.7333333},{"id":419074,"name":"yassa","country":"cm","lat":3.9833333,"lon":9.8166667},{"id":411566,"name":"dihani","country":"cm","lat":3.5,"lon":10.0833333},{"id":413398,"name":"kake","country":"cm","lat":4.2894444,"lon":9.6036111},{"id":418105,"name":"pitti","country":"cm","lat":4.0330556,"lon":9.9088889},{"id":415270,"name":"mboui","country":"cm","lat":3.7833333,"lon":10.4666667},{"id":416448,"name":"ndokbangendeng","country":"cm","lat":4.3333333,"lon":10.4333333},{"id":411039,"name":"boloy boleo","country":"cm","lat":3.5772222,"lon":9.7261111},{"id":414729,"name":"manoca","country":"cm","lat":3.8605556,"lon":9.6127778},{"id":415064,"name":"mbangue i","country":"cm","lat":4.1688889,"lon":9.7022222},{"id":416455,"name":"ndokbinan","country":"cm","lat":3.7666667,"lon":10.1},{"id":416475,"name":"ndokobong","country":"cm","lat":4.2,"lon":10.25},{"id":413098,"name":"grand souza","country":"cm","lat":4.2363889,"lon":9.6419444},{"id":411327,"name":"boy","country":"cm","lat":3.5833333,"lon":9.7333333},{"id":411241,"name":"boukous","country":"cm","lat":4.0333333,"lon":10.3333333},{"id":410949,"name":"bnagam","country":"cm","lat":3.7797222,"lon":9.7694444},{"id":411072,"name":"bonabweng","country":"cm","lat":4.2055556,"lon":9.6761111},{"id":417031,"name":"njongo","country":"cm","lat":4.15,"lon":10.4},{"id":416435,"name":"ndoh ii","country":"cm","lat":4.4966667,"lon":9.5344444},{"id":411082,"name":"bonakou","country":"cm","lat":4.2738889,"lon":9.6669444},{"id":411563,"name":"digombi","country":"cm","lat":3.6666667,"lon":10.2833333},{"id":413831,"name":"koto","country":"cm","lat":4.0988889,"lon":9.755},{"id":412567,"name":"fico","country":"cm","lat":4.3036111,"lon":9.7158333},{"id":416430,"name":"ndog odjong","country":"cm","lat":3.7833333,"lon":9.8666667},{"id":410636,"name":"beyang mbondjo","country":"cm","lat":4.2447222,"lon":9.5405556},{"id":411190,"name":"bossamba","country":"cm","lat":4.2247222,"lon":9.7516667},{"id":415766,"name":"miniam","country":"cm","lat":3.8038889,"lon":9.5955556},{"id":418486,"name":"songlong","country":"cm","lat":3.8333333,"lon":10.25},{"id":412143,"name":"edea","country":"cm","lat":3.8,"lon":10.1333333},{"id":411132,"name":"bonendale","country":"cm","lat":4.1202778,"lon":9.6497222},{"id":419040,"name":"yamikoki","country":"cm","lat":4.1830556,"lon":9.6819444},{"id":413736,"name":"konbo epaka","country":"cm","lat":3.7727778,"lon":9.6133333},{"id":416426,"name":"ndoghem-poudriere","country":"cm","lat":4.0727778,"lon":9.7911111},{"id":418791,"name":"tonde","country":"cm","lat":4.2255556,"lon":9.8405556},{"id":419075,"name":"yassem","country":"cm","lat":4.1925,"lon":9.7461111},{"id":410488,"name":"bedou","country":"cm","lat":4.3038889,"lon":9.6741667},{"id":418994,"name":"wongue","country":"cm","lat":4.0205556,"lon":9.5108333},{"id":418407,"name":"sims","country":"cm","lat":3.95,"lon":10.1},{"id":416821,"name":"ngoti","country":"cm","lat":4.0138889,"lon":9.5708333},{"id":411699,"name":"djapoma","country":"cm","lat":4.0386111,"lon":9.8172222},{"id":411084,"name":"bonalambo","country":"cm","lat":4.3319444,"lon":9.8341667},{"id":410520,"name":"bekouma","country":"cm","lat":4.2661111,"lon":9.6},{"id":414856,"name":"massor","country":"cm","lat":3.8666667,"lon":10.1666667},{"id":414230,"name":"log wombe","country":"cm","lat":4.1833333,"lon":10.2666667},{"id":410984,"name":"bogninga","country":"cm","lat":3.5833333,"lon":9.6833333},{"id":416470,"name":"ndokniok","country":"cm","lat":4.4833333,"lon":10.3666667},{"id":416106,"name":"mulongo","country":"cm","lat":3.5988889,"lon":9.7252778},{"id":417652,"name":"nyoungou","country":"cm","lat":3.6419444,"lon":9.9483333},{"id":411109,"name":"bonanka","country":"cm","lat":4.2536111,"lon":9.6344444},{"id":418472,"name":"sondo","country":"cm","lat":3.8333333,"lon":10.4166667},{"id":411492,"name":"deido","country":"cm","lat":4.0677778,"lon":9.7163889},{"id":415063,"name":"mbangue ii","country":"cm","lat":4.1880556,"lon":9.7030556},{"id":410230,"name":"bamwen","country":"cm","lat":4.3619444,"lon":9.7444444},{"id":413693,"name":"kombo dibo","country":"cm","lat":3.8819444,"lon":9.7011111},{"id":414104,"name":"lebnyok","country":"cm","lat":3.8166667,"lon":10.2333333},{"id":411107,"name":"bonanjoa","country":"cm","lat":4.3025,"lon":9.8241667},{"id":412459,"name":"etoba-bibongo","country":"cm","lat":3.6677778,"lon":9.6397222},{"id":415280,"name":"mboume","country":"cm","lat":4.2438889,"lon":9.8211111},{"id":413095,"name":"grand makemba","country":"cm","lat":4.2538889,"lon":9.6661111},{"id":413442,"name":"kambo","country":"cm","lat":4.0294444,"lon":9.7913889},{"id":411806,"name":"djouki","country":"cm","lat":4.1458333,"lon":9.6216667},{"id":411090,"name":"bonamakolo","country":"cm","lat":4.0833333,"lon":9.6833333},{"id":411105,"name":"bonangango","country":"cm","lat":3.6255556,"lon":9.8938889},{"id":417219,"name":"nkolmbong","country":"cm","lat":4.1158333,"lon":9.8347222},{"id":411999,"name":"duala","country":"cm","lat":4.0502778,"lon":9.7},{"id":414540,"name":"maleke","country":"cm","lat":4.3127778,"lon":9.5994444},{"id":416418,"name":"ndobeguengue ii","country":"cm","lat":4.35,"lon":10.1333333},{"id":417362,"name":"nkong bong","country":"cm","lat":4.1711111,"lon":9.6827778},{"id":414103,"name":"leb nkengue","country":"cm","lat":3.8833333,"lon":10.2833333},{"id":412319,"name":"elog banag","country":"cm","lat":3.6908333,"lon":9.7311111},{"id":416538,"name":"ndoulou","country":"cm","lat":4.3002778,"lon":9.6655556},{"id":416449,"name":"ndokbangingi","country":"cm","lat":4.4833333,"lon":10.2666667},{"id":413351,"name":"jatu","country":"cm","lat":3.6197222,"lon":9.8169444},{"id":411605,"name":"dipendi","country":"cm","lat":3.615,"lon":9.9480556},{"id":414221,"name":"logbi","country":"cm","lat":3.8166667,"lon":10.3833333},{"id":416499,"name":"ndom ii","country":"cm","lat":4.4791667,"lon":9.5444444},{"id":414212,"name":"lobetal","country":"cm","lat":3.6447222,"lon":9.7869444},{"id":410577,"name":"bengse","country":"cm","lat":4.3683333,"lon":9.7416667},{"id":416469,"name":"ndok ngong","country":"cm","lat":4.4166667,"lon":10.3666667},{"id":413696,"name":"kombo-dongo","country":"cm","lat":3.9166667,"lon":9.6833333},{"id":414583,"name":"mamba","country":"cm","lat":4.1666667,"lon":10.0833333},{"id":418258,"name":"sakot","country":"cm","lat":3.9,"lon":10.45},{"id":411094,"name":"bonamombe","country":"cm","lat":4.2475,"lon":9.7786111},{"id":413722,"name":"kompina","country":"cm","lat":4.3569444,"lon":9.5894444}]});