callback({"markets":[{"id":3132700,"name":"nxaxo mouth","country":"za","lat":-32.584931,"lon":28.522687},{"id":3130604,"name":"masazane","country":"za","lat":-32.533392,"lon":28.558613},{"id":3131983,"name":"ncata","country":"za","lat":-32.526463,"lon":28.545803},{"id":3132237,"name":"ngunduza","country":"za","lat":-32.506391,"lon":28.562165},{"id":3125094,"name":"cebe trading station","country":"za","lat":-32.5,"lon":28.516667},{"id":3125093,"name":"cebe","country":"za","lat":-32.503246,"lon":28.518144},{"id":3127950,"name":"kabonqaba","country":"za","lat":-32.569146,"lon":28.501434},{"id":3136058,"name":"wavecrest","country":"za","lat":-32.585133,"lon":28.52301}]});