callback({"markets":[{"id":2692083,"name":"oualia","country":"td","lat":10.7,"lon":16.8166667},{"id":2683268,"name":"alkilkil","country":"td","lat":11.1,"lon":16.8833333},{"id":2690260,"name":"maibo tchoumou","country":"td","lat":10.65,"lon":17.2166667},{"id":2692481,"name":"sadaou","country":"td","lat":11.35,"lon":16.75},{"id":2691888,"name":"nianie","country":"td","lat":10.95,"lon":16.6833333},{"id":2682891,"name":"abiet","country":"td","lat":10.8666667,"lon":16.6333333},{"id":2691616,"name":"nara moroum","country":"td","lat":10.5166667,"lon":16.7333333},{"id":2687435,"name":"gargougou","country":"td","lat":10.9166667,"lon":17.2666667},{"id":2685092,"name":"birkel beida","country":"td","lat":11.4166667,"lon":17.0833333},{"id":2692776,"name":"sodo","country":"td","lat":10.6166667,"lon":17.1666667},{"id":2683245,"name":"alia garma","country":"td","lat":10.6833333,"lon":16.6833333},{"id":2688306,"name":"irbi-tandja","country":"td","lat":10.6333333,"lon":16.6166667},{"id":2683741,"name":"anegato","country":"td","lat":10.8666667,"lon":17.4333333},{"id":2682855,"name":"abdouel","country":"td","lat":10.8,"lon":17.3833333},{"id":2690311,"name":"mainapa","country":"td","lat":10.5166667,"lon":16.55},{"id":2689116,"name":"kitchan","country":"td","lat":11.45,"lon":16.5833333},{"id":2693218,"name":"teri","country":"td","lat":10.6833333,"lon":17.4833333},{"id":2686708,"name":"dongoro","country":"td","lat":10.7666667,"lon":17.2},{"id":2690178,"name":"mafaling sara","country":"td","lat":10.5333333,"lon":16.5166667},{"id":2686000,"name":"delfin sara","country":"td","lat":10.6166667,"lon":16.7833333},{"id":2691101,"name":"mirti bagirmi","country":"td","lat":10.5333333,"lon":16.8166667},{"id":2685790,"name":"dalala","country":"td","lat":10.75,"lon":16.7333333},{"id":2691617,"name":"nara","country":"td","lat":10.55,"lon":16.7333333},{"id":2683026,"name":"absorto","country":"td","lat":10.6833333,"lon":17.15},{"id":2683060,"name":"addara","country":"td","lat":10.95,"lon":17.4833333},{"id":2690407,"name":"maleign","country":"td","lat":11.2333333,"lon":16.5166667},{"id":2690719,"name":"massi","country":"td","lat":10.5333333,"lon":16.75},{"id":2692037,"name":"ore","country":"td","lat":10.75,"lon":17.4833333},{"id":2685408,"name":"bougouda","country":"td","lat":11.4666667,"lon":16.65},{"id":2684103,"name":"ba-illi","country":"td","lat":10.5,"lon":16.5666667},{"id":2687926,"name":"gousara ii","country":"td","lat":10.5666667,"lon":16.6833333},{"id":2684976,"name":"bilamtou","country":"td","lat":10.6,"lon":16.5166667},{"id":2684243,"name":"bango","country":"td","lat":10.65,"lon":16.8833333},{"id":2683547,"name":"am habile","country":"td","lat":10.8333333,"lon":16.55},{"id":2688807,"name":"kata","country":"td","lat":10.6,"lon":17.2833333},{"id":2693348,"name":"tirmi bornou","country":"td","lat":10.8333333,"lon":16.7333333},{"id":2687607,"name":"godhe","country":"td","lat":10.9666667,"lon":17.1166667},{"id":2691104,"name":"mirti sara","country":"td","lat":10.55,"lon":16.85},{"id":2690448,"name":"mamlay","country":"td","lat":10.5833333,"lon":16.7333333},{"id":2691225,"name":"mongola","country":"td","lat":10.5833333,"lon":17.0166667},{"id":2683570,"name":"am kachaoua","country":"td","lat":10.8166667,"lon":16.5666667},{"id":2691090,"name":"mirel","country":"td","lat":11.3333333,"lon":16.7833333},{"id":2687628,"name":"gole","country":"td","lat":10.8166667,"lon":17.35},{"id":2692653,"name":"seita","country":"td","lat":11.3166667,"lon":16.5166667},{"id":2693347,"name":"tirmi-abouna","country":"td","lat":10.85,"lon":16.75},{"id":2687044,"name":"faligui","country":"td","lat":10.9333333,"lon":17.1333333},{"id":2690775,"name":"matinga","country":"td","lat":10.9333333,"lon":17.3166667},{"id":2693203,"name":"tendia","country":"td","lat":10.55,"lon":16.5333333},{"id":2683651,"name":"am sakine","country":"td","lat":10.9833333,"lon":17.1833333},{"id":2691457,"name":"mousakinge","country":"td","lat":10.75,"lon":16.55},{"id":2687695,"name":"gonine","country":"td","lat":10.5666667,"lon":16.7166667},{"id":2685810,"name":"damaki","country":"td","lat":10.5,"lon":16.7666667},{"id":2683582,"name":"am kasaye","country":"td","lat":10.75,"lon":17.1},{"id":2691049,"name":"milede","country":"td","lat":11.4580556,"lon":16.6872222},{"id":2691609,"name":"narabase ii","country":"td","lat":10.65,"lon":16.5},{"id":2686158,"name":"dilouko","country":"td","lat":10.9166667,"lon":17.45},{"id":2688328,"name":"iroua","country":"td","lat":10.5833333,"lon":16.6333333},{"id":2692628,"name":"seaba","country":"td","lat":10.5666667,"lon":17.1666667},{"id":2690128,"name":"madel ouei","country":"td","lat":10.9666667,"lon":16.7333333},{"id":2688318,"name":"irgai","country":"td","lat":11.3666667,"lon":17.1166667},{"id":2689060,"name":"kindi-kaye","country":"td","lat":10.8166667,"lon":17.45},{"id":2689851,"name":"lairi","country":"td","lat":10.8166667,"lon":17.1},{"id":2685984,"name":"del","country":"td","lat":11.15,"lon":16.5333333},{"id":2691792,"name":"ngarge","country":"td","lat":10.5333333,"lon":16.8333333},{"id":2685432,"name":"boukta","country":"td","lat":11.2166667,"lon":17.2833333},{"id":2683179,"name":"al adjiri","country":"td","lat":10.8166667,"lon":16.75},{"id":2683602,"name":"amladoba","country":"td","lat":10.7833333,"lon":16.5666667},{"id":2691263,"name":"morio","country":"td","lat":10.5,"lon":16.6666667},{"id":2693667,"name":"yllal","country":"td","lat":11.0833333,"lon":16.7},{"id":2693788,"name":"zouara","country":"td","lat":10.8166667,"lon":17.4166667},{"id":2688869,"name":"kededesse","country":"td","lat":11.1166667,"lon":16.7333333},{"id":2685385,"name":"boudamassa","country":"td","lat":10.8955556,"lon":16.7336111},{"id":2687554,"name":"gidan","country":"td","lat":10.5166667,"lon":16.85},{"id":2685999,"name":"delfine","country":"td","lat":10.6472222,"lon":16.7794444},{"id":2691310,"name":"motmasa","country":"td","lat":10.5166667,"lon":16.7833333},{"id":2689133,"name":"kobo","country":"td","lat":11.2333333,"lon":16.6166667},{"id":2693289,"name":"tilimi","country":"td","lat":10.8,"lon":16.75},{"id":2685670,"name":"chignet","country":"td","lat":10.8666667,"lon":17.3666667},{"id":2690629,"name":"marie","country":"td","lat":11.1833333,"lon":16.55},{"id":2687166,"name":"foul","country":"td","lat":10.8488889,"lon":16.5588889},{"id":2685490,"name":"boungtabe","country":"td","lat":10.55,"lon":16.9},{"id":2684033,"name":"badio","country":"td","lat":11.3,"lon":17.45},{"id":2693529,"name":"tourou","country":"td","lat":10.6333333,"lon":16.6666667},{"id":2691202,"name":"molo","country":"td","lat":10.6666667,"lon":17.1666667},{"id":2691107,"name":"misadje","country":"td","lat":10.85,"lon":16.5166667},{"id":2690306,"name":"maina","country":"td","lat":10.65,"lon":16.95},{"id":2691282,"name":"moro","country":"td","lat":10.7166667,"lon":17.1333333},{"id":2685488,"name":"boungoulti","country":"td","lat":10.5833333,"lon":16.95},{"id":2693106,"name":"tchia","country":"td","lat":10.7666667,"lon":16.65},{"id":2686453,"name":"djokhana","country":"td","lat":10.8,"lon":17.0166667},{"id":2692819,"name":"soro","country":"td","lat":10.65,"lon":16.8166667},{"id":2686258,"name":"djamena borkou","country":"td","lat":10.6333333,"lon":17.1666667},{"id":2682860,"name":"abebeabo","country":"td","lat":10.6333333,"lon":16.5333333},{"id":2683341,"name":"am arouma","country":"td","lat":10.7,"lon":16.6833333},{"id":2684195,"name":"balo","country":"td","lat":10.5,"lon":16.7833333},{"id":2685417,"name":"bougour","country":"td","lat":10.5333333,"lon":17.05},{"id":2693478,"name":"toukourou","country":"td","lat":10.6333333,"lon":17.4666667},{"id":2686377,"name":"djiboutou","country":"td","lat":10.6666667,"lon":16.5166667},{"id":2691376,"name":"moundaloay","country":"td","lat":10.9166667,"lon":16.7},{"id":2691478,"name":"moussok","country":"td","lat":11.0,"lon":16.7},{"id":2690285,"name":"mailab","country":"td","lat":10.5166667,"lon":16.7666667},{"id":2691308,"name":"motchon","country":"td","lat":11.2666667,"lon":16.5166667},{"id":2686830,"name":"doum-doum","country":"td","lat":10.55,"lon":16.5833333},{"id":2684956,"name":"bige","country":"td","lat":10.6,"lon":16.8166667},{"id":2690324,"name":"maira","country":"td","lat":10.55,"lon":16.9166667},{"id":2691102,"name":"mirti-baguirmi","country":"td","lat":10.5666667,"lon":16.9},{"id":2689837,"name":"lafana","country":"td","lat":10.5,"lon":16.6},{"id":2684036,"name":"badjiao","country":"td","lat":11.1994444,"lon":17.4686111},{"id":2690659,"name":"marrel","country":"td","lat":10.9,"lon":17.1},{"id":2692861,"name":"sounoumani bornou","country":"td","lat":10.6833333,"lon":16.7},{"id":2691514,"name":"myrti","country":"td","lat":10.6,"lon":16.8833333},{"id":2693029,"name":"tarkole","country":"td","lat":10.8333333,"lon":16.6},{"id":2686157,"name":"dille","country":"td","lat":11.3666667,"lon":16.95},{"id":2692342,"name":"pouro","country":"td","lat":11.3333333,"lon":16.5666667},{"id":2687889,"name":"gourgare","country":"td","lat":11.3833333,"lon":16.8833333},{"id":2691789,"name":"ngaray","country":"td","lat":10.75,"lon":16.8333333},{"id":2684285,"name":"baranga","country":"td","lat":10.5333333,"lon":17.0666667},{"id":2690737,"name":"matabono","country":"td","lat":10.7,"lon":16.7166667},{"id":2689204,"name":"kole","country":"td","lat":11.2677778,"lon":17.0963889},{"id":2693468,"name":"touka","country":"td","lat":10.5833333,"lon":16.7},{"id":2693113,"name":"tchilili ngiribing","country":"td","lat":10.7666667,"lon":16.8},{"id":2683229,"name":"algao","country":"td","lat":11.4666667,"lon":16.8166667},{"id":2693046,"name":"tcha arabe","country":"td","lat":10.9166667,"lon":16.7166667},{"id":2690210,"name":"magili","country":"td","lat":11.4166667,"lon":16.5}]});