callback({"markets":[{"id":2230454,"name":"sara mela","country":"pk","lat":33.66044,"lon":71.44919},{"id":2150425,"name":"ahin posh","country":"pk","lat":33.763035,"lon":70.981626},{"id":2241134,"name":"ustarzai payan","country":"pk","lat":33.604167,"lon":71.248333},{"id":53352,"name":"nadzh\u0027yankala","country":"af","lat":34.262409,"lon":70.845551},{"id":7859,"name":"barah khel","country":"af","lat":34.045193,"lon":70.795662},{"id":2233733,"name":"sher khel","country":"pk","lat":33.790925,"lon":70.782363},{"id":2154319,"name":"bagizai","country":"pk","lat":33.533613,"lon":71.465504},{"id":2224727,"name":"prangdarra","country":"pk","lat":34.196865,"lon":71.23111},{"id":14950,"name":"dag kalay","country":"af","lat":34.429021,"lon":70.551266},{"id":2215570,"name":"mirzali nmasai","country":"pk","lat":33.579059,"lon":70.882022},{"id":2202081,"name":"khamal","country":"pk","lat":33.673723,"lon":70.984651},{"id":2228675,"name":"sahib china kili","country":"pk","lat":34.261206,"lon":71.401723},{"id":60830,"name":"qal`ah-ye maslakh","country":"af","lat":34.462381,"lon":70.511067},{"id":49202,"name":"mast `ali","country":"af","lat":34.408526,"lon":70.576873},{"id":2154048,"name":"badsdiah","country":"pk","lat":34.378098,"lon":71.337645},{"id":47802,"name":"makranay","country":"af","lat":34.062149,"lon":70.607483},{"id":2229043,"name":"sairand","country":"pk","lat":33.913889,"lon":70.653611},{"id":2230172,"name":"sangra","country":"pk","lat":33.754841,"lon":70.893017},{"id":2171596,"name":"dab kor","country":"pk","lat":34.177161,"lon":71.419295},{"id":2172925,"name":"darra garhi","country":"pk","lat":33.76113,"lon":71.083316},{"id":2207812,"name":"kuti","country":"pk","lat":33.804909,"lon":70.945766},{"id":2189802,"name":"gudar","country":"pk","lat":34.021875,"lon":71.353374},{"id":2200573,"name":"karkanro dag","country":"pk","lat":34.217467,"lon":71.222299},{"id":2170271,"name":"chhapper","country":"pk","lat":33.521735,"lon":70.780744},{"id":2212130,"name":"mamanai","country":"pk","lat":33.638632,"lon":70.933557},{"id":2237596,"name":"tapu kili","country":"pk","lat":33.556392,"lon":70.779733},{"id":2230660,"name":"sare oba","country":"pk","lat":33.588441,"lon":70.805954},{"id":2230503,"name":"sara rag","country":"pk","lat":33.85574,"lon":70.815367},{"id":77812,"name":"shubd\u0027yan","country":"af","lat":34.262962,"lon":70.742851},{"id":2240249,"name":"tsinor","country":"pk","lat":33.732548,"lon":70.722632},{"id":2235668,"name":"spurarai","country":"pk","lat":33.895445,"lon":70.685891},{"id":80016,"name":"spin darah","country":"af","lat":33.977459,"lon":70.535771},{"id":2160763,"name":"bhag nagar","country":"pk","lat":33.577668,"lon":71.455018},{"id":2152887,"name":"ashar kor","country":"pk","lat":34.186111,"lon":71.45},{"id":2242670,"name":"wuch pal","country":"pk","lat":33.812222,"lon":71.128333},{"id":2192277,"name":"halki gandao","country":"pk","lat":34.288631,"lon":71.365278},{"id":2171073,"name":"chora","country":"pk","lat":33.966667,"lon":71.183333},{"id":40579,"name":"khogakhel","country":"af","lat":34.134815,"lon":70.733917},{"id":2156067,"name":"band kili","country":"pk","lat":34.471246,"lon":71.283182},{"id":83161,"name":"tarilay","country":"af","lat":34.246414,"lon":70.669724},{"id":2153957,"name":"badi","country":"pk","lat":33.792762,"lon":70.884433},{"id":2208744,"name":"lal pura","country":"pk","lat":33.687603,"lon":71.277075},{"id":2237643,"name":"tara kili","country":"pk","lat":33.912728,"lon":70.845681},{"id":2178829,"name":"galli khel","country":"pk","lat":33.896088,"lon":71.118368},{"id":2226482,"name":"ramalai","country":"pk","lat":34.3742,"lon":71.247537},{"id":2201316,"name":"kawara","country":"pk","lat":33.795329,"lon":70.696364},{"id":2231791,"name":"shah alam tsili","country":"pk","lat":34.212927,"lon":71.457589},{"id":80802,"name":"surdag","country":"af","lat":34.369375,"lon":70.758997},{"id":2209423,"name":"lawanai jabba","country":"pk","lat":33.785996,"lon":70.796893},{"id":2208875,"name":"landai jalajan","country":"pk","lat":33.807101,"lon":70.773504},{"id":77876,"name":"shundavonah khuni","country":"af","lat":34.036266,"lon":70.862105},{"id":2237315,"name":"tand khula","country":"pk","lat":33.842023,"lon":70.779416},{"id":2237507,"name":"tangu","country":"pk","lat":33.883491,"lon":70.808968},{"id":2225181,"name":"qaiagai","country":"pk","lat":34.144882,"lon":71.444497},{"id":2213444,"name":"marta dag","country":"pk","lat":34.237299,"lon":71.235891},{"id":2236484,"name":"sur kamar","country":"pk","lat":34.008436,"lon":71.332521},{"id":2177094,"name":"dresara","country":"pk","lat":34.49795,"lon":71.279856},{"id":2243533,"name":"zer gulak","country":"pk","lat":33.815049,"lon":70.875145},{"id":2199791,"name":"kando tang","country":"pk","lat":33.580833,"lon":70.853611},{"id":2204155,"name":"khwaga tseri","country":"pk","lat":33.611667,"lon":70.858889},{"id":45363,"name":"kuza bela","country":"af","lat":34.342961,"lon":70.75669},{"id":2232524,"name":"shaikhan banda","country":"pk","lat":33.555,"lon":71.103333},{"id":2235479,"name":"sortop","country":"pk","lat":33.558915,"lon":70.927437},{"id":2171393,"name":"churi tang","country":"pk","lat":33.550278,"lon":70.968611},{"id":2240194,"name":"tro","country":"pk","lat":33.720598,"lon":70.579349},{"id":44296,"name":"kucian","country":"af","lat":34.282578,"lon":70.817619},{"id":2210207,"name":"machapura","country":"pk","lat":33.814618,"lon":70.680008},{"id":2195688,"name":"jandrai","country":"pk","lat":33.725278,"lon":70.616389},{"id":2155631,"name":"banda ahmad khan","country":"pk","lat":33.602336,"lon":71.358147},{"id":2212362,"name":"mandato bagh","country":"pk","lat":33.614167,"lon":70.593333},{"id":2212333,"name":"manda","country":"pk","lat":33.700668,"lon":70.706902},{"id":16963,"name":"daman kalay","country":"af","lat":34.238182,"lon":70.878868},{"id":2153875,"name":"badaun","country":"pk","lat":33.759915,"lon":70.808031},{"id":2217473,"name":"mukhtar khel","country":"pk","lat":34.130278,"lon":71.162222},{"id":2213046,"name":"manza mela","country":"pk","lat":33.639167,"lon":71.043611},{"id":39142,"name":"kharah","country":"af","lat":34.402567,"lon":70.68747},{"id":39943,"name":"khazarnau","country":"af","lat":34.234112,"lon":70.91243},{"id":2194295,"name":"isa khel","country":"pk","lat":33.66,"lon":70.775556},{"id":2230456,"name":"sara mena","country":"pk","lat":34.218406,"lon":71.258065},{"id":2222757,"name":"pasaid khel","country":"pk","lat":34.109802,"lon":71.183996},{"id":34707,"name":"kamkai kelay","country":"af","lat":34.10004,"lon":70.666565},{"id":2151432,"name":"ali muhammad kili","country":"pk","lat":34.161042,"lon":71.418926},{"id":2172920,"name":"darpar","country":"pk","lat":33.797091,"lon":70.754107},{"id":43467,"name":"korogh mena","country":"af","lat":33.985985,"lon":70.712835},{"id":14737,"name":"cuna kach","country":"af","lat":34.43605,"lon":70.557278},{"id":2230383,"name":"sara china","country":"pk","lat":33.767987,"lon":71.037583},{"id":80430,"name":"sufi-sakhibkokhi","country":"af","lat":34.457966,"lon":70.93097},{"id":2172885,"name":"darma","country":"pk","lat":33.738611,"lon":70.944167},{"id":39937,"name":"khazar khani","country":"af","lat":34.204127,"lon":70.660975},{"id":12980,"name":"chaperi","country":"af","lat":34.08503,"lon":70.541687},{"id":2240629,"name":"udredukai","country":"pk","lat":33.884946,"lon":70.862467},{"id":34897,"name":"kandi","country":"af","lat":34.405888,"lon":70.599576},{"id":2233684,"name":"sheri khel","country":"pk","lat":33.901819,"lon":70.778332},{"id":2202614,"name":"khapiango","country":"pk","lat":33.65728,"lon":71.450233},{"id":2172400,"name":"dangara lakki","country":"pk","lat":33.590278,"lon":70.840833},{"id":2240989,"name":"uribar","country":"pk","lat":33.634642,"lon":70.780748},{"id":2219205,"name":"narai ghakhai","country":"pk","lat":33.684722,"lon":71.014722},{"id":2204185,"name":"khwaja sak","country":"pk","lat":33.798799,"lon":70.748709},{"id":2240397,"name":"turah garhi","country":"pk","lat":33.743264,"lon":70.799047},{"id":75967,"name":"shawkanay","country":"af","lat":34.045219,"lon":70.579109},{"id":2236489,"name":"sur kanrai","country":"pk","lat":33.679506,"lon":70.728135},{"id":18375,"name":"dawani","country":"af","lat":34.157635,"lon":70.610924},{"id":79873,"name":"sparawune kalay","country":"af","lat":34.040478,"lon":70.752205},{"id":2221874,"name":"pakistan council of scientific and industrial research colony","country":"pk","lat":34.0093,"lon":71.4897},{"id":11141,"name":"caharmasa","country":"af","lat":34.451533,"lon":70.527893},{"id":2235595,"name":"spin dand","country":"pk","lat":33.927459,"lon":71.388541},{"id":2240469,"name":"tuta mela","country":"pk","lat":33.588333,"lon":71.052222},{"id":2232975,"name":"shamar kili","country":"pk","lat":33.758611,"lon":71.115278},{"id":2190826,"name":"gwazai","country":"pk","lat":33.696394,"lon":70.558922},{"id":40183,"name":"khialgol","country":"af","lat":34.024563,"lon":70.625198},{"id":27254,"name":"gorizi","country":"af","lat":34.451147,"lon":70.595831},{"id":51281,"name":"molakheyl\u0027","country":"af","lat":34.377915,"lon":71.022885},{"id":2236689,"name":"tagha mela","country":"pk","lat":33.726347,"lon":70.992515},{"id":2195959,"name":"janu maya","country":"pk","lat":33.722621,"lon":70.862223},{"id":2236546,"name":"sur tapu","country":"pk","lat":33.768959,"lon":70.527955},{"id":2160823,"name":"bhaigarhi","country":"pk","lat":33.872187,"lon":71.162691},{"id":2241008,"name":"urmar","country":"pk","lat":33.732778,"lon":70.906389},{"id":2195105,"name":"jalal kor","country":"pk","lat":34.2125,"lon":71.444722},{"id":2241133,"name":"ustarzai bala","country":"pk","lat":33.601389,"lon":71.228333},{"id":2172621,"name":"darato","country":"pk","lat":33.844642,"lon":70.602399},{"id":2156508,"name":"baramai","country":"pk","lat":33.877196,"lon":70.710729},{"id":2180624,"name":"ghotak","country":"pk","lat":33.669444,"lon":70.769444},{"id":85755,"name":"vara-lalpura","country":"af","lat":34.230603,"lon":71.06758},{"id":75289,"name":"shakote","country":"af","lat":34.275703,"lon":70.948593},{"id":2208876,"name":"landai jawara","country":"pk","lat":34.494365,"lon":71.314862},{"id":81375,"name":"surubay","country":"af","lat":34.113026,"lon":70.8023},{"id":2198402,"name":"kago kamar","country":"pk","lat":33.988611,"lon":71.069444},{"id":8759,"name":"batan","country":"af","lat":34.081329,"lon":70.648895},{"id":2171856,"name":"dag kili","country":"pk","lat":34.453026,"lon":71.119084},{"id":2198379,"name":"kafoor dheri","country":"pk","lat":34.106111,"lon":71.44},{"id":58587,"name":"pesa","country":"af","lat":33.999212,"lon":70.645572},{"id":2238224,"name":"terio pakha","country":"pk","lat":33.724219,"lon":70.768572},{"id":2230391,"name":"sara garhi","country":"pk","lat":33.666326,"lon":70.630091},{"id":2212122,"name":"mama khan dar","country":"pk","lat":33.57231,"lon":70.816018},{"id":39903,"name":"khaysi","country":"af","lat":34.43282,"lon":70.564284},{"id":2162463,"name":"bobar","country":"pk","lat":33.898529,"lon":70.557688},{"id":53639,"name":"nali kandow","country":"af","lat":33.98203,"lon":70.783137},{"id":2198096,"name":"kabeurai","country":"pk","lat":33.800904,"lon":70.919554},{"id":2207724,"name":"kurumbai","country":"pk","lat":33.633391,"lon":70.735959},{"id":2177075,"name":"dre ghakhai","country":"pk","lat":33.973653,"lon":70.965741},{"id":88611,"name":"zaysar","country":"af","lat":34.073494,"lon":70.795837},{"id":2151186,"name":"ali baba ziarat","country":"pk","lat":34.163574,"lon":71.38409},{"id":19726,"name":"deh-ye tar","country":"af","lat":34.405465,"lon":70.620888},{"id":2242696,"name":"wurmegi","country":"pk","lat":33.549565,"lon":70.628187},{"id":2209231,"name":"lar tangharu","country":"pk","lat":33.698611,"lon":71.0725},{"id":2168999,"name":"chalor silli","country":"pk","lat":33.544604,"lon":70.890599},{"id":2195056,"name":"jaladin","country":"pk","lat":33.936866,"lon":70.635287},{"id":2149764,"name":"abdul khel","country":"pk","lat":33.913864,"lon":70.902324},{"id":2194863,"name":"jahangirabad","country":"pk","lat":34.0015,"lon":71.4966},{"id":2225257,"name":"qalandar kili","country":"pk","lat":33.90354,"lon":71.439978},{"id":50900,"name":"mohabbat kalay","country":"af","lat":34.132355,"lon":70.695114},{"id":2234937,"name":"siruna","country":"pk","lat":33.618316,"lon":70.797092},{"id":2234883,"name":"siri kili","country":"pk","lat":33.56,"lon":70.794167},{"id":2242831,"name":"yargul khel","country":"pk","lat":33.821359,"lon":70.663752},{"id":2212131,"name":"mamanai naka","country":"pk","lat":33.750344,"lon":70.968236},{"id":2241037,"name":"usai","country":"pk","lat":33.687725,"lon":71.294832},{"id":2180954,"name":"ghulam shah pir ziarat","country":"pk","lat":33.726287,"lon":71.234591},{"id":2225060,"name":"qabaro kili","country":"pk","lat":33.808591,"lon":71.396361},{"id":62467,"name":"qal`eh-ye akhund","country":"af","lat":34.413854,"lon":70.57979},{"id":2225244,"name":"qala kili","country":"pk","lat":34.215833,"lon":71.224444},{"id":19868,"name":"dekhi-gazi","country":"af","lat":34.415578,"lon":70.556124},{"id":2199415,"name":"kambar nmasai","country":"pk","lat":33.747222,"lon":70.881667},{"id":2242657,"name":"wucha wana","country":"pk","lat":33.886516,"lon":70.70671},{"id":2232522,"name":"shaikhana","country":"pk","lat":33.739848,"lon":70.54619},{"id":2198284,"name":"kachkol","country":"pk","lat":33.902184,"lon":70.566802},{"id":2242953,"name":"yego mela","country":"pk","lat":33.849619,"lon":70.558576},{"id":2221833,"name":"pakhan kili","country":"pk","lat":34.181806,"lon":71.356964},{"id":2190795,"name":"gwada","country":"pk","lat":33.583889,"lon":70.9575},{"id":16994,"name":"damgal khulah","country":"af","lat":34.049274,"lon":70.703758},{"id":73992,"name":"sershahi kot","country":"af","lat":34.257423,"lon":70.578697},{"id":2177406,"name":"dungai kili","country":"pk","lat":33.637259,"lon":70.517682},{"id":2193433,"name":"hindu kasai","country":"pk","lat":34.136231,"lon":71.43991},{"id":9356,"name":"bela","country":"af","lat":34.269215,"lon":70.8759},{"id":2197781,"name":"jot","country":"pk","lat":33.846123,"lon":70.540503},{"id":2219127,"name":"nanizo","country":"pk","lat":33.56239,"lon":70.896416},{"id":2240253,"name":"tslor mukhai","country":"pk","lat":33.796826,"lon":70.901316},{"id":10050,"name":"bohlul","country":"af","lat":34.082253,"lon":70.615852},{"id":2180344,"name":"ghazai kili","country":"pk","lat":33.814722,"lon":71.3925},{"id":2191045,"name":"haidari oba","country":"pk","lat":34.133778,"lon":71.217993},{"id":2232816,"name":"shaksham","country":"pk","lat":33.636667,"lon":70.698611},{"id":2180509,"name":"ghiljiano banda","country":"pk","lat":34.115335,"lon":71.462663},{"id":2153540,"name":"babar mela","country":"pk","lat":33.548611,"lon":71.124444},{"id":2200983,"name":"kata kushta","country":"pk","lat":34.053586,"lon":71.249796},{"id":2199521,"name":"kamrai khel atarai","country":"pk","lat":33.913525,"lon":71.444501},{"id":25105,"name":"gerdai","country":"af","lat":34.236294,"lon":70.973328},{"id":2220580,"name":"nikki khel","country":"pk","lat":34.074722,"lon":71.197222},{"id":2215422,"name":"mirobak","country":"pk","lat":33.543333,"lon":71.101944},{"id":2170750,"name":"chingal","country":"pk","lat":34.487522,"lon":71.237165},{"id":85855,"name":"vazir","country":"af","lat":34.012066,"lon":70.552429},{"id":2238068,"name":"tauda mela","country":"pk","lat":33.622222,"lon":70.853611},{"id":2151115,"name":"alazai sar","country":"pk","lat":33.909116,"lon":70.634525},{"id":2208874,"name":"landai durbi khel","country":"pk","lat":33.800688,"lon":70.781964},{"id":2232931,"name":"shal munda loe","country":"pk","lat":33.867222,"lon":70.872778},{"id":2208060,"name":"lade kili","country":"pk","lat":34.113917,"lon":71.0873},{"id":2192706,"name":"hari singh burj","country":"pk","lat":33.995808,"lon":71.467849},{"id":84701,"name":"tsaperi","country":"af","lat":34.016605,"lon":70.626007},{"id":2190655,"name":"gurezi","country":"pk","lat":33.819496,"lon":71.07992},{"id":2242688,"name":"wulo mela","country":"pk","lat":34.028057,"lon":71.340328},{"id":79871,"name":"spara","country":"af","lat":34.039967,"lon":70.571617},{"id":2218018,"name":"murghan","country":"pk","lat":33.639335,"lon":70.531477},{"id":2190676,"name":"gurguri aimal khel kili","country":"pk","lat":33.642068,"lon":71.485555},{"id":2171844,"name":"dag garhi","country":"pk","lat":33.773624,"lon":71.143728},{"id":2236182,"name":"sultanzai","country":"pk","lat":33.774201,"lon":71.099865},{"id":2230516,"name":"sara tara","country":"pk","lat":33.638889,"lon":70.7275},{"id":2202766,"name":"kharkai","country":"pk","lat":33.6325,"lon":70.69},{"id":2235727,"name":"stara pakha","country":"pk","lat":33.725,"lon":70.925278},{"id":2203076,"name":"khaza","country":"pk","lat":33.931173,"lon":70.745183},{"id":2209335,"name":"latakai","country":"pk","lat":33.774999,"lon":70.504216},{"id":2229703,"name":"samand garhi","country":"pk","lat":33.856605,"lon":71.438943},{"id":2238245,"name":"tezia","country":"pk","lat":33.668611,"lon":70.730278},{"id":2238131,"name":"tazi khel","country":"pk","lat":33.774444,"lon":71.131667},{"id":2202609,"name":"khaori","country":"pk","lat":33.581905,"lon":71.038463},{"id":2208589,"name":"lalbaz gareh","country":"pk","lat":33.595278,"lon":71.095833},{"id":2227433,"name":"regi","country":"pk","lat":34.049722,"lon":71.461389},{"id":2240543,"name":"ucha walai","country":"pk","lat":34.010476,"lon":71.113537},{"id":2162794,"name":"bramzuna","country":"pk","lat":33.758409,"lon":70.857637},{"id":2194732,"name":"jafar khel","country":"pk","lat":33.803702,"lon":70.74011},{"id":2243786,"name":"zor tsappai","country":"pk","lat":33.695,"lon":70.798056},{"id":2213274,"name":"maria mela","country":"pk","lat":33.779087,"lon":71.281987},{"id":2230941,"name":"sarpara kili","country":"pk","lat":34.159722,"lon":71.439167},{"id":2160153,"name":"bazar","country":"pk","lat":33.664038,"lon":71.310031},{"id":2208282,"name":"laijai","country":"pk","lat":33.766835,"lon":70.897626},{"id":2155361,"name":"balkot","country":"pk","lat":33.71913,"lon":71.039404},{"id":2243300,"name":"zanki","country":"pk","lat":33.533889,"lon":71.101944},{"id":2236553,"name":"sur top","country":"pk","lat":33.57909,"lon":70.932475},{"id":2156526,"name":"bar and khel","country":"pk","lat":33.779369,"lon":71.144911},{"id":2170709,"name":"chinar","country":"pk","lat":33.750913,"lon":70.855778},{"id":2202632,"name":"kharai mela","country":"pk","lat":33.975565,"lon":71.089108},{"id":2228335,"name":"saddo garhi","country":"pk","lat":34.142261,"lon":71.470974},{"id":2155943,"name":"banda tor chapri","country":"pk","lat":33.53776,"lon":71.409826},{"id":47442,"name":"madikach","country":"af","lat":34.304497,"lon":70.836334},{"id":28112,"name":"gund\u0027yani","country":"af","lat":34.244831,"lon":70.714813},{"id":2237304,"name":"tanda","country":"pk","lat":33.782874,"lon":71.002679},{"id":2226476,"name":"ramadam","country":"pk","lat":33.644917,"lon":70.805635},{"id":16481,"name":"daka","country":"af","lat":34.213056,"lon":71.056667},{"id":2219327,"name":"narhao","country":"pk","lat":33.830861,"lon":70.670003},{"id":2177644,"name":"fafmi khel","country":"pk","lat":34.115638,"lon":71.138527},{"id":83188,"name":"tarkhah","country":"af","lat":34.084427,"lon":70.793274},{"id":2235621,"name":"spinkay","country":"pk","lat":34.465556,"lon":71.142778},{"id":50755,"name":"mitrani","country":"af","lat":34.195419,"lon":70.638466},{"id":2181060,"name":"ghurasgo mela","country":"pk","lat":33.947104,"lon":71.213574},{"id":2207775,"name":"kutapan","country":"pk","lat":33.790763,"lon":71.021453},{"id":2207332,"name":"kumbai","country":"pk","lat":33.60032,"lon":70.726623},{"id":2151664,"name":"allahdad nmasai","country":"pk","lat":33.728469,"lon":70.673971},{"id":2236545,"name":"sur tang","country":"pk","lat":33.649342,"lon":70.96691},{"id":2203041,"name":"khawangi ghakhai","country":"pk","lat":33.744451,"lon":71.11443},{"id":2235723,"name":"stara karbogha","country":"pk","lat":33.605833,"lon":70.985833},{"id":2162441,"name":"bizoti","country":"pk","lat":33.784689,"lon":70.975705},{"id":2177469,"name":"durbi khel","country":"pk","lat":33.812889,"lon":70.619046},{"id":2215615,"name":"mishtio kili","country":"pk","lat":33.647222,"lon":70.653056},{"id":2151138,"name":"algadi","country":"pk","lat":34.013402,"lon":71.067463},{"id":2236422,"name":"sur baghal","country":"pk","lat":33.652663,"lon":70.957365},{"id":2172913,"name":"darota","country":"pk","lat":33.812792,"lon":70.937064},{"id":76474,"name":"sherabad","country":"af","lat":34.233423,"lon":71.027886},{"id":2151555,"name":"alizai","country":"pk","lat":33.616316,"lon":71.295244},{"id":2232495,"name":"shaibak","country":"pk","lat":33.800578,"lon":70.90709},{"id":2207021,"name":"krapai","country":"pk","lat":33.713011,"lon":70.654794},{"id":46052,"name":"landa boc","country":"af","lat":34.437651,"lon":70.608022},{"id":37211,"name":"kateli","country":"af","lat":34.186195,"lon":70.828247},{"id":2180510,"name":"ghilji kili","country":"pk","lat":34.116667,"lon":71.469167},{"id":2155698,"name":"banda fateh khan khel","country":"pk","lat":33.542026,"lon":71.400666},{"id":2231894,"name":"shahbaz sam","country":"pk","lat":33.739137,"lon":70.510343},{"id":75678,"name":"sharavay","country":"af","lat":34.010246,"lon":70.568642},{"id":2241194,"name":"ut mela","country":"pk","lat":33.573056,"lon":70.923333},{"id":2203993,"name":"khurami","country":"pk","lat":33.921176,"lon":70.993153},{"id":2215614,"name":"mishti bazar","country":"pk","lat":33.749711,"lon":70.870159},{"id":2213056,"name":"manzari china","country":"pk","lat":34.488256,"lon":71.05913},{"id":2207813,"name":"kuti ziarat","country":"pk","lat":33.809058,"lon":70.955047},{"id":2170707,"name":"chinarak","country":"pk","lat":33.561667,"lon":70.572778},{"id":17459,"name":"darguli","country":"af","lat":34.432254,"lon":70.628818},{"id":2160144,"name":"baza kili","country":"pk","lat":33.574167,"lon":70.833333},{"id":2227311,"name":"rawal kor","country":"pk","lat":34.193611,"lon":71.416944},{"id":2212209,"name":"mamozai","country":"pk","lat":34.493998,"lon":71.115051},{"id":2233742,"name":"sher maddi kili","country":"pk","lat":34.057778,"lon":71.243611},{"id":57627,"name":"pasahi ghar","country":"af","lat":34.375713,"lon":70.784263},{"id":2153548,"name":"baba sahib ziarat","country":"pk","lat":33.573776,"lon":70.539824},{"id":2229694,"name":"samandar kili","country":"pk","lat":33.689147,"lon":70.581039},{"id":2203883,"name":"khukian","country":"pk","lat":34.017101,"lon":71.028113},{"id":84411,"name":"torlala-kalay","country":"af","lat":34.055233,"lon":70.919876},{"id":2202370,"name":"khanjar","country":"pk","lat":34.48091,"lon":71.088811},{"id":2201160,"name":"katsa","country":"pk","lat":33.574444,"lon":70.998889},{"id":2208720,"name":"lalmai","country":"pk","lat":33.586665,"lon":70.722519},{"id":2219119,"name":"nangrosa","country":"pk","lat":33.934472,"lon":70.857453},{"id":81467,"name":"syahcob","country":"af","lat":34.176807,"lon":70.725487},{"id":2209972,"name":"ludi khel","country":"pk","lat":33.589167,"lon":71.169444},{"id":2217682,"name":"mulliano kili","country":"pk","lat":33.795443,"lon":70.671859},{"id":2156718,"name":"barhamzo kili","country":"pk","lat":33.771433,"lon":71.053724},{"id":25878,"name":"ghizgay","country":"af","lat":34.237785,"lon":70.932419},{"id":2240768,"name":"umar khan garhi","country":"pk","lat":34.081667,"lon":71.461111},{"id":2229571,"name":"salimai mela","country":"pk","lat":33.93947,"lon":70.760576},{"id":2155683,"name":"banda chi","country":"pk","lat":33.542783,"lon":70.832053},{"id":2156469,"name":"barai","country":"pk","lat":33.903921,"lon":70.682057},{"id":2217655,"name":"mulla saiyid kili","country":"pk","lat":34.150186,"lon":71.235814},{"id":2213048,"name":"manzaon","country":"pk","lat":33.777895,"lon":70.806049},{"id":2238073,"name":"taud kamar","country":"pk","lat":34.006867,"lon":71.07386},{"id":2240582,"name":"udal","country":"pk","lat":33.787989,"lon":70.66745},{"id":2242628,"name":"wole","country":"pk","lat":34.441667,"lon":71.063611},{"id":2180519,"name":"ghilzo mena","country":"pk","lat":34.22817,"lon":71.136421},{"id":2240586,"name":"uda pakha","country":"pk","lat":33.784635,"lon":70.696664},{"id":2209291,"name":"lashora","country":"pk","lat":34.0387,"lon":71.332998},{"id":2150819,"name":"akal khel","country":"pk","lat":33.817605,"lon":70.644845},{"id":2215686,"name":"mistri khel","country":"pk","lat":33.926508,"lon":71.285284},{"id":2208163,"name":"lagham","country":"pk","lat":34.359621,"lon":71.460114},{"id":2198902,"name":"kalaya","country":"pk","lat":33.747839,"lon":70.96204},{"id":72270,"name":"sarnilay","country":"af","lat":34.057777,"lon":70.640854},{"id":2152950,"name":"askalan","country":"pk","lat":33.639926,"lon":70.605883},{"id":2230449,"name":"sara khwa","country":"pk","lat":33.713509,"lon":70.748803},{"id":2163316,"name":"bura","country":"pk","lat":33.865,"lon":70.869167},{"id":2212339,"name":"mandana","country":"pk","lat":33.583889,"lon":70.537778},{"id":2242644,"name":"wucha garhi","country":"pk","lat":33.893611,"lon":71.299444},{"id":24534,"name":"gargumena","country":"af","lat":33.980322,"lon":70.71042},{"id":2172326,"name":"dand","country":"pk","lat":33.527222,"lon":70.727778},{"id":2162215,"name":"binai garhi","country":"pk","lat":33.694203,"lon":71.298634},{"id":2243727,"name":"zintara","country":"pk","lat":34.070232,"lon":71.218931},{"id":2181069,"name":"ghurghushto pail","country":"pk","lat":33.766098,"lon":70.680339},{"id":2225431,"name":"qaziano katskai","country":"pk","lat":33.895946,"lon":70.859402},{"id":2179983,"name":"ghalanai","country":"pk","lat":33.843626,"lon":71.074031},{"id":89090,"name":"zor kala","country":"af","lat":34.462605,"lon":70.869024},{"id":2233736,"name":"sher kili","country":"pk","lat":34.149167,"lon":71.471389},{"id":2172908,"name":"daroi khel","country":"pk","lat":33.619163,"lon":71.29622},{"id":2236960,"name":"takhtak","country":"pk","lat":33.760083,"lon":71.037384},{"id":2215876,"name":"mitu sandalai","country":"pk","lat":33.69134,"lon":70.924687},{"id":2226809,"name":"rangin khel","country":"pk","lat":33.725,"lon":70.886944},{"id":2209011,"name":"lando kamar","country":"pk","lat":33.73612,"lon":70.683099},{"id":2152169,"name":"amlok","country":"pk","lat":33.739016,"lon":70.525406},{"id":7893,"name":"bara-kala","country":"af","lat":34.214798,"lon":70.697937},{"id":2240470,"name":"tutanai","country":"pk","lat":33.68841,"lon":70.673203},{"id":2234085,"name":"shino nakka","country":"pk","lat":33.572421,"lon":70.827524},{"id":69975,"name":"sanduq","country":"af","lat":34.103695,"lon":70.690598},{"id":2233435,"name":"sheikhan","country":"pk","lat":33.58849,"lon":71.482557},{"id":2221403,"name":"okho warsak","country":"pk","lat":33.706758,"lon":71.492179},{"id":2198406,"name":"kagukai","country":"pk","lat":33.947885,"lon":71.3316},{"id":2194927,"name":"jahgai","country":"pk","lat":34.008703,"lon":71.020471},{"id":2218022,"name":"murghi china","country":"pk","lat":33.664242,"lon":71.097498},{"id":2197785,"name":"jowara","country":"pk","lat":33.859129,"lon":70.794088},{"id":82393,"name":"takyah ziarat-e kalay","country":"af","lat":34.304512,"lon":70.791656},{"id":12197,"name":"chahar qal`ah","country":"af","lat":34.449546,"lon":70.5801},{"id":2242930,"name":"yasin kor","country":"pk","lat":34.460107,"lon":71.341368},{"id":21008,"name":"dobandai khule menah","country":"af","lat":33.98481,"lon":70.709595},{"id":34853,"name":"kandar","country":"af","lat":34.075043,"lon":70.676193},{"id":2169519,"name":"chapur","country":"pk","lat":34.395925,"lon":71.442568},{"id":2229869,"name":"samsai","country":"pk","lat":34.252717,"lon":71.264502},{"id":2156643,"name":"bardak","country":"pk","lat":33.777255,"lon":70.760013},{"id":2190159,"name":"guli bagh","country":"pk","lat":34.115813,"lon":71.430191},{"id":2200986,"name":"kata nakhtar","country":"pk","lat":33.76055,"lon":70.825434},{"id":39323,"name":"kharkani kalay","country":"af","lat":34.035725,"lon":70.759766},{"id":48494,"name":"mangoli","country":"af","lat":34.444719,"lon":70.643482},{"id":2214099,"name":"mazar","country":"pk","lat":33.674722,"lon":70.958889},{"id":79911,"name":"spere kelay","country":"af","lat":34.450646,"lon":70.872665},{"id":2234628,"name":"sikh kot","country":"pk","lat":33.893835,"lon":70.738876},{"id":36686,"name":"karyan","country":"af","lat":34.139854,"lon":70.75042},{"id":2207984,"name":"kuz tartara","country":"pk","lat":34.114318,"lon":71.302594},{"id":2215611,"name":"mishtala","country":"pk","lat":34.471437,"lon":71.302836},{"id":2209436,"name":"lawata","country":"pk","lat":33.883611,"lon":71.138611},{"id":2215550,"name":"mirzai","country":"pk","lat":33.6686,"lon":70.610985},{"id":2177464,"name":"durba khel","country":"pk","lat":34.341809,"lon":71.372098},{"id":2208910,"name":"landawar","country":"pk","lat":33.827987,"lon":70.794797},{"id":38966,"name":"khanjarkheyl","country":"af","lat":34.41768,"lon":70.629308},{"id":2237595,"name":"tapu kili","country":"pk","lat":33.778573,"lon":71.381143},{"id":8532,"name":"bar mirzakheyl","country":"af","lat":34.415206,"lon":70.674347},{"id":2243210,"name":"zaman garhi","country":"pk","lat":33.750447,"lon":70.951394},{"id":2205141,"name":"kohat","country":"pk","lat":33.581958,"lon":71.449291},{"id":2195948,"name":"janu dag","country":"pk","lat":33.680413,"lon":70.960096},{"id":29831,"name":"hindrani","country":"af","lat":34.150093,"lon":70.60186},{"id":2243615,"name":"ziarat ghakhi","country":"pk","lat":34.467939,"lon":71.107175},{"id":2199644,"name":"kandao nakka","country":"pk","lat":33.7375,"lon":70.783611},{"id":2206654,"name":"kot mela","country":"pk","lat":33.723532,"lon":71.494468},{"id":64972,"name":"qasab kalay","country":"af","lat":34.064533,"lon":70.965363},{"id":2232822,"name":"shakuri banda","country":"pk","lat":33.527823,"lon":71.493328},{"id":78003,"name":"shurungay","country":"af","lat":34.014731,"lon":70.754439},{"id":36681,"name":"kar\u0027yan-akhundzadagan","country":"af","lat":34.138023,"lon":70.751228},{"id":2220774,"name":"nizam baba ziarat","country":"pk","lat":33.56366,"lon":70.66627},{"id":2194641,"name":"jabgai","country":"pk","lat":33.985323,"lon":71.089515},{"id":2202280,"name":"khandu","country":"pk","lat":33.687222,"lon":70.944722},{"id":2232150,"name":"shah katol","country":"pk","lat":34.4,"lon":71.216667},{"id":2172582,"name":"darak","country":"pk","lat":33.690788,"lon":70.704393},{"id":12535,"name":"chakhardekh","country":"af","lat":34.319599,"lon":70.77124},{"id":14605,"name":"cine","country":"af","lat":34.081539,"lon":70.715363},{"id":2237253,"name":"tambu","country":"pk","lat":33.79769,"lon":70.592855},{"id":2220911,"name":"nor kandai","country":"pk","lat":33.866823,"lon":71.178288},{"id":32494,"name":"julagan","country":"af","lat":34.401477,"lon":70.605473},{"id":2225432,"name":"qazian","country":"pk","lat":33.820032,"lon":70.705266},{"id":2155922,"name":"banda shinawari","country":"pk","lat":33.513889,"lon":71.015833},{"id":32841,"name":"kac","country":"af","lat":33.999142,"lon":70.760134},{"id":2239567,"name":"tindai","country":"pk","lat":33.856432,"lon":71.365947},{"id":2234182,"name":"shkundai","country":"pk","lat":33.86183,"lon":71.181448},{"id":2230962,"name":"sarsang","country":"pk","lat":34.1075,"lon":71.456667},{"id":2216517,"name":"mosone","country":"pk","lat":33.585556,"lon":71.044167},{"id":56702,"name":"owbi","country":"af","lat":34.020679,"lon":70.765244},{"id":2156512,"name":"barami","country":"pk","lat":33.705511,"lon":71.488071},{"id":2152013,"name":"ambar banda","country":"pk","lat":33.58335,"lon":71.381258},{"id":2172037,"name":"daktar banda","country":"pk","lat":33.590833,"lon":71.371389},{"id":2221981,"name":"palam dheri","country":"pk","lat":34.123527,"lon":71.453661},{"id":75367,"name":"shamakheyl","country":"af","lat":34.196751,"lon":70.656609},{"id":2153330,"name":"ayaz khel","country":"pk","lat":33.5525,"lon":70.876389},{"id":2219578,"name":"nasrat khel","country":"pk","lat":33.595628,"lon":71.338304},{"id":2239833,"name":"tong","country":"pk","lat":33.672298,"lon":70.901783},{"id":37103,"name":"katah sang","country":"af","lat":34.498401,"lon":70.641254},{"id":2243404,"name":"zarif khel kili","country":"pk","lat":34.01158,"lon":71.044684},{"id":2243265,"name":"zangal","country":"pk","lat":33.690765,"lon":70.594868},{"id":2194611,"name":"jabba shah dilawar","country":"pk","lat":33.896891,"lon":70.854136},{"id":2230512,"name":"sara singer","country":"pk","lat":33.988767,"lon":71.111479},{"id":2193714,"name":"hunar shah kili","country":"pk","lat":34.069397,"lon":71.225936},{"id":25114,"name":"gerdav","country":"af","lat":34.281944,"lon":71.121389},{"id":84385,"name":"tor kham","country":"af","lat":34.130983,"lon":71.082021},{"id":2200484,"name":"karim dad kot","country":"pk","lat":33.735922,"lon":70.564624},{"id":2173311,"name":"dawat kor","country":"pk","lat":34.338611,"lon":71.398611},{"id":2232934,"name":"shalobar","country":"pk","lat":33.820815,"lon":70.748265},{"id":58563,"name":"peravur","country":"af","lat":34.442767,"lon":70.521873},{"id":17068,"name":"dand-sakhibzadagan","country":"af","lat":34.098198,"lon":70.597305},{"id":2226125,"name":"raisan","country":"pk","lat":33.573611,"lon":71.1925},{"id":2193950,"name":"ibrahimo","country":"pk","lat":33.604428,"lon":71.008337},{"id":2241586,"name":"wahab khel","country":"pk","lat":34.360729,"lon":71.398873},{"id":2241141,"name":"utai","country":"pk","lat":33.674247,"lon":71.29255},{"id":2208192,"name":"laghunai","country":"pk","lat":33.789576,"lon":71.061579},{"id":2154050,"name":"badshah gul kili","country":"pk","lat":34.109833,"lon":71.172299},{"id":74381,"name":"shadil\u0027kala","country":"af","lat":34.427495,"lon":70.561621},{"id":2243106,"name":"zagh daria","country":"pk","lat":33.739538,"lon":71.349743},{"id":2215569,"name":"mirzali khel","country":"pk","lat":33.729594,"lon":70.633835},{"id":2242489,"name":"wazir kor","country":"pk","lat":34.232959,"lon":71.256542},{"id":2174386,"name":"dhar","country":"pk","lat":33.540833,"lon":70.948889},{"id":2177244,"name":"dukai","country":"pk","lat":33.56765,"lon":70.883375},{"id":2170744,"name":"chingai","country":"pk","lat":33.557665,"lon":70.643536},{"id":2237245,"name":"tambi garhi","country":"pk","lat":33.7352,"lon":70.923234},{"id":2177991,"name":"fateh kili","country":"pk","lat":34.132532,"lon":71.444703},{"id":2216859,"name":"muhammad azim kili","country":"pk","lat":34.154579,"lon":71.426218},{"id":2156936,"name":"baro khet","country":"pk","lat":34.436888,"lon":71.359177},{"id":3708,"name":"anarbagh","country":"af","lat":34.41058,"lon":70.652792},{"id":2235590,"name":"spinawaiar","country":"pk","lat":33.602372,"lon":71.286366},{"id":2242828,"name":"yarghanjai kili","country":"pk","lat":34.122426,"lon":71.488723},{"id":2152653,"name":"arghanjo","country":"pk","lat":33.716093,"lon":70.664526},{"id":2197541,"name":"jirab","country":"pk","lat":33.56903,"lon":70.932682},{"id":2236502,"name":"sur kili","country":"pk","lat":33.838597,"lon":70.762773},{"id":2242947,"name":"yasta","country":"pk","lat":33.580067,"lon":70.638466},{"id":2214161,"name":"mego kats","country":"pk","lat":34.241644,"lon":71.293144},{"id":2237298,"name":"tandarah","country":"pk","lat":33.767953,"lon":70.513601},{"id":2178983,"name":"ganda tiga","country":"pk","lat":33.78154,"lon":70.648392},{"id":2218761,"name":"nakai kili","country":"pk","lat":33.572778,"lon":70.911111},{"id":2202401,"name":"khanki bazar","country":"pk","lat":33.698889,"lon":70.67},{"id":2154822,"name":"baizadai","country":"pk","lat":33.669755,"lon":70.551123},{"id":2228954,"name":"saifal darra","country":"pk","lat":33.573531,"lon":71.010043},{"id":2207725,"name":"kurumb banda","country":"pk","lat":34.272344,"lon":71.292216},{"id":2181120,"name":"ghwakhai","country":"pk","lat":33.889086,"lon":70.637356},{"id":39182,"name":"kharawai","country":"af","lat":33.961111,"lon":70.541944},{"id":2215326,"name":"mir khan khel kili","country":"pk","lat":33.994818,"lon":71.07232},{"id":2179982,"name":"ghalana","country":"pk","lat":34.319834,"lon":71.397391},{"id":2219358,"name":"nari kade","country":"pk","lat":33.656111,"lon":71.133611},{"id":60492,"name":"qal`ah-ye bandah","country":"af","lat":34.462473,"lon":70.522303},{"id":9747,"name":"bilah","country":"af","lat":34.3477,"lon":70.743871},{"id":26725,"name":"girdikach","country":"af","lat":34.387017,"lon":70.664562},{"id":2230657,"name":"sare lakke kili","country":"pk","lat":34.217222,"lon":71.2075},{"id":13462,"name":"chauk","country":"af","lat":34.210125,"lon":70.761498},{"id":2181036,"name":"ghund khawan","country":"pk","lat":33.575,"lon":70.820556},{"id":2217063,"name":"muhammad khan burj","country":"pk","lat":34.09506,"lon":71.314673},{"id":2215349,"name":"mirki khel","country":"pk","lat":33.837045,"lon":70.648428},{"id":2212487,"name":"mandri khel","country":"pk","lat":33.905525,"lon":70.618993},{"id":2155966,"name":"banda zerhi gul","country":"pk","lat":33.53317,"lon":71.258965},{"id":2215160,"name":"mirazi khel","country":"pk","lat":33.762279,"lon":70.930802},{"id":2236822,"name":"tajabad","country":"pk","lat":33.99267,"lon":71.469391},{"id":2233025,"name":"sham kanre","country":"pk","lat":33.840262,"lon":70.521682},{"id":2233576,"name":"sherai khula","country":"pk","lat":33.641245,"lon":70.613911},{"id":2220225,"name":"nazano","country":"pk","lat":33.677731,"lon":70.855766},{"id":53149,"name":"m\u0027yagan","country":"af","lat":34.119937,"lon":70.684835},{"id":2170608,"name":"chihilgazai","country":"pk","lat":33.860792,"lon":71.189185},{"id":3588,"name":"amirkala-galau","country":"af","lat":34.192905,"lon":70.811905},{"id":2234674,"name":"simar kotha","country":"pk","lat":33.673038,"lon":70.516418},{"id":2177405,"name":"dungai garhi","country":"pk","lat":33.728165,"lon":71.49694},{"id":2243023,"name":"yusuf khan","country":"pk","lat":33.791707,"lon":70.794475},{"id":2243431,"name":"zarkanai","country":"pk","lat":33.808248,"lon":70.726435},{"id":2236629,"name":"tabai","country":"pk","lat":33.624183,"lon":70.73499},{"id":2172070,"name":"dal","country":"pk","lat":33.886327,"lon":70.590076},{"id":2200364,"name":"karerai","country":"pk","lat":34.172028,"lon":71.402437},{"id":46063,"name":"landai","country":"af","lat":33.979895,"lon":70.575528},{"id":48198,"name":"mamakheyl","country":"af","lat":34.42188,"lon":70.664544},{"id":2214741,"name":"mian khel","country":"pk","lat":34.112114,"lon":71.186827},{"id":2237050,"name":"talai","country":"pk","lat":33.596736,"lon":70.856166},{"id":2224561,"name":"plana pakha","country":"pk","lat":33.782226,"lon":70.759769},{"id":2203326,"name":"khinsar","country":"pk","lat":33.698226,"lon":71.028807},{"id":43994,"name":"krapay kala","country":"af","lat":34.006886,"lon":70.818047},{"id":2154243,"name":"bagh-i-surmai","country":"pk","lat":33.593295,"lon":70.592226},{"id":2156363,"name":"baota ghundai","country":"pk","lat":34.487541,"lon":71.284979},{"id":2229557,"name":"saligo","country":"pk","lat":34.333839,"lon":71.441357},{"id":57108,"name":"pakhey","country":"af","lat":34.061722,"lon":70.653389},{"id":2209388,"name":"latu","country":"pk","lat":33.670667,"lon":70.680974},{"id":77491,"name":"sholgar","country":"af","lat":34.046204,"lon":70.755821},{"id":4181,"name":"\u0027arabkhel","country":"af","lat":34.409634,"lon":70.601168},{"id":2215019,"name":"mir ahmad","country":"pk","lat":33.604211,"lon":70.733412},{"id":26437,"name":"ghundey kelay","country":"af","lat":34.040726,"lon":70.797211},{"id":2209362,"name":"latif kili","country":"pk","lat":33.96654,"lon":71.189082},{"id":2239756,"name":"togh payan","country":"pk","lat":33.547825,"lon":71.495677},{"id":2162592,"name":"bokar","country":"pk","lat":33.930684,"lon":70.949629},{"id":2202190,"name":"khanan garhi","country":"pk","lat":33.710721,"lon":71.080845},{"id":2216669,"name":"mughal bagh","country":"pk","lat":34.11839,"lon":71.419774},{"id":83493,"name":"tawus khel","country":"af","lat":34.213421,"lon":70.662071},{"id":2174569,"name":"dheri kalli","country":"pk","lat":34.156174,"lon":71.461133},{"id":2172935,"name":"darre kili","country":"pk","lat":34.401129,"lon":71.320494},{"id":2236302,"name":"sundara","country":"pk","lat":34.461406,"lon":71.410979},{"id":2178342,"name":"gabarai","country":"pk","lat":33.727688,"lon":70.820692},{"id":2229671,"name":"samal banda","country":"pk","lat":33.560833,"lon":71.085833},{"id":75727,"name":"sharkanay","country":"af","lat":34.122737,"lon":70.687695},{"id":2231489,"name":"seri mela","country":"pk","lat":33.592867,"lon":71.011504},{"id":2233309,"name":"sharo dugai","country":"pk","lat":33.693345,"lon":71.037376},{"id":2220243,"name":"nazar kar","country":"pk","lat":33.789148,"lon":70.661265},{"id":2243445,"name":"zarmanza kardara","country":"pk","lat":33.890524,"lon":70.823976},{"id":2233935,"name":"shilandukai","country":"pk","lat":33.762988,"lon":70.548439},{"id":7473,"name":"bamat kandaw","country":"af","lat":33.998219,"lon":70.573273},{"id":2233984,"name":"shin burj kili","country":"pk","lat":34.199839,"lon":71.431514},{"id":2179157,"name":"ganj garhi","country":"pk","lat":33.970198,"lon":71.344508},{"id":2194262,"name":"isagai","country":"pk","lat":34.227233,"lon":71.228997},{"id":2204193,"name":"khwajukai","country":"pk","lat":34.453412,"lon":71.377063},{"id":2196314,"name":"jawara mena","country":"pk","lat":34.141148,"lon":71.315862},{"id":2204309,"name":"kilagai","country":"pk","lat":34.250796,"lon":71.481291},{"id":2152690,"name":"arina","country":"pk","lat":33.909568,"lon":71.069253},{"id":24246,"name":"garae","country":"af","lat":34.314247,"lon":70.795181},{"id":2202793,"name":"kharki","country":"pk","lat":33.586696,"lon":70.80842},{"id":2225945,"name":"rahim mena","country":"pk","lat":34.167613,"lon":71.387911},{"id":44372,"name":"kugakheyl\u0027","country":"af","lat":34.491669,"lon":70.914208},{"id":2219211,"name":"narai mela","country":"pk","lat":33.92559,"lon":70.950831},{"id":2157019,"name":"bar tartara","country":"pk","lat":34.100581,"lon":71.278213},{"id":2200571,"name":"karkanrai","country":"pk","lat":33.777015,"lon":71.24265},{"id":2200255,"name":"karamna","country":"pk","lat":34.021637,"lon":71.168122},{"id":2208472,"name":"laki kili","country":"pk","lat":33.72718,"lon":70.539645},{"id":75203,"name":"shakhnau","country":"af","lat":33.996702,"lon":70.635146},{"id":2202225,"name":"khan beg khel","country":"pk","lat":33.921652,"lon":71.285759},{"id":2169593,"name":"chargule payan","country":"pk","lat":34.170947,"lon":71.477641},{"id":2230448,"name":"sara khwar","country":"pk","lat":33.829409,"lon":70.763468},{"id":2212316,"name":"mandai","country":"pk","lat":33.796305,"lon":71.44686},{"id":2156721,"name":"barh","country":"pk","lat":33.568056,"lon":71.321389},{"id":2191866,"name":"haji pando","country":"pk","lat":33.963177,"lon":71.472499},{"id":2213331,"name":"mario mela","country":"pk","lat":33.710448,"lon":71.091419},{"id":2200916,"name":"kaskizar","country":"pk","lat":33.725,"lon":70.820556},{"id":2207524,"name":"kuni banda","country":"pk","lat":34.245,"lon":71.391111},{"id":2214086,"name":"mazari gahri","country":"pk","lat":33.723922,"lon":70.809735},{"id":2170817,"name":"chirai","country":"pk","lat":33.772781,"lon":70.682817},{"id":2208476,"name":"lakka","country":"pk","lat":34.489622,"lon":71.431178},{"id":33494,"name":"kaladzhat","country":"af","lat":34.148449,"lon":70.610085},{"id":2209008,"name":"landlandi kotal","country":"pk","lat":34.101667,"lon":71.146667},{"id":45698,"name":"laghman kala","country":"af","lat":34.105736,"lon":70.755608},{"id":2192279,"name":"halki pindiali","country":"pk","lat":34.352603,"lon":71.439965},{"id":2236650,"name":"tabi","country":"pk","lat":33.557778,"lon":70.866389},{"id":2230709,"name":"sar ghundai","country":"pk","lat":33.620607,"lon":70.788109},{"id":2224361,"name":"piro pakha","country":"pk","lat":33.800927,"lon":70.953001},{"id":2156692,"name":"barg","country":"pk","lat":33.996913,"lon":71.158701},{"id":2220188,"name":"nawi mela","country":"pk","lat":33.600855,"lon":71.101967},{"id":2228734,"name":"sahibzada kili","country":"pk","lat":34.195755,"lon":71.495872},{"id":2208973,"name":"landi khel","country":"pk","lat":33.920949,"lon":70.899737},{"id":2177744,"name":"faqiran","country":"pk","lat":33.569722,"lon":70.868333},{"id":2243137,"name":"zaidadai mele","country":"pk","lat":33.917778,"lon":70.787222},{"id":2230849,"name":"sarkot","country":"pk","lat":33.6753,"lon":70.976933},{"id":2217552,"name":"mulla darra","country":"pk","lat":33.825133,"lon":71.027432},{"id":2179512,"name":"garhi loharan","country":"pk","lat":33.905168,"lon":71.447144},{"id":2177017,"name":"drab shah","country":"pk","lat":34.483043,"lon":71.334552},{"id":2230661,"name":"sare panre","country":"pk","lat":33.759099,"lon":70.548872},{"id":2152900,"name":"ashik colony","country":"pk","lat":33.553889,"lon":71.453333},{"id":28115,"name":"gundyani","country":"af","lat":34.310661,"lon":70.769241},{"id":2200511,"name":"karim nmasai","country":"pk","lat":33.722357,"lon":70.673095},{"id":2216452,"name":"morgai kili","country":"pk","lat":34.110446,"lon":71.090766},{"id":2176264,"name":"dingar mela","country":"pk","lat":33.77664,"lon":71.430533},{"id":2153810,"name":"bada khan","country":"pk","lat":33.745,"lon":70.768611},{"id":8323,"name":"barikaw qal`ah wali","country":"af","lat":34.29034,"lon":70.69656},{"id":45706,"name":"laghurji","country":"af","lat":34.108849,"lon":70.537788},{"id":2237844,"name":"tarkha","country":"pk","lat":33.585905,"lon":70.737802},{"id":2208449,"name":"lakhtai","country":"pk","lat":33.79377,"lon":70.918961},{"id":2225634,"name":"quaidabad","country":"pk","lat":33.99662,"lon":71.47161},{"id":70542,"name":"saraca","country":"af","lat":34.370048,"lon":70.537345},{"id":2196001,"name":"jaran","country":"pk","lat":34.337852,"lon":71.314797},{"id":2229969,"name":"sandapal","country":"pk","lat":33.825702,"lon":70.848035},{"id":2239566,"name":"tindai kili","country":"pk","lat":33.967593,"lon":71.184094},{"id":2170748,"name":"chingai shah","country":"pk","lat":34.460573,"lon":71.363495},{"id":34822,"name":"kandab mihrabad","country":"af","lat":34.24332,"lon":70.9263},{"id":2234978,"name":"skha dand","country":"pk","lat":34.256667,"lon":71.444167},{"id":2193843,"name":"hussaini kandao","country":"pk","lat":33.72208,"lon":70.921596},{"id":33116,"name":"ka\u0027i","country":"af","lat":34.128189,"lon":70.718277},{"id":2155608,"name":"banat","country":"pk","lat":33.930277,"lon":71.395511},{"id":2160175,"name":"baz bahadur kili","country":"pk","lat":33.86955,"lon":71.165981},{"id":2209941,"name":"lowara mena","country":"pk","lat":34.132875,"lon":71.326105},{"id":2240227,"name":"tsappari","country":"pk","lat":34.083056,"lon":71.281111},{"id":2203090,"name":"khazenai banda","country":"pk","lat":33.521473,"lon":70.871069},{"id":2242641,"name":"wucha darra","country":"pk","lat":33.710556,"lon":70.942778},{"id":2202861,"name":"kharshah","country":"pk","lat":33.790267,"lon":71.081822},{"id":2236613,"name":"sweri mela","country":"pk","lat":33.636389,"lon":71.075},{"id":2201158,"name":"katsai","country":"pk","lat":34.371278,"lon":71.346757},{"id":48769,"name":"marga","country":"af","lat":34.051929,"lon":70.585739},{"id":2231054,"name":"sarzai","country":"pk","lat":33.792353,"lon":70.895608},{"id":2192160,"name":"hakim khan kili","country":"pk","lat":34.130423,"lon":71.438134},{"id":25353,"name":"ghalmo kats","country":"af","lat":34.452,"lon":70.865844},{"id":46469,"name":"lavar","country":"af","lat":34.039021,"lon":70.631821},{"id":80779,"name":"surai","country":"af","lat":34.286944,"lon":71.066389},{"id":2235531,"name":"spedara","country":"pk","lat":33.726916,"lon":71.339035},{"id":70706,"name":"sarbadali","country":"af","lat":34.429367,"lon":70.518502},{"id":2172408,"name":"dangaro pakha","country":"pk","lat":33.687237,"lon":70.982494},{"id":2150061,"name":"achini pain","country":"pk","lat":33.9675,"lon":71.466944},{"id":4559,"name":"asadkhel","country":"af","lat":34.077011,"lon":70.636375},{"id":2192866,"name":"hasan khel","country":"pk","lat":33.789829,"lon":70.724837},{"id":2235254,"name":"soi darra","country":"pk","lat":33.665213,"lon":70.562379},{"id":2237917,"name":"taro kili","country":"pk","lat":33.746247,"lon":71.039462},{"id":2234119,"name":"shiraz garhi","country":"pk","lat":33.781616,"lon":71.092583},{"id":11927,"name":"chagari","country":"af","lat":34.251011,"lon":70.571426},{"id":2220598,"name":"nikot","country":"pk","lat":33.730556,"lon":70.752778},{"id":2233126,"name":"shangarai","country":"pk","lat":33.850129,"lon":70.83492},{"id":2155738,"name":"banda jalalabad","country":"pk","lat":33.559444,"lon":71.481111},{"id":48940,"name":"mar koh","country":"af","lat":34.250827,"lon":70.805389},{"id":2152235,"name":"amzarai gudr","country":"pk","lat":33.856088,"lon":71.390153},{"id":2234051,"name":"shin kamar","country":"pk","lat":33.606228,"lon":70.595954},{"id":2233943,"name":"shilman khula banda","country":"pk","lat":34.237855,"lon":71.124937},{"id":21865,"name":"dushakh","country":"af","lat":34.179221,"lon":70.632146},{"id":83459,"name":"tawda china","country":"af","lat":34.149014,"lon":70.900093},{"id":2242636,"name":"wrasta","country":"pk","lat":33.509444,"lon":71.020278},{"id":2229791,"name":"samghakhai","country":"pk","lat":34.3966,"lon":71.15703},{"id":27389,"name":"gowar","country":"af","lat":34.060108,"lon":70.666061},{"id":2222094,"name":"palosai ziarat","country":"pk","lat":34.498852,"lon":71.236715},{"id":2227888,"name":"rosa","country":"pk","lat":33.882429,"lon":71.298485},{"id":2240735,"name":"umar colony","country":"pk","lat":33.558772,"lon":71.450679},{"id":2171801,"name":"dafangai","country":"pk","lat":33.726389,"lon":70.896389},{"id":2181109,"name":"ghuzgora","country":"pk","lat":33.594167,"lon":70.9},{"id":2170794,"name":"chira","country":"pk","lat":33.995597,"lon":71.06026},{"id":2194024,"name":"ilacha","country":"pk","lat":34.016667,"lon":71.199722},{"id":2154056,"name":"badshah men","country":"pk","lat":34.107369,"lon":71.114908},{"id":2243425,"name":"zarip kor","country":"pk","lat":34.186111,"lon":71.458611},{"id":78923,"name":"si pia","country":"af","lat":34.137917,"lon":70.573746},{"id":2236509,"name":"surmai","country":"pk","lat":33.590616,"lon":70.608664},{"id":2243437,"name":"zarkhazai","country":"pk","lat":33.782414,"lon":70.636053},{"id":2190392,"name":"gul shah kili","country":"pk","lat":33.706389,"lon":70.540278},{"id":2221328,"name":"oblin","country":"pk","lat":33.92255,"lon":70.667562},{"id":2180229,"name":"gharjai","country":"pk","lat":33.913611,"lon":70.646389},{"id":2208177,"name":"laghar","country":"pk","lat":33.822366,"lon":71.078172},{"id":2236871,"name":"taj muhammad garhi","country":"pk","lat":34.084722,"lon":71.478889},{"id":56467,"name":"`omar khel","country":"af","lat":34.030079,"lon":70.943787},{"id":34615,"name":"kamargara","country":"af","lat":34.24033,"lon":70.920006},{"id":2170701,"name":"china nao","country":"pk","lat":33.936282,"lon":70.737343},{"id":2172570,"name":"darai","country":"pk","lat":33.923126,"lon":70.91363},{"id":2243502,"name":"zayah","country":"pk","lat":33.665278,"lon":70.613889},{"id":59952,"name":"qadamay pitaway day","country":"af","lat":34.008186,"lon":70.552996},{"id":62532,"name":"qal`eh-ye bandeh","country":"af","lat":34.251511,"lon":70.546211},{"id":2201638,"name":"khado","country":"pk","lat":33.904336,"lon":70.62427},{"id":2215003,"name":"mirab shahi","country":"pk","lat":33.742222,"lon":71.026944},{"id":2211892,"name":"malkana banda","country":"pk","lat":34.233785,"lon":71.459934},{"id":2160155,"name":"bazar","country":"pk","lat":33.587778,"lon":71.139444},{"id":4659,"name":"ashkheyl","country":"af","lat":34.113728,"lon":70.761948},{"id":2236612,"name":"sweri kili","country":"pk","lat":33.643497,"lon":70.609874},{"id":2229336,"name":"sakh kor","country":"pk","lat":33.919956,"lon":71.035997},{"id":2239582,"name":"tindi","country":"pk","lat":33.883594,"lon":70.652875},{"id":2149991,"name":"abudag","country":"pk","lat":33.672249,"lon":71.020368},{"id":2150331,"name":"aghal","country":"pk","lat":33.718753,"lon":70.792648},{"id":2153037,"name":"ata jawar","country":"pk","lat":34.390288,"lon":71.23442},{"id":2231048,"name":"sarweki","country":"pk","lat":34.009832,"lon":71.054743},{"id":2221724,"name":"paila","country":"pk","lat":33.642552,"lon":70.590801},{"id":2243339,"name":"zarand kili","country":"pk","lat":33.783456,"lon":71.340866},{"id":2243190,"name":"zako ghakhai","country":"pk","lat":33.729206,"lon":71.190067},{"id":57476,"name":"parchow","country":"af","lat":34.267222,"lon":71.115278},{"id":2152964,"name":"aslam garhi","country":"pk","lat":33.785665,"lon":71.080299},{"id":37269,"name":"katso menah","country":"af","lat":33.999748,"lon":70.719112},{"id":2180606,"name":"ghoriza bara garhi","country":"pk","lat":33.887499,"lon":71.406478},{"id":2239942,"name":"tor dand","country":"pk","lat":34.295257,"lon":71.452904},{"id":2226662,"name":"ram sher khel","country":"pk","lat":33.8135,"lon":70.619485},{"id":34637,"name":"kamar sar","country":"af","lat":34.125931,"lon":70.684685},{"id":53516,"name":"nakata khola","country":"af","lat":33.982829,"lon":70.783788},{"id":2178968,"name":"ganda kats","country":"pk","lat":33.745833,"lon":70.777778},{"id":2241879,"name":"wali nmasai","country":"pk","lat":33.742653,"lon":70.634679},{"id":2217802,"name":"mundir","country":"pk","lat":33.705491,"lon":70.924513},{"id":2197524,"name":"jinnah colony","country":"pk","lat":34.0103,"lon":71.4798},{"id":2221837,"name":"pakhar","country":"pk","lat":33.828709,"lon":70.550926},{"id":2192458,"name":"hangu","country":"pk","lat":33.531085,"lon":71.05934},{"id":2155680,"name":"banda char garhi","country":"pk","lat":33.535938,"lon":71.41933},{"id":2177060,"name":"dras","country":"pk","lat":33.810429,"lon":70.925969},{"id":2155203,"name":"balajawar","country":"pk","lat":33.763635,"lon":70.629015},{"id":2232663,"name":"shaikhwal","country":"pk","lat":34.078889,"lon":71.175278},{"id":70850,"name":"sardagar","country":"af","lat":34.061432,"lon":70.646683},{"id":2180970,"name":"ghulan kats","country":"pk","lat":33.788625,"lon":70.768672},{"id":2231844,"name":"shah bado","country":"pk","lat":33.66054,"lon":70.551103},{"id":2227369,"name":"raza khan kili","country":"pk","lat":34.186903,"lon":71.471487},{"id":2237528,"name":"tanna","country":"pk","lat":33.500278,"lon":70.57},{"id":9160,"name":"baziskheyl","country":"af","lat":34.433568,"lon":70.640887},{"id":2222098,"name":"palosi atozai","country":"pk","lat":34.035552,"lon":71.48845},{"id":2217611,"name":"mulla mundai","country":"pk","lat":34.335058,"lon":71.387424},{"id":2233310,"name":"sharo mela","country":"pk","lat":33.747336,"lon":71.356966},{"id":2152875,"name":"ashaq khel","country":"pk","lat":34.112334,"lon":71.143619},{"id":39805,"name":"khaydarkheyl\u0027","country":"af","lat":34.15221,"lon":70.616562},{"id":2235560,"name":"sper kot","country":"pk","lat":33.56022,"lon":70.696004},{"id":2193540,"name":"hodal","country":"pk","lat":33.74942,"lon":70.617338},{"id":2207519,"name":"kung","country":"pk","lat":34.454885,"lon":71.209293},{"id":67876,"name":"roghani","country":"af","lat":34.235298,"lon":70.533691},{"id":2218171,"name":"musamar","country":"pk","lat":33.810784,"lon":70.889632},{"id":2171815,"name":"dagai","country":"pk","lat":34.342031,"lon":71.391358},{"id":2215157,"name":"mirazai","country":"pk","lat":33.7593,"lon":70.96689},{"id":2230857,"name":"sarlara","country":"pk","lat":34.494602,"lon":71.227793},{"id":2240985,"name":"uria khel","country":"pk","lat":33.74328,"lon":70.810598},{"id":2155754,"name":"banda kanduli","country":"pk","lat":33.546621,"lon":70.955258},{"id":2160398,"name":"bela mohmandan","country":"pk","lat":34.176895,"lon":71.453722},{"id":2214743,"name":"mian khelo mela","country":"pk","lat":33.682222,"lon":71.006389},{"id":2234854,"name":"sira tigga","country":"pk","lat":34.332487,"lon":71.224981},{"id":2234063,"name":"shinki kili","country":"pk","lat":33.611921,"lon":71.03355},{"id":2190171,"name":"guli kang","country":"pk","lat":33.659229,"lon":70.666882},{"id":14908,"name":"dagah","country":"af","lat":34.205849,"lon":70.820969},{"id":2193237,"name":"hayat nam kili","country":"pk","lat":33.783896,"lon":71.489625},{"id":2222184,"name":"pandher","country":"pk","lat":33.72403,"lon":70.665333},{"id":2235276,"name":"sokanai","country":"pk","lat":33.906488,"lon":70.86626},{"id":2191098,"name":"haiki kadda","country":"pk","lat":33.780008,"lon":70.611455},{"id":2154253,"name":"bagh kili","country":"pk","lat":34.159722,"lon":71.250278},{"id":7560,"name":"bandar khulah","country":"af","lat":34.068893,"lon":70.764473},{"id":2222531,"name":"parata","country":"pk","lat":34.375507,"lon":71.328166},{"id":70743,"name":"sarband","country":"af","lat":34.226665,"lon":71.033236},{"id":2198185,"name":"kachcha garhi","country":"pk","lat":33.987857,"lon":71.430173},{"id":2229963,"name":"sandana","country":"pk","lat":33.919275,"lon":70.893453},{"id":2160139,"name":"baza","country":"pk","lat":33.593333,"lon":70.912222},{"id":85568,"name":"utkay","country":"af","lat":34.273209,"lon":70.83168},{"id":2219946,"name":"nawai kamar","country":"pk","lat":33.897089,"lon":71.281361},{"id":14612,"name":"cine kala","country":"af","lat":34.291443,"lon":70.822144},{"id":2212361,"name":"mandatai","country":"pk","lat":33.733312,"lon":70.85166},{"id":51572,"name":"morchal kalay","country":"af","lat":34.062157,"lon":70.796738},{"id":1382,"name":"achin","country":"af","lat":34.082481,"lon":70.668152},{"id":2156897,"name":"bar mela","country":"pk","lat":33.771791,"lon":70.530601},{"id":2214760,"name":"mian maidan","country":"pk","lat":33.793579,"lon":70.734209},{"id":2242698,"name":"wusi","country":"pk","lat":33.807669,"lon":70.50653},{"id":2239888,"name":"tora gahri","country":"pk","lat":33.728347,"lon":70.815354},{"id":4588,"name":"asel barikaw","country":"af","lat":34.30439,"lon":70.70798},{"id":56133,"name":"nur khan kelay","country":"af","lat":34.399106,"lon":71.039431},{"id":2230494,"name":"saran tsapparai","country":"pk","lat":34.224556,"lon":71.340006},{"id":2237705,"name":"tarbatta","country":"pk","lat":33.553677,"lon":70.729994},{"id":2151135,"name":"algadai","country":"pk","lat":33.759706,"lon":71.454295},{"id":2219767,"name":"naula garhi","country":"pk","lat":34.038454,"lon":71.459674},{"id":2242695,"name":"wurmando mela","country":"pk","lat":34.023318,"lon":71.333902},{"id":2236527,"name":"sursara","country":"pk","lat":33.739115,"lon":70.562185},{"id":2228902,"name":"said khan nmasai","country":"pk","lat":33.618858,"lon":70.944595},{"id":51202,"name":"mohmand darrah","country":"af","lat":34.247494,"lon":70.872177},{"id":2195578,"name":"janako","country":"pk","lat":33.73843,"lon":70.877993},{"id":2230535,"name":"sara wela","country":"pk","lat":33.863236,"lon":70.763837},{"id":2220198,"name":"nawo kili","country":"pk","lat":34.39166,"lon":71.407834},{"id":2180679,"name":"ghulam ali","country":"pk","lat":33.865262,"lon":70.850636},{"id":2228844,"name":"said ali mela","country":"pk","lat":34.025299,"lon":71.263541},{"id":2240435,"name":"turkho shah","country":"pk","lat":34.398989,"lon":71.466452},{"id":2230082,"name":"sangar","country":"pk","lat":34.350271,"lon":71.371097},{"id":2160214,"name":"bazo patai","country":"pk","lat":33.746944,"lon":71.037778},{"id":2207808,"name":"kutiani","country":"pk","lat":33.80339,"lon":71.250979},{"id":2153233,"name":"aut chakha","country":"pk","lat":33.655152,"lon":70.957125},{"id":38911,"name":"khani khel","country":"af","lat":33.997778,"lon":70.809444},{"id":45279,"name":"kustawal","country":"af","lat":34.422791,"lon":70.600117},{"id":2219925,"name":"nawab sahib kili","country":"pk","lat":34.158922,"lon":71.426944},{"id":77751,"name":"showdah","country":"af","lat":34.424319,"lon":70.554896},{"id":2225204,"name":"qaim khel","country":"pk","lat":33.790012,"lon":70.742637},{"id":2237235,"name":"tamash khan garhi","country":"pk","lat":34.11672,"lon":71.489508},{"id":25568,"name":"ghar kelay","country":"af","lat":34.218044,"lon":70.669289},{"id":2214981,"name":"minjan","country":"pk","lat":33.70123,"lon":70.573148},{"id":2242645,"name":"wucha jawar","country":"pk","lat":34.390962,"lon":71.335447},{"id":2155627,"name":"banda abdullah khan","country":"pk","lat":33.567902,"lon":71.430399},{"id":21510,"name":"drabo zawar","country":"af","lat":34.436994,"lon":70.857293},{"id":2152279,"name":"andarai","country":"pk","lat":33.794935,"lon":71.460054},{"id":2178974,"name":"gandao","country":"pk","lat":33.860841,"lon":70.52417},{"id":2212941,"name":"manro patai","country":"pk","lat":33.607222,"lon":70.762222},{"id":2155936,"name":"banda tangi","country":"pk","lat":33.517732,"lon":70.884235},{"id":2207165,"name":"kui kili","country":"pk","lat":34.207222,"lon":71.436389},{"id":2200994,"name":"katar dand","country":"pk","lat":34.243509,"lon":71.396828},{"id":47960,"name":"malewe kalay","country":"af","lat":34.055157,"lon":70.85955},{"id":16952,"name":"daman","country":"af","lat":34.475242,"lon":70.532278},{"id":2209211,"name":"lar kanre","country":"pk","lat":33.720556,"lon":70.892222},{"id":2236894,"name":"tajo","country":"pk","lat":33.857779,"lon":70.531097},{"id":2195774,"name":"jang kili","country":"pk","lat":34.179203,"lon":71.423012},{"id":2177403,"name":"dunga","country":"pk","lat":33.811271,"lon":70.78063},{"id":2208530,"name":"lala china","country":"pk","lat":34.00421,"lon":71.272096},{"id":4657,"name":"ashkheyl","country":"af","lat":34.071476,"lon":70.698952},{"id":11322,"name":"calgaro kalay","country":"af","lat":34.41334,"lon":71.034008},{"id":2194383,"name":"islamia colony","country":"pk","lat":34.003391,"lon":71.469812},{"id":2179528,"name":"garhi mohmand","country":"pk","lat":34.097264,"lon":71.495776},{"id":2228516,"name":"safaid dheri","country":"pk","lat":33.98164,"lon":71.48829},{"id":2212132,"name":"mamanai nakka","country":"pk","lat":33.750433,"lon":70.968124},{"id":25099,"name":"gerdab","country":"af","lat":34.275719,"lon":70.834274},{"id":2236957,"name":"takhtai","country":"pk","lat":33.716389,"lon":70.585833},{"id":2194046,"name":"ilm gudr","country":"pk","lat":33.896667,"lon":71.426667},{"id":45613,"name":"lacapur","country":"af","lat":34.357852,"lon":70.71981},{"id":2240646,"name":"ugda zarimena","country":"pk","lat":34.260451,"lon":71.224854},{"id":2237789,"name":"tari","country":"pk","lat":33.597222,"lon":71.088333},{"id":2172645,"name":"darband","country":"pk","lat":33.51866,"lon":70.987456},{"id":2228290,"name":"sadarai","country":"pk","lat":33.639444,"lon":70.768611},{"id":2222093,"name":"palosai talarzai","country":"pk","lat":34.03139,"lon":71.49194},{"id":2154186,"name":"bagh","country":"pk","lat":33.600871,"lon":70.577193},{"id":2230193,"name":"sangu","country":"pk","lat":33.933333,"lon":71.466667},{"id":33284,"name":"kakal aw bajawri","country":"af","lat":34.446442,"lon":70.598229},{"id":2233981,"name":"shinawari","country":"pk","lat":33.519722,"lon":70.808333},{"id":2150298,"name":"afridi banda","country":"pk","lat":33.537815,"lon":71.245533},{"id":14811,"name":"dab kelay","country":"af","lat":34.056126,"lon":70.597084},{"id":2199368,"name":"kamar dand","country":"pk","lat":33.523058,"lon":71.372816},{"id":2209247,"name":"las garhi","country":"pk","lat":33.656976,"lon":71.463077},{"id":2169111,"name":"chana darra","country":"pk","lat":33.635833,"lon":70.680556},{"id":2209600,"name":"limara garhi","country":"pk","lat":33.701468,"lon":70.669374},{"id":76073,"name":"shaykh mar khel","country":"af","lat":34.143349,"lon":70.742569},{"id":2172752,"name":"dargai gurat","country":"pk","lat":34.147179,"lon":71.190171},{"id":33595,"name":"kala","country":"af","lat":34.069183,"lon":70.690666},{"id":2224241,"name":"pir jowar","country":"pk","lat":34.336789,"lon":71.477812},{"id":2223623,"name":"piari bala","country":"pk","lat":34.174167,"lon":71.489722},{"id":2240451,"name":"turobai","country":"pk","lat":33.898645,"lon":70.918219},{"id":2210373,"name":"madat khan kili","country":"pk","lat":34.151322,"lon":71.426033},{"id":2242694,"name":"wuria","country":"pk","lat":33.689975,"lon":70.649884},{"id":2243489,"name":"zawan","country":"pk","lat":33.758668,"lon":70.888353},{"id":2150532,"name":"ahmad khan kili","country":"pk","lat":34.153121,"lon":71.243797},{"id":88126,"name":"zarbacha","country":"af","lat":34.218689,"lon":70.685509},{"id":2223625,"name":"piari payan","country":"pk","lat":34.171237,"lon":71.498379},{"id":2230457,"name":"sara nakkao","country":"pk","lat":33.715588,"lon":70.875849},{"id":2243345,"name":"zara pakha","country":"pk","lat":33.800817,"lon":70.829624},{"id":88464,"name":"zarshoi","country":"af","lat":34.424316,"lon":70.580433},{"id":2152211,"name":"amri khel","country":"pk","lat":33.833807,"lon":70.842985},{"id":2240020,"name":"tor pam garhi","country":"pk","lat":33.597065,"lon":71.416414},{"id":3419,"name":"alyakheyl","country":"af","lat":34.129807,"lon":70.689415},{"id":2151885,"name":"alo kili","country":"pk","lat":34.147778,"lon":71.465},{"id":2194609,"name":"jabbar nmasai","country":"pk","lat":33.742417,"lon":70.619424},{"id":53822,"name":"naray owbeh","country":"af","lat":34.498981,"lon":70.726476},{"id":66936,"name":"raga","country":"af","lat":34.055916,"lon":70.672348},{"id":2151805,"name":"allah yar khan garhi","country":"pk","lat":33.601362,"lon":71.281655},{"id":2234535,"name":"sifat banda","country":"pk","lat":33.532222,"lon":71.111667},{"id":2231742,"name":"shaghali payan","country":"pk","lat":34.161299,"lon":71.497624},{"id":2197882,"name":"juma khan kili","country":"pk","lat":34.175894,"lon":71.411575},{"id":2239768,"name":"toi mela","country":"pk","lat":33.683933,"lon":71.277368},{"id":2240925,"name":"unrai","country":"pk","lat":33.753334,"lon":70.798881},{"id":2176850,"name":"dora","country":"pk","lat":33.9858,"lon":71.4832},{"id":2172229,"name":"dambu","country":"pk","lat":33.741667,"lon":70.801111},{"id":21409,"name":"dowlat khel","country":"af","lat":34.075119,"lon":70.705948},{"id":2233121,"name":"shanelo kili","country":"pk","lat":34.249817,"lon":71.283712},{"id":3918,"name":"ani khan khel","country":"af","lat":34.284657,"lon":70.82225},{"id":2225114,"name":"qadirabad","country":"pk","lat":34.0173,"lon":71.4989},{"id":2240252,"name":"tslor kheli kili","country":"pk","lat":33.729167,"lon":70.986389},{"id":2177748,"name":"faqirano kili","country":"pk","lat":33.992553,"lon":71.090144},{"id":2170782,"name":"chino berai kili","country":"pk","lat":34.222943,"lon":71.243103},{"id":88829,"name":"ziarat-e dag","country":"af","lat":34.492917,"lon":70.909019},{"id":2243327,"name":"zara kili","country":"pk","lat":33.543611,"lon":70.904167},{"id":2157141,"name":"bashiri","country":"pk","lat":33.713776,"lon":71.494952},{"id":2169066,"name":"chamjanna","country":"pk","lat":33.769064,"lon":71.126559},{"id":2204205,"name":"khwar","country":"pk","lat":34.011906,"lon":71.063159},{"id":2240150,"name":"tre khula kili","country":"pk","lat":33.886372,"lon":70.80889},{"id":70058,"name":"sangarsaray","country":"af","lat":34.407438,"lon":70.639374},{"id":51997,"name":"muhmand darrah woluswali","country":"af","lat":34.255341,"lon":70.86573},{"id":82341,"name":"takhto kelay","country":"af","lat":34.018429,"lon":70.758301},{"id":2236120,"name":"sultan khel landai","country":"pk","lat":33.787502,"lon":70.816342},{"id":2219181,"name":"naouna","country":"pk","lat":33.8387,"lon":70.86127},{"id":2212921,"name":"manrai","country":"pk","lat":33.845776,"lon":70.592934},{"id":53563,"name":"nakhtarnaw","country":"af","lat":34.007668,"lon":70.880173},{"id":2195349,"name":"jamal mela","country":"pk","lat":33.599729,"lon":71.036577},{"id":2178784,"name":"gal","country":"pk","lat":33.729413,"lon":70.759302},{"id":27365,"name":"goshteh","country":"af","lat":34.358223,"lon":70.762642},{"id":48341,"name":"mandatay","country":"af","lat":33.992587,"lon":70.795181},{"id":2221549,"name":"pacha panra","country":"pk","lat":33.638611,"lon":70.799722},{"id":85015,"name":"turkani","country":"af","lat":34.496631,"lon":70.943083},{"id":2190861,"name":"habibo china","country":"pk","lat":33.933543,"lon":70.924702},{"id":21009,"name":"dobandai menah","country":"af","lat":33.989002,"lon":70.719347},{"id":2236436,"name":"surdag","country":"pk","lat":34.379764,"lon":71.313521},{"id":2153050,"name":"atam kalay","country":"pk","lat":34.452428,"lon":71.063764},{"id":2237738,"name":"targho","country":"pk","lat":33.728196,"lon":70.715684},{"id":32815,"name":"kach","country":"af","lat":34.100891,"lon":70.521545},{"id":2178952,"name":"ganda","country":"pk","lat":33.6625,"lon":71.015},{"id":87958,"name":"zanabad","country":"af","lat":34.460718,"lon":70.509036},{"id":2171852,"name":"dagi","country":"pk","lat":33.631707,"lon":70.525877},{"id":27362,"name":"goshtal","country":"af","lat":34.089935,"lon":70.686211},{"id":2213684,"name":"mastj khel","country":"pk","lat":33.821288,"lon":70.635308},{"id":2170819,"name":"chira khargai","country":"pk","lat":33.930089,"lon":71.393383},{"id":2201766,"name":"khairi kats","country":"pk","lat":33.795742,"lon":70.821846},{"id":2195824,"name":"jani khel kats","country":"pk","lat":33.796511,"lon":70.803945},{"id":2204187,"name":"khwajas kor","country":"pk","lat":34.359051,"lon":71.356242},{"id":2234104,"name":"shinyo mela","country":"pk","lat":33.825656,"lon":71.02417},{"id":2200617,"name":"karmadan","country":"pk","lat":33.746111,"lon":70.809444},{"id":2231033,"name":"sarwar mela","country":"pk","lat":33.56055,"lon":70.852319},{"id":9256,"name":"bedara","country":"af","lat":34.273994,"lon":70.927597},{"id":2196209,"name":"jatta","country":"pk","lat":33.765068,"lon":70.886979},{"id":2230794,"name":"sarkai kamar","country":"pk","lat":33.935445,"lon":71.294601},{"id":2242958,"name":"yigo patai","country":"pk","lat":33.595697,"lon":70.708177},{"id":2189828,"name":"gudi banda","country":"pk","lat":33.523826,"lon":71.498215},{"id":34656,"name":"kambaru","country":"af","lat":34.260044,"lon":70.622864},{"id":2218816,"name":"nakka mela","country":"pk","lat":33.665816,"lon":70.892582},{"id":2202769,"name":"kharka","country":"pk","lat":33.779761,"lon":70.737858},{"id":2153242,"name":"awaf khan","country":"pk","lat":34.115643,"lon":71.092609},{"id":42698,"name":"kirkir dand","country":"af","lat":34.47544,"lon":70.946395},{"id":2192106,"name":"hajizai","country":"pk","lat":34.113645,"lon":71.476535},{"id":2233591,"name":"sher ali kor","country":"pk","lat":34.128056,"lon":71.4675},{"id":2200298,"name":"karankha","country":"pk","lat":33.775314,"lon":70.515643},{"id":23300,"name":"farm-e chahar","country":"af","lat":34.259942,"lon":70.710567},{"id":48722,"name":"marchukhune","country":"af","lat":33.973479,"lon":70.776453},{"id":2169462,"name":"chapaghakai","country":"pk","lat":33.816082,"lon":71.198537},{"id":84051,"name":"tizai","country":"af","lat":34.115407,"lon":71.02111},{"id":2201001,"name":"katasar","country":"pk","lat":34.35014,"lon":71.401716},{"id":2169551,"name":"charbagh fort","country":"pk","lat":34.102221,"lon":71.107835},{"id":86047,"name":"wac kot","country":"af","lat":34.079021,"lon":70.577904},{"id":83941,"name":"til\u0027yan","country":"af","lat":34.447772,"lon":70.611279},{"id":38758,"name":"khanano kelay","country":"af","lat":34.201931,"lon":70.69397},{"id":27188,"name":"goranda","country":"af","lat":34.063358,"lon":70.689117},{"id":2237124,"name":"talib khel","country":"pk","lat":34.108056,"lon":71.183333},{"id":2155515,"name":"balyamin","country":"pk","lat":33.505556,"lon":70.908611},{"id":2190550,"name":"gund tseri","country":"pk","lat":33.631667,"lon":70.787778},{"id":2190507,"name":"gumbati banda","country":"pk","lat":33.529167,"lon":71.145},{"id":2243529,"name":"zera","country":"pk","lat":33.605201,"lon":70.753968},{"id":2181114,"name":"ghuzna","country":"pk","lat":33.796021,"lon":70.79778},{"id":2218150,"name":"musa khel mela","country":"pk","lat":33.656595,"lon":71.456355},{"id":2240205,"name":"trupia","country":"pk","lat":33.636389,"lon":70.814444},{"id":2200401,"name":"karghan","country":"pk","lat":33.789444,"lon":71.027222},{"id":2210484,"name":"madhu dar","country":"pk","lat":33.568889,"lon":70.826944},{"id":2220230,"name":"nazara","country":"pk","lat":33.784986,"lon":70.786687},{"id":2152926,"name":"ashraf nmasai","country":"pk","lat":33.729889,"lon":70.661162},{"id":2172654,"name":"darbar","country":"pk","lat":33.8037,"lon":70.805394},{"id":2199641,"name":"kandao","country":"pk","lat":33.822629,"lon":70.75582},{"id":24729,"name":"gati mena","country":"af","lat":33.996866,"lon":70.547791},{"id":2199848,"name":"kanganai","country":"pk","lat":33.721138,"lon":70.883462},{"id":2219354,"name":"nari garhi","country":"pk","lat":33.749672,"lon":70.808976},{"id":2202176,"name":"khanaki kili","country":"pk","lat":34.215664,"lon":71.17755},{"id":2230940,"name":"sar panre","country":"pk","lat":33.734448,"lon":70.513072},{"id":2155520,"name":"baman","country":"pk","lat":33.529602,"lon":71.3739},{"id":2233500,"name":"shekhan","country":"pk","lat":33.908611,"lon":71.473333},{"id":2243781,"name":"zorpa khel","country":"pk","lat":33.913476,"lon":71.028428},{"id":8322,"name":"barikaw","country":"af","lat":34.293308,"lon":70.699966},{"id":2214646,"name":"mian garhi","country":"pk","lat":33.610085,"lon":71.366702},{"id":2194604,"name":"jabbar jar","country":"pk","lat":34.488611,"lon":71.143611},{"id":2177172,"name":"dubkai","country":"pk","lat":33.57858,"lon":70.829296},{"id":2213148,"name":"maran shah","country":"pk","lat":33.59226,"lon":70.723723},{"id":2169666,"name":"charwazgai","country":"pk","lat":34.025568,"lon":71.065038},{"id":2177036,"name":"drainah","country":"pk","lat":33.55174,"lon":70.557241},{"id":2229968,"name":"sandapal kandao","country":"pk","lat":33.826698,"lon":70.863852},{"id":2180972,"name":"ghulbai","country":"pk","lat":33.811784,"lon":70.644946},{"id":2243411,"name":"zari kot","country":"pk","lat":33.784147,"lon":70.875812},{"id":2235468,"name":"sor kats","country":"pk","lat":33.882999,"lon":70.683979},{"id":2154946,"name":"bakha","country":"pk","lat":33.918333,"lon":70.655556},{"id":2155849,"name":"banda pahlwanas","country":"pk","lat":33.562734,"lon":71.428437},{"id":2207511,"name":"kund walai","country":"pk","lat":33.741557,"lon":70.862178},{"id":2236692,"name":"tagha sam","country":"pk","lat":33.736168,"lon":70.863702},{"id":59598,"name":"purshakheyl","country":"af","lat":34.124935,"lon":70.551048},{"id":2353,"name":"akhvondzadegan","country":"af","lat":34.096565,"lon":70.752014},{"id":2229799,"name":"sami khel","country":"pk","lat":34.350641,"lon":71.339472},{"id":86631,"name":"weyala","country":"af","lat":34.141705,"lon":70.752525},{"id":2216575,"name":"mozi kor kili","country":"pk","lat":34.429237,"lon":71.317048},{"id":2237593,"name":"tapugan","country":"pk","lat":33.777013,"lon":70.687875},{"id":14578,"name":"cina","country":"af","lat":34.056194,"lon":70.607712},{"id":2181417,"name":"goda khel","country":"pk","lat":34.426996,"lon":71.126902},{"id":34987,"name":"kan","country":"af","lat":34.28722,"lon":70.509399},{"id":2202967,"name":"khatki","country":"pk","lat":34.202584,"lon":71.417917},{"id":74431,"name":"shagali","country":"af","lat":34.45801,"lon":70.518083},{"id":43304,"name":"konater","country":"af","lat":34.12698,"lon":70.762161},{"id":2209829,"name":"lolat kats","country":"pk","lat":33.819142,"lon":70.655559},{"id":2198568,"name":"kajak shah","country":"pk","lat":34.454978,"lon":71.355485},{"id":2233116,"name":"shanda wune","country":"pk","lat":33.598611,"lon":70.81},{"id":2212364,"name":"mandatta","country":"pk","lat":33.821085,"lon":70.583936},{"id":30330,"name":"indzeray","country":"af","lat":34.101589,"lon":70.783813},{"id":2236831,"name":"tajakka","country":"pk","lat":33.717293,"lon":70.727338},{"id":52409,"name":"mullakheyl\u0027","country":"af","lat":34.124207,"lon":70.81012},{"id":2213541,"name":"mashari","country":"pk","lat":33.793087,"lon":70.931508},{"id":2154175,"name":"bagharai","country":"pk","lat":33.851925,"lon":70.892535},{"id":2221548,"name":"pacha panrai","country":"pk","lat":33.664722,"lon":70.648611},{"id":2227431,"name":"regi badezai","country":"pk","lat":34.037222,"lon":71.445},{"id":41313,"name":"khush gunbad","country":"af","lat":34.410075,"lon":70.514319},{"id":2226537,"name":"rami khel","country":"pk","lat":34.358612,"lon":71.406143},{"id":2199372,"name":"kamar garhi","country":"pk","lat":33.673056,"lon":70.722222},{"id":2172927,"name":"darrani mela","country":"pk","lat":33.552392,"lon":71.389065},{"id":23939,"name":"gal\u0027dzh\u0027yan","country":"af","lat":34.264252,"lon":70.575623},{"id":2194620,"name":"jabbi","country":"pk","lat":33.559444,"lon":71.261111},{"id":68064,"name":"ruskay","country":"af","lat":34.05283,"lon":70.639435},{"id":2169290,"name":"changabazo","country":"pk","lat":33.618351,"lon":70.748672},{"id":2179740,"name":"gat warsak","country":"pk","lat":34.405556,"lon":71.225833},{"id":2159913,"name":"batai","country":"pk","lat":33.76945,"lon":70.746112},{"id":2240534,"name":"ublan","country":"pk","lat":33.669881,"lon":71.358366},{"id":49702,"name":"merza\u0027i","country":"af","lat":34.418792,"lon":70.586615},{"id":2243317,"name":"zara garhi","country":"pk","lat":33.908903,"lon":70.841548},{"id":21523,"name":"dre chine","country":"af","lat":34.144085,"lon":70.988075},{"id":89116,"name":"zor-sarakkalay","country":"af","lat":34.102585,"lon":70.754013},{"id":54204,"name":"navabad","country":"af","lat":34.439978,"lon":70.563974},{"id":31076,"name":"jamal kakaran","country":"af","lat":34.447595,"lon":70.516254},{"id":2152623,"name":"arbapai landai","country":"pk","lat":33.820593,"lon":70.847222},{"id":25053,"name":"gek","country":"af","lat":34.418492,"lon":70.638171},{"id":2198317,"name":"kada","country":"pk","lat":33.655556,"lon":70.646667},{"id":2179038,"name":"gandital","country":"pk","lat":33.725867,"lon":70.777646},{"id":2156077,"name":"bando","country":"pk","lat":33.929585,"lon":70.726907},{"id":2228717,"name":"sahib khel","country":"pk","lat":33.736671,"lon":70.756242},{"id":2212906,"name":"mano kats","country":"pk","lat":33.836399,"lon":70.64029},{"id":53571,"name":"naki khune","country":"af","lat":33.972778,"lon":70.755278},{"id":2179550,"name":"garhi sar","country":"pk","lat":33.71509,"lon":71.485009},{"id":2240019,"name":"tor pakho","country":"pk","lat":33.545,"lon":70.96},{"id":2156866,"name":"bar kuchian","country":"pk","lat":34.137847,"lon":71.461025},{"id":14799,"name":"daber now","country":"af","lat":33.988832,"lon":70.573506},{"id":2240962,"name":"urana qila","country":"pk","lat":34.157113,"lon":71.441644},{"id":2229580,"name":"salim khane khula","country":"pk","lat":33.895787,"lon":70.652019},{"id":2230751,"name":"sari garhi","country":"pk","lat":33.774714,"lon":70.635053},{"id":48949,"name":"maro chinah","country":"af","lat":34.199516,"lon":70.709206},{"id":77764,"name":"showlgar kalay","country":"af","lat":34.07983,"lon":70.915573},{"id":2234088,"name":"shinpokh","country":"pk","lat":34.329204,"lon":71.178206},{"id":2233737,"name":"sherkot","country":"pk","lat":33.600312,"lon":71.283196},{"id":2199414,"name":"kambar khwa","country":"pk","lat":33.831944,"lon":71.074444},{"id":2193378,"name":"hilalai","country":"pk","lat":34.390116,"lon":71.466135},{"id":2194214,"name":"inzarkai","country":"pk","lat":33.610715,"lon":70.581992},{"id":2151009,"name":"alachai","country":"pk","lat":34.451997,"lon":71.429654},{"id":8306,"name":"barikab","country":"af","lat":34.311024,"lon":70.713264},{"id":2234079,"name":"shinna kharappai","country":"pk","lat":33.543517,"lon":70.935536},{"id":4432,"name":"arkhay","country":"af","lat":34.366611,"lon":70.769263},{"id":2239558,"name":"timir mela","country":"pk","lat":33.68003,"lon":71.284652},{"id":2217680,"name":"mullaza","country":"pk","lat":34.051087,"lon":71.474852},{"id":2234065,"name":"shinko banda","country":"pk","lat":33.560222,"lon":71.094768},{"id":2208666,"name":"lal jan kili","country":"pk","lat":33.922339,"lon":70.937736},{"id":2237857,"name":"tarkho","country":"pk","lat":33.909758,"lon":70.850814},{"id":2173224,"name":"daulat musa","country":"pk","lat":33.745646,"lon":71.212017},{"id":2221823,"name":"pakawarai","country":"pk","lat":33.909328,"lon":71.062722},{"id":2232095,"name":"shahi payan","country":"pk","lat":34.084167,"lon":71.457778},{"id":2227438,"name":"reg mena","country":"pk","lat":34.240441,"lon":71.464453},{"id":2152659,"name":"arhanga","country":"pk","lat":33.777614,"lon":70.789519},{"id":2215443,"name":"mirozai","country":"pk","lat":33.545863,"lon":71.451466},{"id":2227544,"name":"reshaka","country":"pk","lat":33.683416,"lon":70.504947},{"id":2240658,"name":"ugzano kili","country":"pk","lat":33.889818,"lon":70.862645},{"id":46343,"name":"larmanday khulah","country":"af","lat":34.035034,"lon":70.798882},{"id":2179429,"name":"garh","country":"pk","lat":33.635224,"lon":70.94963},{"id":2157070,"name":"barwand","country":"pk","lat":33.879184,"lon":71.153174},{"id":2235596,"name":"spin drand","country":"pk","lat":33.912166,"lon":70.880361},{"id":2162259,"name":"binigarhi","country":"pk","lat":33.833793,"lon":71.276923},{"id":2218224,"name":"mushkanre mela","country":"pk","lat":33.922501,"lon":71.277491},{"id":2213242,"name":"margzai","country":"pk","lat":33.805285,"lon":70.558102},{"id":2221860,"name":"pakhtanai","country":"pk","lat":33.729444,"lon":70.828611},{"id":1982,"name":"akakheyl\u0027","country":"af","lat":34.342365,"lon":70.80388},{"id":19394,"name":"dehi ghundey","country":"af","lat":34.472973,"lon":70.919392},{"id":2233724,"name":"sher khan pakha","country":"pk","lat":33.804026,"lon":70.506855},{"id":2156486,"name":"bara khel","country":"pk","lat":33.881587,"lon":71.128704},{"id":2233094,"name":"shamsuddin kili","country":"pk","lat":33.557208,"lon":70.816817},{"id":2214293,"name":"mehrban kili","country":"pk","lat":33.895893,"lon":70.820134},{"id":2211147,"name":"maiminai qabr","country":"pk","lat":33.984978,"lon":71.123319},{"id":2233148,"name":"shani kot","country":"pk","lat":33.737651,"lon":70.506826},{"id":2156867,"name":"bar kulla khel","country":"pk","lat":33.824945,"lon":70.693362},{"id":2230802,"name":"sarkai tsapparai","country":"pk","lat":34.228059,"lon":71.405855},{"id":2239991,"name":"tor kanre","country":"pk","lat":33.597647,"lon":70.839668},{"id":47905,"name":"malek bela","country":"af","lat":34.43388,"lon":70.504979},{"id":67173,"name":"ramati","country":"af","lat":34.339076,"lon":70.938682},{"id":2154269,"name":"baghrai","country":"pk","lat":33.769845,"lon":71.301564},{"id":2152942,"name":"asi khel pakha","country":"pk","lat":33.729622,"lon":70.929582},{"id":27605,"name":"gula\u0027i","country":"af","lat":34.208771,"lon":70.766747},{"id":73000,"name":"sayesta bare","country":"af","lat":34.238889,"lon":71.089167},{"id":46800,"name":"lowhan","country":"af","lat":34.464579,"lon":70.526756},{"id":2200524,"name":"karina","country":"pk","lat":33.648611,"lon":70.811111},{"id":2152699,"name":"arjali nadai","country":"pk","lat":33.915392,"lon":71.409823},{"id":2201731,"name":"khairai","country":"pk","lat":33.734054,"lon":70.731855},{"id":27483,"name":"grebawa","country":"af","lat":34.26598,"lon":70.837608},{"id":51902,"name":"muhammad-husain menah","country":"af","lat":34.008984,"lon":70.536873},{"id":2196050,"name":"jarma","country":"pk","lat":33.527168,"lon":71.460032},{"id":2177357,"name":"dumbakai","country":"pk","lat":33.513462,"lon":70.676452},{"id":2177176,"name":"dubsana","country":"pk","lat":33.710278,"lon":71.098333},{"id":2208879,"name":"landai kats","country":"pk","lat":33.810864,"lon":70.759073},{"id":2215162,"name":"mir bagh kili","country":"pk","lat":34.193056,"lon":71.488056},{"id":2155993,"name":"bandiali garhi","country":"pk","lat":33.597074,"lon":70.89716},{"id":2231741,"name":"shaghali bala","country":"pk","lat":34.163326,"lon":71.488077},{"id":2217561,"name":"mullagori kili","country":"pk","lat":34.126386,"lon":71.44336},{"id":2209940,"name":"lowara mela","country":"pk","lat":33.674113,"lon":70.86999},{"id":88793,"name":"zher gad","country":"af","lat":34.485405,"lon":70.930681},{"id":2236647,"name":"tabi kili","country":"pk","lat":33.585,"lon":70.829167},{"id":2150060,"name":"achini bala","country":"pk","lat":33.961252,"lon":71.466331},{"id":2215309,"name":"mir kalan kili","country":"pk","lat":34.009246,"lon":71.060782},{"id":4302,"name":"arbapan","country":"af","lat":34.439477,"lon":70.588967},{"id":84780,"name":"tsobi","country":"af","lat":34.068728,"lon":71.027202},{"id":2150116,"name":"adam khel charkha","country":"pk","lat":34.141684,"lon":71.429786},{"id":2156876,"name":"barlas","country":"pk","lat":33.65708,"lon":70.728825},{"id":2160082,"name":"batur","country":"pk","lat":33.783566,"lon":71.470696},{"id":2213198,"name":"mardu khel","country":"pk","lat":33.531389,"lon":71.084444},{"id":2200636,"name":"kar mela","country":"pk","lat":33.723594,"lon":70.874604},{"id":37703,"name":"khaca cinga","country":"af","lat":34.120232,"lon":70.953377},{"id":2208455,"name":"lakhti banda","country":"pk","lat":33.522222,"lon":71.076111},{"id":2162730,"name":"bot","country":"pk","lat":34.0015,"lon":71.4703},{"id":2155730,"name":"bandai","country":"pk","lat":34.163646,"lon":71.477306},{"id":2208334,"name":"lakanrai","country":"pk","lat":33.6725,"lon":70.600278},{"id":2155676,"name":"banda busi dheri","country":"pk","lat":33.515626,"lon":71.491064},{"id":2199811,"name":"kandu","country":"pk","lat":33.874571,"lon":70.5375},{"id":2229476,"name":"saleh kor","country":"pk","lat":34.199461,"lon":71.449541},{"id":2212925,"name":"manre china","country":"pk","lat":33.817014,"lon":70.50707},{"id":3517,"name":"ambarkhanah","country":"af","lat":34.304939,"lon":70.789223},{"id":2150390,"name":"ahad koruna","country":"pk","lat":34.382853,"lon":71.25033},{"id":35483,"name":"karez-e kabir","country":"af","lat":34.377688,"lon":70.519515},{"id":58637,"name":"pesheusanu-khula","country":"af","lat":34.002594,"lon":70.631844},{"id":39548,"name":"khasakama","country":"af","lat":34.411859,"lon":70.641291},{"id":2177515,"name":"dur nmasai","country":"pk","lat":33.587778,"lon":70.888611},{"id":2232089,"name":"shahin town","country":"pk","lat":34.0001,"lon":71.4935},{"id":2225279,"name":"qaldara","country":"pk","lat":34.320567,"lon":71.373521},{"id":2233161,"name":"shan khel","country":"pk","lat":33.91726,"lon":70.920104},{"id":2202792,"name":"khar khushta","country":"pk","lat":33.70769,"lon":71.239278},{"id":2155945,"name":"banda torki","country":"pk","lat":33.501218,"lon":70.97252},{"id":79147,"name":"sna kala","country":"af","lat":34.416988,"lon":70.661471},{"id":2210426,"name":"maddu kili","country":"pk","lat":34.130306,"lon":71.428533},{"id":29726,"name":"hesarak","country":"af","lat":34.214733,"lon":70.502831},{"id":2210683,"name":"mahaban","country":"pk","lat":34.372316,"lon":71.457704},{"id":2239924,"name":"toratigga","country":"pk","lat":34.370844,"lon":71.301755},{"id":7686,"name":"bandzhani","country":"af","lat":34.426322,"lon":70.616929},{"id":2151416,"name":"ali muhammad garhi","country":"pk","lat":34.132222,"lon":71.486944},{"id":2194607,"name":"jabbar mela","country":"pk","lat":33.922777,"lon":70.82893},{"id":2153570,"name":"babbi khel","country":"pk","lat":33.555556,"lon":70.907222},{"id":2209601,"name":"lindani","country":"pk","lat":33.810278,"lon":70.712222},{"id":2243774,"name":"zormandai kili","country":"pk","lat":34.178645,"lon":71.462406},{"id":2235997,"name":"sulaiman khel","country":"pk","lat":33.685959,"lon":71.016622},{"id":73141,"name":"sayyid ahmad khel","country":"af","lat":34.140507,"lon":70.596207},{"id":2243797,"name":"zukhani","country":"pk","lat":33.725833,"lon":70.903056},{"id":2172526,"name":"dapar","country":"pk","lat":33.591449,"lon":70.771666},{"id":2204199,"name":"khwara","country":"pk","lat":33.654258,"lon":71.325434},{"id":2217994,"name":"murasi mela","country":"pk","lat":33.846888,"lon":70.857924},{"id":13466,"name":"chaunay","country":"af","lat":34.272717,"lon":70.921791},{"id":2198246,"name":"kachh kili","country":"pk","lat":34.184237,"lon":71.437068},{"id":2221482,"name":"osha mandao","country":"pk","lat":33.980849,"lon":70.999828},{"id":2151383,"name":"alimat khel","country":"pk","lat":33.916152,"lon":70.903771},{"id":2223066,"name":"patwar pain","country":"pk","lat":34.071667,"lon":71.491667},{"id":2179777,"name":"gawak","country":"pk","lat":33.825278,"lon":70.999722},{"id":2199537,"name":"kamshari","country":"pk","lat":33.800991,"lon":70.808379},{"id":2151072,"name":"alam khel kats","country":"pk","lat":33.784118,"lon":70.720806},{"id":2196064,"name":"jarobi","country":"pk","lat":33.978042,"lon":70.930112},{"id":2233434,"name":"sheikhano kili","country":"pk","lat":34.013611,"lon":71.043333},{"id":2238034,"name":"tatra colony","country":"pk","lat":34.0179,"lon":71.4941},{"id":2218172,"name":"musa mela","country":"pk","lat":33.590833,"lon":70.944722},{"id":2207490,"name":"kundolai","country":"pk","lat":33.558333,"lon":70.518611},{"id":2150265,"name":"adu garhi","country":"pk","lat":33.605278,"lon":70.928751},{"id":2176727,"name":"dola banda","country":"pk","lat":33.54109,"lon":71.118182},{"id":2230888,"name":"sarmast talpaka","country":"pk","lat":33.667813,"lon":70.533717},{"id":2233504,"name":"shekh baba ziarat","country":"pk","lat":33.912751,"lon":71.471703},{"id":2211529,"name":"malagai","country":"pk","lat":33.752207,"lon":70.76187},{"id":2226109,"name":"rai qila","country":"pk","lat":33.993712,"lon":71.303242},{"id":2153181,"name":"audh","country":"pk","lat":33.723889,"lon":70.525},{"id":58468,"name":"paytow","country":"af","lat":34.373944,"lon":70.529034},{"id":2213565,"name":"mashrai","country":"pk","lat":33.800475,"lon":70.774893},{"id":79905,"name":"spera","country":"af","lat":34.479694,"lon":70.921023},{"id":2150224,"name":"adire nakka","country":"pk","lat":33.714036,"lon":70.624082},{"id":2235592,"name":"spina warai","country":"pk","lat":33.981146,"lon":71.487541},{"id":78924,"name":"sipiav","country":"af","lat":34.263089,"lon":70.735128},{"id":2160157,"name":"bazar caves","country":"pk","lat":34.27377,"lon":71.168261},{"id":2155877,"name":"banda regi shino khel","country":"pk","lat":33.595424,"lon":71.40261},{"id":2218782,"name":"nakata","country":"pk","lat":33.662613,"lon":70.9204},{"id":2233672,"name":"shergasho ghundai","country":"pk","lat":34.475278,"lon":71.271667},{"id":12820,"name":"cham\u0027ya","country":"af","lat":34.453622,"lon":70.516663},{"id":2192305,"name":"halwai","country":"pk","lat":33.981762,"lon":71.016166},{"id":2201630,"name":"khadizai","country":"pk","lat":33.596389,"lon":70.748611},{"id":2198156,"name":"kachai","country":"pk","lat":33.63015,"lon":71.151479},{"id":2177098,"name":"drewandi","country":"pk","lat":33.910203,"lon":70.890293},{"id":16990,"name":"damgal","country":"af","lat":34.044731,"lon":70.699738},{"id":14964,"name":"dagumena","country":"af","lat":33.998769,"lon":70.5307},{"id":2181023,"name":"ghunda mela","country":"pk","lat":33.72994,"lon":70.730449},{"id":84292,"name":"tora","country":"af","lat":34.094703,"lon":70.952336},{"id":28215,"name":"gur","country":"af","lat":34.076431,"lon":70.700562},{"id":2225029,"name":"pushta khara bala","country":"pk","lat":33.953611,"lon":71.493677},{"id":2217702,"name":"multan kili","country":"pk","lat":34.229722,"lon":71.245278},{"id":2213802,"name":"matin","country":"pk","lat":34.209585,"lon":71.458361},{"id":2242662,"name":"wuche gare","country":"pk","lat":33.706865,"lon":71.120516},{"id":34842,"name":"kandakhari","country":"af","lat":34.415848,"lon":70.593844},{"id":2207300,"name":"kul","country":"pk","lat":33.716441,"lon":70.83176},{"id":2217999,"name":"murda dand","country":"pk","lat":34.095869,"lon":71.363029},{"id":13701,"name":"chenar","country":"af","lat":34.086403,"lon":70.976669},{"id":6924,"name":"bakhramkheyl\u0027","country":"af","lat":34.117096,"lon":70.676109},{"id":2192373,"name":"hamidullah banda","country":"pk","lat":33.559167,"lon":71.100833},{"id":2225882,"name":"rahatabad","country":"pk","lat":34.0151,"lon":71.4964},{"id":2230385,"name":"sara darra","country":"pk","lat":33.796459,"lon":70.534646},{"id":2242687,"name":"wulo dunga","country":"pk","lat":33.585002,"lon":70.897433},{"id":2155788,"name":"banda lambi dheri","country":"pk","lat":33.532153,"lon":71.270435},{"id":2235734,"name":"star mela","country":"pk","lat":33.59899,"lon":70.821629},{"id":2230168,"name":"sangrana","country":"pk","lat":33.767133,"lon":70.933834},{"id":2179517,"name":"garhi mankabad","country":"pk","lat":33.559286,"lon":71.414708},{"id":2155323,"name":"baliana","country":"pk","lat":33.715556,"lon":70.770278},{"id":2233384,"name":"shawai pila khel","country":"pk","lat":33.746677,"lon":70.624369},{"id":85884,"name":"versek","country":"af","lat":34.340759,"lon":70.810838},{"id":68126,"name":"saadatmand","country":"af","lat":34.143818,"lon":70.608856},{"id":2240644,"name":"ugda pakha","country":"pk","lat":33.573496,"lon":70.883645},{"id":21770,"name":"dur baba","country":"af","lat":34.039708,"lon":70.92999},{"id":2222530,"name":"para tangi","country":"pk","lat":33.717222,"lon":70.9275},{"id":2206038,"name":"kotkai kili","country":"pk","lat":33.906395,"lon":70.874663},{"id":80208,"name":"sra kala","country":"af","lat":34.125874,"lon":70.713394},{"id":2211592,"name":"malangai","country":"pk","lat":33.818571,"lon":70.571748},{"id":3052,"name":"`alikuh","country":"af","lat":34.007359,"lon":70.826874},{"id":2219017,"name":"nandar mela","country":"pk","lat":33.699388,"lon":70.796622},{"id":2207940,"name":"kuz kili","country":"pk","lat":34.167512,"lon":71.259255},{"id":2212095,"name":"malu","country":"pk","lat":34.106667,"lon":71.483611},{"id":2201631,"name":"khadizai","country":"pk","lat":33.616944,"lon":71.291111},{"id":77811,"name":"shubdyani","country":"af","lat":34.239086,"lon":70.723412},{"id":2215031,"name":"mir akbar kili","country":"pk","lat":33.894424,"lon":71.420993},{"id":2211748,"name":"malik din khel atarai","country":"pk","lat":33.92037,"lon":71.437895},{"id":2203825,"name":"khugarai","country":"pk","lat":33.767715,"lon":70.697654},{"id":2200979,"name":"kata kanrai","country":"pk","lat":33.783068,"lon":71.279734},{"id":27688,"name":"guldag","country":"af","lat":34.263397,"lon":70.966599},{"id":2162792,"name":"bram kadai","country":"pk","lat":33.758898,"lon":70.629796},{"id":2243154,"name":"zaina khel","country":"pk","lat":33.757056,"lon":70.928599},{"id":2215282,"name":"miri","country":"pk","lat":33.5625,"lon":71.451667},{"id":8525,"name":"bar meshwani","country":"af","lat":34.338078,"lon":70.737589},{"id":2234979,"name":"skha darra","country":"pk","lat":33.555168,"lon":70.754118},{"id":2191048,"name":"haidar khan kili","country":"pk","lat":34.200833,"lon":71.334444},{"id":2200042,"name":"kanron dheri","country":"pk","lat":34.140833,"lon":71.446111},{"id":2169583,"name":"chargo china","country":"pk","lat":33.854048,"lon":70.579591},{"id":2234091,"name":"shinsari","country":"pk","lat":34.458036,"lon":71.435976},{"id":2237862,"name":"tarki khel","country":"pk","lat":33.827642,"lon":70.655299},{"id":2213122,"name":"marai","country":"pk","lat":33.695667,"lon":71.175362},{"id":40340,"name":"khitgai","country":"af","lat":34.213789,"lon":71.069134},{"id":2237260,"name":"tamis banda","country":"pk","lat":33.519611,"lon":71.01661},{"id":2169575,"name":"chargai dagarai","country":"pk","lat":33.909458,"lon":71.266331},{"id":21371,"name":"dowdagae","country":"af","lat":34.2132,"lon":70.772484},{"id":2230667,"name":"sarfaraz","country":"pk","lat":34.49,"lon":71.140556},{"id":11902,"name":"chachi kala","country":"af","lat":34.259842,"lon":70.609238},{"id":2236431,"name":"sur chakhai","country":"pk","lat":33.663056,"lon":71.025278},{"id":2181106,"name":"ghuzgai","country":"pk","lat":33.907948,"lon":70.975835},{"id":2181470,"name":"goganai","country":"pk","lat":33.778741,"lon":70.782071},{"id":2192901,"name":"hasham kor","country":"pk","lat":34.470694,"lon":71.324768},{"id":2240031,"name":"tor smats","country":"pk","lat":33.658333,"lon":70.946944},{"id":2240545,"name":"uch bazar banda","country":"pk","lat":33.565278,"lon":71.064167},{"id":53130,"name":"muzdahkay","country":"af","lat":34.072727,"lon":70.695953},{"id":2214863,"name":"mian ziarat","country":"pk","lat":33.742222,"lon":70.937222},{"id":2230818,"name":"sarka","country":"pk","lat":33.618056,"lon":70.886389},{"id":21940,"name":"dwah nazyano kholeh","country":"af","lat":34.020687,"lon":70.836151},{"id":2230547,"name":"sarband","country":"pk","lat":33.938554,"lon":71.486083},{"id":2236451,"name":"sur ghakhai","country":"pk","lat":33.678746,"lon":70.715983},{"id":2240922,"name":"university town","country":"pk","lat":33.9939,"lon":71.4951},{"id":2237566,"name":"tapanai","country":"pk","lat":33.767953,"lon":70.690361},{"id":2193964,"name":"ibrahimzai","country":"pk","lat":33.5538,"lon":71.15039},{"id":2201993,"name":"khalifa","country":"pk","lat":33.543333,"lon":71.092778},{"id":2178992,"name":"gandehri","country":"pk","lat":34.01246,"lon":71.035543},{"id":34528,"name":"kamah dakah","country":"af","lat":34.2275,"lon":71.119722},{"id":31068,"name":"jamali","country":"af","lat":34.401377,"lon":70.614322},{"id":24929,"name":"gawpur","country":"af","lat":34.09396,"lon":70.571304},{"id":2219472,"name":"nasapai","country":"pk","lat":34.364722,"lon":71.340833},{"id":2215338,"name":"mir khan pakha","country":"pk","lat":33.587544,"lon":70.697172},{"id":2224358,"name":"piro khel","country":"pk","lat":34.132222,"lon":71.168333},{"id":2193594,"name":"hossano darra","country":"pk","lat":33.769177,"lon":70.851076},{"id":2177096,"name":"dre sota","country":"pk","lat":33.712902,"lon":70.665534},{"id":2201175,"name":"katso mela","country":"pk","lat":33.730278,"lon":70.882222},{"id":2230447,"name":"sara khuna","country":"pk","lat":33.666009,"lon":70.853386},{"id":2156853,"name":"barki","country":"pk","lat":33.840429,"lon":71.253202},{"id":22494,"name":"dzhuvargar","country":"af","lat":34.065456,"lon":70.663795},{"id":2224574,"name":"plosai piran","country":"pk","lat":34.03,"lon":71.4817},{"id":2277,"name":"akhundzadah kalay","country":"af","lat":34.247787,"lon":70.519684},{"id":2154823,"name":"baizalai","country":"pk","lat":33.604867,"lon":70.580996},{"id":2199263,"name":"kama karbogha","country":"pk","lat":33.602222,"lon":70.966667},{"id":2220497,"name":"nicholson lines","country":"pk","lat":33.602778,"lon":71.4175},{"id":2172457,"name":"danishabad","country":"pk","lat":33.99418,"lon":71.477603},{"id":2214768,"name":"mian mela","country":"pk","lat":33.598382,"lon":71.113257},{"id":2190000,"name":"gul almar kili","country":"pk","lat":33.908501,"lon":71.074489},{"id":2152240,"name":"anai","country":"pk","lat":33.930937,"lon":70.963888},{"id":2179905,"name":"ghaffar dap","country":"pk","lat":33.766431,"lon":70.546084},{"id":2153668,"name":"babuzo pakha","country":"pk","lat":33.720097,"lon":70.641746},{"id":2233972,"name":"shina mela","country":"pk","lat":33.788005,"lon":71.276778},{"id":2235749,"name":"stora tarai","country":"pk","lat":33.934629,"lon":70.766853},{"id":2236458,"name":"surgul","country":"pk","lat":33.509444,"lon":71.384167},{"id":2239904,"name":"torakhwa","country":"pk","lat":34.497967,"lon":71.155923},{"id":2240254,"name":"tslo","country":"pk","lat":33.576389,"lon":70.9925},{"id":2236420,"name":"suratai","country":"pk","lat":33.766189,"lon":70.708034},{"id":54040,"name":"nastarkay","country":"af","lat":33.968089,"lon":70.54194},{"id":2230890,"name":"sar mela","country":"pk","lat":33.562609,"lon":70.969825},{"id":2156615,"name":"barbar khel","country":"pk","lat":33.784975,"lon":70.711345},{"id":2204181,"name":"khwaja payao","country":"pk","lat":33.640278,"lon":70.728056},{"id":2208305,"name":"lai tseri","country":"pk","lat":33.694866,"lon":70.892153},{"id":2177087,"name":"dre nagharai","country":"pk","lat":33.864122,"lon":70.8978},{"id":2172289,"name":"danam kur","country":"pk","lat":34.46,"lon":71.328889},{"id":2227543,"name":"reshakai","country":"pk","lat":33.911221,"lon":70.865563},{"id":31086,"name":"jamalkheyl","country":"af","lat":34.051392,"lon":70.755775},{"id":2210365,"name":"madar khel","country":"pk","lat":33.878388,"lon":70.787319},{"id":9840,"name":"bini gah","country":"af","lat":34.470871,"lon":70.535349},{"id":79743,"name":"sorubi","country":"af","lat":34.090141,"lon":70.553642},