callback({"markets":[{"id":1968227,"name":"ondundo","country":"na","lat":-20.75,"lon":15.45},{"id":1967714,"name":"nu-uis","country":"na","lat":-21.2333333,"lon":15.4},{"id":1968001,"name":"omangambo","country":"na","lat":-20.9,"lon":15.15},{"id":1967909,"name":"okayepe","country":"na","lat":-20.9166667,"lon":14.9166667},{"id":1967919,"name":"okomapuku","country":"na","lat":-21.1,"lon":15.45},{"id":1968479,"name":"otjongundu","country":"na","lat":-20.8,"lon":15.2166667},{"id":1966748,"name":"anixab","country":"na","lat":-20.9333333,"lon":14.85},{"id":1968524,"name":"ozondati","country":"na","lat":-20.9666667,"lon":15.2666667},{"id":1968111,"name":"omutiwanduka","country":"na","lat":-20.8,"lon":15.4833333},{"id":1968460,"name":"otjiwapeke","country":"na","lat":-20.8333333,"lon":15.1833333},{"id":1967610,"name":"nainais","country":"na","lat":-21.45,"lon":15.0666667},{"id":1967922,"name":"okombahe","country":"na","lat":-21.3666667,"lon":15.3833333},{"id":1967938,"name":"okongwe","country":"na","lat":-20.6666667,"lon":15.3666667},{"id":1968454,"name":"otjivero","country":"na","lat":-20.8666667,"lon":15.35},{"id":1967949,"name":"okotjoto","country":"na","lat":-20.9833333,"lon":15.1833333},{"id":1966761,"name":"arixa ams","country":"na","lat":-21.1833333,"lon":14.7833333},{"id":1967831,"name":"okambe-odombo","country":"na","lat":-20.8,"lon":15.0333333},{"id":1968489,"name":"otjozondjou","country":"na","lat":-20.9166667,"lon":15.4666667},{"id":1968326,"name":"orumwe","country":"na","lat":-21.0666667,"lon":15.15},{"id":1967388,"name":"kwaggaspan","country":"na","lat":-20.7666667,"lon":15.2666667},{"id":1968059,"name":"omitjira","country":"na","lat":-21.0833333,"lon":15.3333333},{"id":1968762,"name":"sorris-sorris","country":"na","lat":-20.9833333,"lon":14.7833333},{"id":1967948,"name":"okotjize","country":"na","lat":-20.6666667,"lon":15.2833333},{"id":1967921,"name":"okombaha","country":"na","lat":-20.9833333,"lon":15.3333333},{"id":1968476,"name":"otjongeama","country":"na","lat":-21.1833333,"lon":15.3166667},{"id":1968859,"name":"uis myn","country":"na","lat":-21.2166667,"lon":14.85},{"id":1968976,"name":"zebedeus","country":"na","lat":-21.3166667,"lon":14.8},{"id":1967927,"name":"okomize","country":"na","lat":-21.0166667,"lon":15.3166667},{"id":1967901,"name":"okavakwa","country":"na","lat":-20.5166667,"lon":15.35},{"id":1968968,"name":"xaubehunis","country":"na","lat":-21.4166667,"lon":15.1333333},{"id":1967713,"name":"nuniab","country":"na","lat":-21.35,"lon":15.0333333},{"id":1967824,"name":"okamaere","country":"na","lat":-20.8333333,"lon":15.4666667},{"id":1967933,"name":"okondomba","country":"na","lat":-20.95,"lon":15.1666667},{"id":1968323,"name":"oruhito","country":"na","lat":-20.8666667,"lon":14.95},{"id":1968497,"name":"otupopero","country":"na","lat":-20.8666667,"lon":15.45},{"id":1967875,"name":"okatjiho","country":"na","lat":-21.1833333,"lon":15.2333333},{"id":1967946,"name":"okotjandjoura","country":"na","lat":-20.6,"lon":15.4833333},{"id":1967322,"name":"klein amasbank","country":"na","lat":-21.1166667,"lon":15.0666667},{"id":1967091,"name":"hadi-aus","country":"na","lat":-21.3833333,"lon":15.2833333},{"id":1968943,"name":"welverdien","country":"na","lat":-21.2833333,"lon":15.3},{"id":1968017,"name":"omauzongaka","country":"na","lat":-20.8333333,"lon":15.2166667},{"id":1967213,"name":"kalkbron","country":"na","lat":-20.9,"lon":14.7666667},{"id":1968228,"name":"ondundotjiuapa","country":"na","lat":-20.7166667,"lon":15.45},{"id":1967321,"name":"klein-ais","country":"na","lat":-20.95,"lon":14.9666667},{"id":1968396,"name":"osonhaui","country":"na","lat":-20.8166667,"lon":15.0166667},{"id":1968060,"name":"omizema","country":"na","lat":-20.8,"lon":15.1666667},{"id":1967865,"name":"okaserawe","country":"na","lat":-20.55,"lon":15.45},{"id":1966849,"name":"daweb","country":"na","lat":-21.0,"lon":14.8833333}]});