callback({"markets":[{"id":327793,"name":"vale formoso","country":"br","lat":-21.45,"lon":-49.4},{"id":293208,"name":"candido rodrigues","country":"br","lat":-21.333333,"lon":-48.633333},{"id":288166,"name":"assai","country":"br","lat":-21.383333,"lon":-48.983333},{"id":306917,"name":"monte azul do turvo","country":"br","lat":-20.916667,"lon":-48.633333},{"id":312214,"name":"potyrendaba","country":"br","lat":-21.066667,"lon":-49.383333},{"id":325829,"name":"tabapua","country":"br","lat":-20.966667,"lon":-49.033333},{"id":328452,"name":"vila cardoso","country":"br","lat":-21.333333,"lon":-49.166667},{"id":287994,"name":"ariranha","country":"br","lat":-21.183333,"lon":-48.783333},{"id":310539,"name":"pindorama","country":"br","lat":-21.2,"lon":-48.916667},{"id":309080,"name":"paraiso","country":"br","lat":-21.033333,"lon":-48.766667},{"id":305708,"name":"marapoama","country":"br","lat":-21.25,"lon":-49.133333},{"id":297309,"name":"epigua","country":"br","lat":-20.65,"lon":-49.366667},{"id":293527,"name":"capela de sao benedito","country":"br","lat":-20.833333,"lon":-48.966667},{"id":313673,"name":"ribeiro dos santos","country":"br","lat":-20.6,"lon":-48.933333},{"id":326028,"name":"talhado","country":"br","lat":-20.716667,"lon":-49.3},{"id":316221,"name":"sao joao do itaguacu","country":"br","lat":-21.183333,"lon":-49.2},{"id":301640,"name":"irapua","country":"br","lat":-21.3,"lon":-49.4},{"id":317769,"name":"severinia","country":"br","lat":-20.833333,"lon":-48.8},{"id":301829,"name":"itajobi","country":"br","lat":-21.316667,"lon":-49.066667},{"id":326564,"name":"termas de ibira","country":"br","lat":-21.116667,"lon":-49.2},{"id":328771,"name":"villa elizario","country":"br","lat":-21.166667,"lon":-49.116667},{"id":327404,"name":"turvinia","country":"br","lat":-21.016667,"lon":-48.65},{"id":327692,"name":"ururahy","country":"br","lat":-21.35,"lon":-48.883333},{"id":289948,"name":"barretos","country":"br","lat":-20.55,"lon":-48.55},{"id":314663,"name":"santa adelia","country":"br","lat":-21.266667,"lon":-48.8},{"id":328881,"name":"vista alegre","country":"br","lat":-21.183333,"lon":-48.616667},{"id":308344,"name":"olimpia","country":"br","lat":-20.733333,"lon":-48.9},{"id":294483,"name":"cedral","country":"br","lat":-20.9,"lon":-49.316667},{"id":301033,"name":"ibitu","country":"br","lat":-20.616667,"lon":-48.75},{"id":305769,"name":"marcondesia","country":"br","lat":-20.866667,"lon":-48.7},{"id":306648,"name":"mirassolandia","country":"br","lat":-20.633333,"lon":-49.483333},{"id":292445,"name":"cajobi","country":"br","lat":-20.883333,"lon":-48.816667},{"id":313967,"name":"rio preto","country":"br","lat":-20.8,"lon":-49.383333},{"id":326340,"name":"taquaritinga","country":"br","lat":-21.4,"lon":-48.5},{"id":286529,"name":"albuquerque","country":"br","lat":-20.983333,"lon":-48.833333},{"id":293539,"name":"capela sao miguel","country":"br","lat":-20.9,"lon":-48.85},{"id":287556,"name":"aparecida de monte alto","country":"br","lat":-21.25,"lon":-48.633333},{"id":294312,"name":"catigua","country":"br","lat":-21.05,"lon":-49.05},{"id":308408,"name":"onda verde","country":"br","lat":-20.616667,"lon":-49.3},{"id":300984,"name":"ibira","country":"br","lat":-21.1,"lon":-49.283333},{"id":295931,"name":"corrego seco","country":"br","lat":-20.966667,"lon":-48.933333},{"id":291333,"name":"botafogo","country":"br","lat":-20.983333,"lon":-48.55},{"id":327689,"name":"urupes","country":"br","lat":-21.216667,"lon":-49.283333},{"id":303620,"name":"jurema","country":"br","lat":-21.366667,"lon":-48.566667},{"id":296285,"name":"cuapiacu","country":"br","lat":-20.833333,"lon":-49.216667},{"id":328789,"name":"villa novaes","country":"br","lat":-20.983333,"lon":-48.933333},{"id":326240,"name":"tapinas","country":"br","lat":-21.45,"lon":-48.816667},{"id":299639,"name":"frigorifico","country":"br","lat":-20.583333,"lon":-48.533333},{"id":288410,"name":"bady bassitt","country":"br","lat":-20.933333,"lon":-49.466667},{"id":312446,"name":"princesa d\u0027oeste","country":"br","lat":-20.9,"lon":-49.383333},{"id":307357,"name":"muller","country":"br","lat":-21.483333,"lon":-49.016667},{"id":286822,"name":"altair","country":"br","lat":-20.516667,"lon":-49.066667},{"id":310733,"name":"pirangi","country":"br","lat":-21.083333,"lon":-48.65},{"id":294280,"name":"catanduva","country":"br","lat":-21.133333,"lon":-48.966667},{"id":308778,"name":"palmares paulista","country":"br","lat":-21.1,"lon":-48.783333},{"id":286428,"name":"agulha","country":"br","lat":-21.35,"lon":-48.7},{"id":327484,"name":"uchoa","country":"br","lat":-20.933333,"lon":-49.216667},{"id":307024,"name":"monte verde paulista","country":"br","lat":-20.85,"lon":-48.8},{"id":325994,"name":"taiacu","country":"br","lat":-21.15,"lon":-48.533333},{"id":300632,"name":"guariroba","country":"br","lat":-21.45,"lon":-48.616667},{"id":297206,"name":"engenheiro schmidt","country":"br","lat":-20.866667,"lon":-49.3},{"id":299154,"name":"figueira","country":"br","lat":-20.833333,"lon":-48.75},{"id":306646,"name":"mira sol","country":"br","lat":-20.766667,"lon":-49.466667},{"id":299095,"name":"fernando prestes","country":"br","lat":-21.266667,"lon":-48.716667},{"id":308076,"name":"novo horizonte","country":"br","lat":-21.466667,"lon":-49.216667},{"id":314028,"name":"roberto","country":"br","lat":-21.266667,"lon":-48.966667},{"id":288429,"name":"baguassu","country":"br","lat":-20.716667,"lon":-49.066667},{"id":291335,"name":"botelho","country":"br","lat":-21.35,"lon":-48.766667},{"id":295156,"name":"collina","country":"br","lat":-20.733333,"lon":-48.583333}]});