callback({"markets":[{"id":1877332,"name":"francisco villa","country":"mx","lat":24.283333,"lon":-107.233333},{"id":1912109,"name":"suspiro","country":"mx","lat":24.383333,"lon":-106.544167},{"id":1882503,"name":"la chia","country":"mx","lat":24.416667,"lon":-107.116667},{"id":1896508,"name":"pasamar","country":"mx","lat":24.433333,"lon":-106.866667},{"id":1878758,"name":"hacienda de piaxtla","country":"mx","lat":23.85,"lon":-106.633333},{"id":1906169,"name":"san francisco de tacuichamona","country":"mx","lat":24.366667,"lon":-107.091667},{"id":1889258,"name":"los chinacates","country":"mx","lat":23.7,"lon":-106.6},{"id":1879076,"name":"higueras de padilla","country":"mx","lat":24.425833,"lon":-106.710278},{"id":1912009,"name":"soyatita","country":"mx","lat":24.254444,"lon":-107.268889},{"id":1867749,"name":"coyotitan","country":"mx","lat":23.783333,"lon":-106.583333},{"id":1879068,"name":"higuera larga","country":"mx","lat":24.456667,"lon":-106.565833},{"id":1873743,"name":"el palmar de los fonseca","country":"mx","lat":24.483333,"lon":-106.783333},{"id":1887559,"name":"la tierra blanca","country":"mx","lat":23.666667,"lon":-106.5},{"id":1876642,"name":"espinita","country":"mx","lat":24.216667,"lon":-107.233333},{"id":1862366,"name":"camalotito","country":"mx","lat":24.376389,"lon":-107.3025},{"id":1883646,"name":"laguna del rio","country":"mx","lat":24.033333,"lon":-106.666667},{"id":1867963,"name":"cruz segunda","country":"mx","lat":24.25,"lon":-107.316667},{"id":1865408,"name":"chiquerito","country":"mx","lat":24.180556,"lon":-107.040556},{"id":1862090,"name":"caimanes","country":"mx","lat":24.016111,"lon":-106.941667},{"id":1857747,"name":"aguaie","country":"mx","lat":24.090278,"lon":-106.823611},{"id":1903802,"name":"rincon de la lagunita","country":"mx","lat":24.466667,"lon":-106.85},{"id":1912126,"name":"tabachines","country":"mx","lat":24.088889,"lon":-106.8825},{"id":1883651,"name":"laguna de rojo","country":"mx","lat":24.156944,"lon":-107.1275},{"id":1867828,"name":"crucero de piaxtla","country":"mx","lat":23.85,"lon":-106.616667},{"id":1860573,"name":"barra de piaxtla","country":"mx","lat":23.666667,"lon":-106.808333},{"id":1887343,"name":"las tinas","country":"mx","lat":24.052222,"lon":-106.845278},{"id":1881918,"name":"la bebelama","country":"mx","lat":24.443889,"lon":-107.075278},{"id":1867182,"name":"conitaca","country":"mx","lat":24.179722,"lon":-106.732222},{"id":1909565,"name":"santa barbara","country":"mx","lat":24.433333,"lon":-107.416667},{"id":1872841,"name":"el limon","country":"mx","lat":23.733333,"lon":-106.516667},{"id":1883333,"name":"la flor","country":"mx","lat":24.425,"lon":-107.383333},{"id":1872572,"name":"el huyacamito","country":"mx","lat":24.383333,"lon":-107.041667},{"id":1879059,"name":"higuera de los lopes","country":"mx","lat":24.096667,"lon":-106.905833},{"id":1857550,"name":"agua caliente de nepala","country":"mx","lat":24.064444,"lon":-106.643889},{"id":1906627,"name":"san javier","country":"mx","lat":23.9,"lon":-106.5},{"id":1862819,"name":"campo yucatan","country":"mx","lat":24.450278,"lon":-107.314722},{"id":1871880,"name":"el dorado","country":"mx","lat":24.320278,"lon":-107.360278},{"id":1857834,"name":"aguapepe","country":"mx","lat":24.033333,"lon":-106.866667},{"id":1889772,"name":"los limoncitos","country":"mx","lat":24.15,"lon":-106.633333},{"id":1867361,"name":"coroches","country":"mx","lat":24.175,"lon":-106.633333},{"id":1914546,"name":"tierra y libertad","country":"mx","lat":24.466667,"lon":-107.233333},{"id":1861055,"name":"benito juarez","country":"mx","lat":23.933333,"lon":-106.783333},{"id":1902230,"name":"rancho los naranjos","country":"mx","lat":24.473611,"lon":-106.824722},{"id":1896162,"name":"palo verde","country":"mx","lat":24.3625,"lon":-106.663056},{"id":1890230,"name":"los potreros","country":"mx","lat":24.141667,"lon":-106.5},{"id":1876756,"name":"estacion oso","country":"mx","lat":24.3875,"lon":-107.177222},{"id":1888773,"name":"lopez mateos","country":"mx","lat":24.25,"lon":-107.133333},{"id":1876616,"name":"esperanza","country":"mx","lat":24.274167,"lon":-107.138889},{"id":1873523,"name":"el norote","country":"mx","lat":24.004167,"lon":-106.969722},{"id":1900747,"name":"rancho el aguate","country":"mx","lat":24.493611,"lon":-107.256667},{"id":1912567,"name":"tanjas","country":"mx","lat":24.45,"lon":-107.05},{"id":1916009,"name":"tuliman","country":"mx","lat":23.55,"lon":-106.516667},{"id":1871649,"name":"el crucero de coyotitlan","country":"mx","lat":23.783333,"lon":-106.633333},{"id":1875442,"name":"el tapon","country":"mx","lat":24.3,"lon":-106.933333},{"id":1879944,"name":"ibonillas","country":"mx","lat":24.464722,"lon":-106.946667},{"id":1864007,"name":"celestino gasca","country":"mx","lat":23.85,"lon":-106.833333},{"id":1873343,"name":"el moral","country":"mx","lat":23.583333,"lon":-106.533333},{"id":1862544,"name":"campo agua buena","country":"mx","lat":24.458611,"lon":-107.388889},{"id":1905680,"name":"san carlos","country":"mx","lat":24.366667,"lon":-107.4},{"id":1890369,"name":"los sandoval","country":"mx","lat":23.95,"lon":-106.6},{"id":1863682,"name":"casa grande","country":"mx","lat":24.066667,"lon":-106.783333},{"id":1893886,"name":"navito","country":"mx","lat":24.338333,"lon":-107.340833},{"id":1904808,"name":"salto chico","country":"mx","lat":24.136389,"lon":-106.73},{"id":1875349,"name":"el tabachin","country":"mx","lat":24.083333,"lon":-106.875},{"id":1876765,"name":"estacion pozole","country":"mx","lat":23.6,"lon":-106.716667},{"id":1907311,"name":"san jose","country":"mx","lat":24.345278,"lon":-107.364722},{"id":1916052,"name":"tunal","country":"mx","lat":23.966667,"lon":-107.0},{"id":1913686,"name":"tepalcate","country":"mx","lat":23.916667,"lon":-106.733333},{"id":1865147,"name":"chicoyota","country":"mx","lat":23.883333,"lon":-106.883333},{"id":1863652,"name":"casa blanca","country":"mx","lat":24.266111,"lon":-107.1},{"id":1873681,"name":"elota","country":"mx","lat":23.966667,"lon":-106.716667},{"id":1882874,"name":"la cruz del dorado","country":"mx","lat":24.347222,"lon":-107.328889},{"id":1880125,"name":"ipucha","country":"mx","lat":24.333333,"lon":-106.764722},{"id":1861620,"name":"buena castle","country":"mx","lat":24.395833,"lon":-107.272778},{"id":1919053,"name":"zopilotita","country":"mx","lat":24.347778,"lon":-107.304722},{"id":1895802,"name":"palmar de los ceballos","country":"mx","lat":24.382778,"lon":-106.898611},{"id":1894012,"name":"nicolas bravo","country":"mx","lat":24.158333,"lon":-107.15},{"id":1903890,"name":"rincon ibonia","country":"mx","lat":24.259444,"lon":-106.786389},{"id":1914736,"name":"tiros cuates","country":"mx","lat":23.583333,"lon":-106.516667},{"id":1874977,"name":"el sabinal","country":"mx","lat":24.2325,"lon":-106.748889},{"id":1898502,"name":"potrerillos de los torres","country":"mx","lat":24.266667,"lon":-106.566667},{"id":1909820,"name":"santa cruz","country":"mx","lat":24.485,"lon":-106.956944},{"id":1901099,"name":"rancho el paso","country":"mx","lat":24.473611,"lon":-106.728333},{"id":1912756,"name":"tapon","country":"mx","lat":24.233333,"lon":-106.916667},{"id":1882897,"name":"la cruz","country":"mx","lat":23.916667,"lon":-106.9},{"id":1882932,"name":"la cuchilla","country":"mx","lat":24.333333,"lon":-106.866667},{"id":1913621,"name":"teoolote","country":"mx","lat":23.916667,"lon":-106.6},{"id":1914667,"name":"tinaja","country":"mx","lat":23.633333,"lon":-106.766667},{"id":1884711,"name":"la mojonera","country":"mx","lat":24.3375,"lon":-107.320278},{"id":1892621,"name":"milpillas","country":"mx","lat":24.435833,"lon":-106.872778},{"id":1914541,"name":"tierra y libertad numero dos","country":"mx","lat":24.483333,"lon":-107.25},{"id":1871733,"name":"el cuhichi","country":"mx","lat":23.766667,"lon":-106.533333},{"id":1895783,"name":"palma","country":"mx","lat":24.466667,"lon":-106.766667},{"id":1892445,"name":"mezquitillo","country":"mx","lat":24.473056,"lon":-107.384722},{"id":1872378,"name":"el guamuchil","country":"mx","lat":23.916667,"lon":-106.616667},{"id":1899177,"name":"pueblo pider","country":"mx","lat":23.866667,"lon":-106.85},{"id":1864397,"name":"ceuta","country":"mx","lat":23.866667,"lon":-106.933333},{"id":1892262,"name":"mesquitillo","country":"mx","lat":24.483333,"lon":-107.391667},{"id":1876044,"name":"el viche","country":"mx","lat":24.440278,"lon":-106.902778},{"id":1917091,"name":"vida campesina","country":"mx","lat":24.133333,"lon":-106.925},{"id":1895414,"name":"osuna","country":"mx","lat":24.333333,"lon":-107.316667},{"id":1886493,"name":"las higueras de ponce","country":"mx","lat":23.783333,"lon":-106.516667},{"id":1902120,"name":"rancho lo de francisco","country":"mx","lat":24.343333,"lon":-106.646111},{"id":1869913,"name":"el aguaje","country":"mx","lat":24.1,"lon":-106.833333},{"id":1899006,"name":"primero de mayo","country":"mx","lat":24.475,"lon":-107.416667},{"id":1876766,"name":"estacion quila","country":"mx","lat":24.438611,"lon":-107.211389},{"id":1899235,"name":"puente el quelite","country":"mx","lat":23.516667,"lon":-106.5},{"id":1896449,"name":"paredon","country":"mx","lat":24.095556,"lon":-106.680556},{"id":1898174,"name":"playitas","country":"mx","lat":24.25,"lon":-106.6},{"id":1908419,"name":"san miguel de las mesas","country":"mx","lat":24.433333,"lon":-107.033333},{"id":1870440,"name":"el bolillo","country":"mx","lat":24.016667,"lon":-106.825},{"id":1886840,"name":"las milpas","country":"mx","lat":24.371389,"lon":-106.553889},{"id":1880041,"name":"iguanas","country":"mx","lat":24.423889,"lon":-106.519722},{"id":1912827,"name":"tasajera","country":"mx","lat":24.281111,"lon":-106.53},{"id":1879069,"name":"higuera larga","country":"mx","lat":24.475,"lon":-106.616667},{"id":1914723,"name":"tiradero","country":"mx","lat":24.333333,"lon":-107.466667},{"id":1878727,"name":"hacienda de abajo","country":"mx","lat":23.8,"lon":-106.666667},{"id":1888688,"name":"loma pelona","country":"mx","lat":24.116667,"lon":-106.566667},{"id":1889225,"name":"los chalates","country":"mx","lat":24.016667,"lon":-106.683333},{"id":1897499,"name":"piedra azul","country":"mx","lat":24.491389,"lon":-107.178611},{"id":1886337,"name":"la seca","country":"mx","lat":24.397778,"lon":-106.612222},{"id":1861004,"name":"bella vista","country":"mx","lat":23.9,"lon":-106.883333},{"id":1864688,"name":"chapala","country":"mx","lat":24.445833,"lon":-106.969722},{"id":1898579,"name":"potrero de los landeros","country":"mx","lat":24.215556,"lon":-106.895556},{"id":1862478,"name":"campanillas","country":"mx","lat":24.249167,"lon":-106.821389},{"id":1916776,"name":"veintiseis de enero","country":"mx","lat":24.133333,"lon":-106.933333},{"id":1898325,"name":"poltacelli","country":"mx","lat":24.35,"lon":-107.316667},{"id":1878094,"name":"guadalupe de los reyes","country":"mx","lat":24.280833,"lon":-106.506389},{"id":1880687,"name":"jaquina","country":"mx","lat":24.113889,"lon":-106.761111},{"id":1888649,"name":"loma itecomate","country":"mx","lat":24.25,"lon":-107.266667},{"id":1876434,"name":"ensenada","country":"mx","lat":24.058056,"lon":-106.699444},{"id":1912339,"name":"talib","country":"mx","lat":24.233333,"lon":-107.35},{"id":1872281,"name":"el gato","country":"mx","lat":24.4,"lon":-107.283333},{"id":1869046,"name":"dona bacilia","country":"mx","lat":24.3,"lon":-107.35},{"id":1862434,"name":"camino real de piaxtla","country":"mx","lat":23.866667,"lon":-106.65},{"id":1874941,"name":"el rosario","country":"mx","lat":24.255556,"lon":-107.182778},{"id":1898430,"name":"portezuelo","country":"mx","lat":24.213889,"lon":-106.709444},{"id":1892241,"name":"mesitas","country":"mx","lat":23.6,"lon":-106.55},{"id":1887132,"name":"las piedritas","country":"mx","lat":24.416667,"lon":-107.366667},{"id":1880475,"name":"jacara","country":"mx","lat":24.208333,"lon":-107.15},{"id":1862631,"name":"campo facundo","country":"mx","lat":24.1875,"lon":-107.15},{"id":1876979,"name":"eureka","country":"mx","lat":24.483333,"lon":-107.416667},{"id":1886478,"name":"las gueras","country":"mx","lat":24.2,"lon":-107.175},{"id":1881965,"name":"la boca","country":"mx","lat":24.245833,"lon":-107.416111},{"id":1874954,"name":"el rosarito","country":"mx","lat":24.328889,"lon":-107.379722},{"id":1862163,"name":"calafales","country":"mx","lat":24.3,"lon":-106.75},{"id":1902489,"name":"rancho otates","country":"mx","lat":23.666667,"lon":-106.75},{"id":1908087,"name":"san manuel","country":"mx","lat":24.355556,"lon":-107.378333},{"id":1912130,"name":"tabala","country":"mx","lat":24.443056,"lon":-107.095},{"id":1879071,"name":"higueras de abuya","country":"mx","lat":24.260833,"lon":-107.070556},{"id":1879073,"name":"higueras de culiacancito","country":"mx","lat":24.1,"lon":-106.925},{"id":1910628,"name":"santa rosa","country":"mx","lat":24.088611,"lon":-106.726667},{"id":1862832,"name":"canachi","country":"mx","lat":24.137222,"lon":-107.101111},{"id":1911882,"name":"sombrerete","country":"mx","lat":23.533333,"lon":-106.55},{"id":1863720,"name":"casas grandes","country":"mx","lat":24.126944,"lon":-106.731944},{"id":1895876,"name":"palmas","country":"mx","lat":23.583333,"lon":-106.55},{"id":1887366,"name":"las trancas","country":"mx","lat":23.883333,"lon":-106.6},{"id":1895663,"name":"paila","country":"mx","lat":24.182778,"lon":-106.972778},{"id":1879858,"name":"huizachal","country":"mx","lat":24.341111,"lon":-106.660556},{"id":1904112,"name":"rio viejo","country":"mx","lat":24.3,"lon":-107.366667},{"id":1901466,"name":"rancho higueras","country":"mx","lat":24.413333,"lon":-107.408333},{"id":1860260,"name":"bailna","country":"mx","lat":24.183333,"lon":-106.966667},{"id":1857211,"name":"acatitlan","country":"mx","lat":24.089722,"lon":-106.653611},{"id":1898498,"name":"potrerillo","country":"mx","lat":24.021667,"lon":-106.973056},{"id":1880295,"name":"ixpalino","country":"mx","lat":23.9,"lon":-106.633333},{"id":1867917,"name":"cruz del tambor","country":"mx","lat":24.166667,"lon":-106.533333},{"id":1904334,"name":"rosarito","country":"mx","lat":24.333333,"lon":-107.4},{"id":1875035,"name":"el salado","country":"mx","lat":23.883333,"lon":-106.816667},{"id":1911306,"name":"saucito","country":"mx","lat":24.433333,"lon":-107.4},{"id":1882734,"name":"la comichina de abajo","country":"mx","lat":23.583333,"lon":-106.6},{"id":1867591,"name":"cosala","country":"mx","lat":24.4125,"lon":-106.690833},{"id":1878289,"name":"guamachil","country":"mx","lat":24.075278,"lon":-106.785278},{"id":1886399,"name":"las flores","country":"mx","lat":24.35,"lon":-107.1},{"id":1871730,"name":"el cuervo","country":"mx","lat":24.338333,"lon":-107.399722},{"id":1897398,"name":"piaxtla de abajo","country":"mx","lat":23.841667,"lon":-106.666667},{"id":1871475,"name":"el conchal","country":"mx","lat":24.243611,"lon":-107.331944},{"id":1861492,"name":"boscoso","country":"mx","lat":24.033333,"lon":-107.0},{"id":1860332,"name":"bajio largo","country":"mx","lat":23.616667,"lon":-107.083333},{"id":1873383,"name":"el muerto","country":"mx","lat":23.7,"lon":-106.616667},{"id":1913941,"name":"teposana","country":"mx","lat":24.05,"lon":-106.7},{"id":1888079,"name":"lechuguilla","country":"mx","lat":24.262222,"lon":-106.5725},{"id":1867570,"name":"cortejo","country":"mx","lat":24.464722,"lon":-106.846667},{"id":1896020,"name":"palo dulce","country":"mx","lat":24.316667,"lon":-106.883333},{"id":1889119,"name":"los caballos","country":"mx","lat":24.316667,"lon":-106.916667},{"id":1897410,"name":"picacho","country":"mx","lat":24.25,"lon":-106.733333},{"id":1888780,"name":"lorenzo","country":"mx","lat":24.435556,"lon":-107.118889},{"id":1900610,"name":"rancho cruces","country":"mx","lat":24.373056,"lon":-106.625278},{"id":1896123,"name":"palos dulces","country":"mx","lat":24.374444,"lon":-106.865},{"id":1899780,"name":"purgatorio","country":"mx","lat":24.366667,"lon":-107.266667},{"id":1883232,"name":"la estancia","country":"mx","lat":23.716667,"lon":-106.75},{"id":1875266,"name":"el sinaloense","country":"mx","lat":24.283333,"lon":-107.258333},{"id":1862362,"name":"camalote","country":"mx","lat":24.382222,"lon":-107.293056},{"id":1889040,"name":"los balamotes","country":"mx","lat":24.440278,"lon":-106.766111},{"id":1875410,"name":"el tambor","country":"mx","lat":24.151111,"lon":-106.504444},{"id":1885330,"name":"la pitahayita","country":"mx","lat":24.090833,"lon":-106.860556},{"id":1896432,"name":"paredon colorado","country":"mx","lat":24.1,"lon":-106.683333},{"id":1879070,"name":"higueral","country":"mx","lat":23.966667,"lon":-106.683333},{"id":1887456,"name":"las veinte onzas","country":"mx","lat":24.491667,"lon":-107.116667},{"id":1912252,"name":"tacuichamona","country":"mx","lat":24.361389,"lon":-107.076389},{"id":1912704,"name":"tapacoya","country":"mx","lat":24.471944,"lon":-106.610278},{"id":1863028,"name":"canderia","country":"mx","lat":24.399167,"lon":-106.5975},{"id":1857103,"name":"abuya","country":"mx","lat":24.251944,"lon":-107.015556},{"id":1878649,"name":"guinolos","country":"mx","lat":24.483333,"lon":-107.3},{"id":1874862,"name":"el rio","country":"mx","lat":24.310833,"lon":-106.602778},{"id":1905712,"name":"sanchez celis","country":"mx","lat":24.45,"lon":-107.375},{"id":1879584,"name":"huerta","country":"mx","lat":24.216667,"lon":-106.933333},{"id":1862018,"name":"cachaqua","country":"mx","lat":24.375,"lon":-106.823333},{"id":1888227,"name":"limoncito","country":"mx","lat":23.9,"lon":-106.766667},{"id":1902529,"name":"rancho papachai","country":"mx","lat":24.325,"lon":-106.759167},{"id":1899857,"name":"quebrada honda","country":"mx","lat":23.933333,"lon":-106.6},{"id":1888802,"name":"los achotes","country":"mx","lat":24.216667,"lon":-106.633333},{"id":1889560,"name":"los gordos","country":"mx","lat":23.766667,"lon":-106.65},{"id":1886834,"name":"las mesitas","country":"mx","lat":24.433333,"lon":-106.9},{"id":1889192,"name":"los cedros","country":"mx","lat":24.35,"lon":-106.7},{"id":1883130,"name":"la escondida","country":"mx","lat":24.016667,"lon":-106.75},{"id":1876270,"name":"emiliano zapata","country":"mx","lat":24.066667,"lon":-106.925},{"id":1899887,"name":"quemada","country":"mx","lat":23.533333,"lon":-106.5},{"id":1874997,"name":"el sabino","country":"mx","lat":24.384444,"lon":-106.822222},{"id":1916816,"name":"venadilla","country":"mx","lat":24.251667,"lon":-107.143056},{"id":1857077,"name":"abocho","country":"mx","lat":24.010278,"lon":-106.988889},{"id":1870824,"name":"el carmen","country":"mx","lat":23.833333,"lon":-106.5},{"id":1893302,"name":"mora escarbada","country":"mx","lat":23.633333,"lon":-106.5},{"id":1917339,"name":"villamoros","country":"mx","lat":24.166667,"lon":-107.233333},{"id":1888513,"name":"lo de ponce","country":"mx","lat":23.766667,"lon":-106.516667},{"id":1911927,"name":"soquititan","country":"mx","lat":24.189722,"lon":-106.696111},{"id":1904950,"name":"san agustin","country":"mx","lat":24.005,"lon":-106.580833},{"id":1878712,"name":"habas","country":"mx","lat":24.166667,"lon":-106.933333},{"id":1871934,"name":"el ebano","country":"mx","lat":24.083333,"lon":-106.9},{"id":1878197,"name":"guadalupe victoria","country":"mx","lat":24.3,"lon":-107.275},{"id":1876700,"name":"estacion abuya","country":"mx","lat":24.184444,"lon":-107.101389},{"id":1909242,"name":"san ramon","country":"mx","lat":24.470833,"lon":-107.176944},{"id":1868084,"name":"cuasima gorda","country":"mx","lat":24.033333,"lon":-106.916667},{"id":1888499,"name":"lo de garza","country":"mx","lat":24.485278,"lon":-106.764444},{"id":1895396,"name":"oso nuevo","country":"mx","lat":24.406111,"lon":-107.169167},{"id":1888341,"name":"llano de la carrera","country":"mx","lat":24.418333,"lon":-106.693056},{"id":1891291,"name":"mapuche","country":"mx","lat":23.816667,"lon":-106.683333},{"id":1876014,"name":"el verano","country":"mx","lat":24.301667,"lon":-106.533611},{"id":1883035,"name":"la divisa","country":"mx","lat":24.289722,"lon":-107.379167},{"id":1893018,"name":"molinitos","country":"mx","lat":24.465278,"lon":-106.706667},{"id":1867633,"name":"cospitas","country":"mx","lat":24.104722,"lon":-107.129167},{"id":1861155,"name":"biobo","country":"mx","lat":24.133333,"lon":-106.633333},{"id":1862173,"name":"calatato","country":"mx","lat":24.35,"lon":-106.75},{"id":1886824,"name":"las mesas","country":"mx","lat":24.432778,"lon":-107.030278},{"id":1882177,"name":"la calavera","country":"mx","lat":23.816667,"lon":-106.6},{"id":1867718,"name":"coyote","country":"mx","lat":24.15,"lon":-106.583333},{"id":1866546,"name":"colmena","country":"mx","lat":24.216667,"lon":-106.716667},{"id":1914737,"name":"tiro","country":"mx","lat":23.516667,"lon":-106.533333},{"id":1862741,"name":"campo rebeca","country":"mx","lat":24.445,"lon":-107.383056},{"id":1918681,"name":"zamora","country":"mx","lat":24.2,"lon":-106.85},{"id":1874824,"name":"el rincon de abuya","country":"mx","lat":24.283333,"lon":-107.035833},{"id":1912655,"name":"tanques","country":"mx","lat":24.05,"lon":-107.016667},{"id":1893890,"name":"navolatillo","country":"mx","lat":24.383333,"lon":-107.366667},{"id":1873122,"name":"el melon","country":"mx","lat":24.373333,"lon":-107.266389},{"id":1878946,"name":"heraclio bernal","country":"mx","lat":24.233333,"lon":-107.283333},{"id":1875023,"name":"el saladito","country":"mx","lat":23.883333,"lon":-106.85},{"id":1879074,"name":"higueras de hurrea","country":"mx","lat":24.431667,"lon":-106.693611},{"id":1888657,"name":"loma larga","country":"mx","lat":24.056389,"lon":-106.898333},{"id":1899965,"name":"quilla","country":"mx","lat":24.422778,"lon":-107.22},{"id":1878361,"name":"guaracha","country":"mx","lat":23.966667,"lon":-106.533333},{"id":1867204,"name":"constancia","country":"mx","lat":24.223056,"lon":-107.186944},{"id":1869194,"name":"duranguito de dimas","country":"mx","lat":23.733333,"lon":-106.716667},{"id":1914694,"name":"tiniaqui","country":"mx","lat":24.473889,"lon":-106.795833},{"id":1910125,"name":"santa lucrecia","country":"mx","lat":23.883333,"lon":-106.766667},{"id":1857104,"name":"abuya y ceuta dos","country":"mx","lat":24.25,"lon":-107.15},{"id":1905862,"name":"san diego","country":"mx","lat":24.382222,"lon":-107.33},{"id":1916995,"name":"vetillas","country":"mx","lat":24.014444,"lon":-106.834722},{"id":1879891,"name":"humaya","country":"mx","lat":23.966667,"lon":-106.616667},{"id":1904338,"name":"rosa","country":"mx","lat":24.033333,"lon":-106.75},{"id":1888251,"name":"limon","country":"mx","lat":24.266667,"lon":-106.733333},{"id":1894782,"name":"obispo","country":"mx","lat":24.308889,"lon":-107.101667},{"id":1882746,"name":"la compuerta","country":"mx","lat":24.401667,"lon":-107.257222},{"id":1906721,"name":"san joaquin","country":"mx","lat":24.362778,"lon":-107.352222},{"id":1880487,"name":"jacola","country":"mx","lat":24.166667,"lon":-107.133333},{"id":1867010,"name":"comoa","country":"mx","lat":24.316667,"lon":-106.709722},{"id":1912124,"name":"tabacal","country":"mx","lat":24.383333,"lon":-107.383333},{"id":1880732,"name":"jarillas","country":"mx","lat":24.283333,"lon":-106.75},{"id":1905174,"name":"san antonio de cerro","country":"mx","lat":24.382222,"lon":-106.563056},{"id":1868920,"name":"dimas","country":"mx","lat":23.733333,"lon":-106.783333},{"id":1894953,"name":"odicuto","country":"mx","lat":24.283333,"lon":-107.45},{"id":1891775,"name":"mayas","country":"mx","lat":24.366667,"lon":-107.466667},{"id":1878225,"name":"guagino","country":"mx","lat":24.271944,"lon":-106.714167},{"id":1865447,"name":"chirimote","country":"mx","lat":24.203889,"lon":-106.646944},{"id":1877809,"name":"gogota","country":"mx","lat":24.083333,"lon":-106.666667},{"id":1898207,"name":"plutarco","country":"mx","lat":24.266667,"lon":-107.341667},{"id":1897859,"name":"pirinola","country":"mx","lat":24.1,"lon":-106.666667},{"id":1870910,"name":"el carrizo","country":"mx","lat":24.026111,"lon":-106.881389},{"id":1889809,"name":"los llanitos","country":"mx","lat":23.516667,"lon":-106.583333},{"id":1882569,"name":"la cholula","country":"mx","lat":24.440833,"lon":-106.701111},{"id":1857731,"name":"agua fria de coyotitan","country":"mx","lat":23.75,"lon":-106.6},{"id":1916004,"name":"tulillos","country":"mx","lat":23.933333,"lon":-106.75},{"id":1874904,"name":"el rodeo","country":"mx","lat":24.376667,"lon":-106.704167},{"id":1884326,"name":"la loma de tecuyo","country":"mx","lat":23.883333,"lon":-106.716667}]});