callback({"markets":[{"id":431250,"name":"cangshan","country":"cn","lat":51.816667,"lon":123.633333},{"id":555295,"name":"pishui","country":"cn","lat":52.116667,"lon":123.8},{"id":522792,"name":"linhai","country":"cn","lat":51.6,"lon":124.366667},{"id":627297,"name":"xinlin","country":"cn","lat":51.666667,"lon":124.4},{"id":498979,"name":"huzhong","country":"cn","lat":51.95,"lon":123.666667},{"id":446575,"name":"cuiling","country":"cn","lat":51.6,"lon":123.983333},{"id":628753,"name":"xiongguan","country":"cn","lat":51.663889,"lon":123.718333},{"id":617680,"name":"xiangyang linchang","country":"cn","lat":52.220833,"lon":123.703056},{"id":485152,"name":"hongtu","country":"cn","lat":51.623889,"lon":124.1475},{"id":498946,"name":"huyuan","country":"cn","lat":51.733333,"lon":123.633333}]});