callback({"markets":[{"id":1596139,"name":"ando","country":"kr","lat":34.483333,"lon":127.8},{"id":1638482,"name":"yanghadong","country":"kr","lat":34.483333,"lon":127.883333},{"id":1629890,"name":"sonja","country":"kr","lat":34.45,"lon":127.95},{"id":1628704,"name":"sokoji","country":"kr","lat":34.478333,"lon":127.800556},{"id":1639143,"name":"yondori","country":"kr","lat":34.433611,"lon":127.802222},{"id":1624049,"name":"sakkumni","country":"kr","lat":34.45,"lon":127.933333},{"id":1625511,"name":"sangsandong","country":"kr","lat":34.483611,"lon":127.82},{"id":1604959,"name":"hapanni","country":"kr","lat":34.442778,"lon":127.533611},{"id":1601214,"name":"choshihei","country":"kr","lat":34.493056,"lon":127.793333},{"id":1638991,"name":"yokpo","country":"kr","lat":34.453056,"lon":127.801944},{"id":1600856,"name":"chongsokkum","country":"kr","lat":34.428333,"lon":127.525},{"id":1635036,"name":"ttokpo","country":"kr","lat":34.421389,"lon":127.798056},{"id":1634394,"name":"tongkoji","country":"kr","lat":34.495833,"lon":127.817778},{"id":1638807,"name":"yenaeri","country":"kr","lat":34.458056,"lon":127.514167}]});