callback({"markets":[{"id":3173216,"name":"macheke","country":"zw","lat":-18.15,"lon":31.85},{"id":3173056,"name":"hoyuyu","country":"zw","lat":-17.6166667,"lon":32.0166667},{"id":3173945,"name":"zanyika","country":"zw","lat":-17.55,"lon":31.8166667},{"id":3173029,"name":"headlands","country":"zw","lat":-18.2833333,"lon":32.05},{"id":3172749,"name":"chemhondoro","country":"zw","lat":-17.6869444,"lon":31.5627778},{"id":3173438,"name":"mrewa","country":"zw","lat":-17.6469444,"lon":31.7775},{"id":3173926,"name":"wilton","country":"zw","lat":-18.4,"lon":31.7666667},{"id":3173078,"name":"inoro","country":"zw","lat":-18.4666667,"lon":31.5166667},{"id":3173824,"name":"theydon","country":"zw","lat":-18.1666667,"lon":31.6833333},{"id":3173313,"name":"marondera","country":"zw","lat":-18.1833333,"lon":31.55}]});