callback({"markets":[{"id":1346271,"name":"mehun","country":"in","lat":20.366667,"lon":75.2},{"id":1339544,"name":"karegaon","country":"in","lat":19.566667,"lon":74.75},{"id":1345069,"name":"malunje","country":"in","lat":19.516667,"lon":74.733333},{"id":1352390,"name":"puntamba","country":"in","lat":19.75,"lon":74.6},{"id":1339804,"name":"kasari","country":"in","lat":20.25,"lon":74.75},{"id":1327349,"name":"bidkingaon","country":"in","lat":19.7,"lon":75.3},{"id":1322867,"name":"andarsul","country":"in","lat":20.0,"lon":74.566667},{"id":1330493,"name":"dahigaon","country":"in","lat":19.5,"lon":75.183333},{"id":1333445,"name":"galieborga","country":"in","lat":20.1,"lon":75.116667},{"id":1322637,"name":"ambewari","country":"in","lat":19.833333,"lon":75.133333},{"id":1340456,"name":"khajpur","country":"in","lat":20.083333,"lon":75.116667},{"id":1361000,"name":"virgaon","country":"in","lat":19.816667,"lon":74.766667},{"id":1323381,"name":"astagaon","country":"in","lat":19.666667,"lon":74.5},{"id":1347614,"name":"nagarsul","country":"in","lat":20.1,"lon":74.55},{"id":1343270,"name":"lakh","country":"in","lat":19.5,"lon":74.683333},{"id":1354664,"name":"saigavhar","country":"in","lat":20.4,"lon":75.15},{"id":1332072,"name":"dhoregaon","country":"in","lat":19.716667,"lon":75.1},{"id":1334151,"name":"ghatnandra","country":"in","lat":20.45,"lon":75.416667},{"id":1345068,"name":"malunje khurd","country":"in","lat":19.5,"lon":74.7},{"id":1349004,"name":"naydongri","country":"in","lat":20.35,"lon":74.816667},{"id":1356800,"name":"silegaon","country":"in","lat":19.866667,"lon":75.0},{"id":1355309,"name":"saokher","country":"in","lat":19.6,"lon":75.2},{"id":1360571,"name":"vakle","country":"in","lat":20.2,"lon":74.833333},{"id":1326095,"name":"bel pimpalgaon","country":"in","lat":19.6,"lon":74.833333},{"id":1349140,"name":"nevasa","country":"in","lat":19.533333,"lon":74.933333},{"id":1356350,"name":"shendurwara","country":"in","lat":19.683333,"lon":75.216667},{"id":1358260,"name":"taklibhan","country":"in","lat":19.616667,"lon":74.8},{"id":1349136,"name":"neupur","country":"in","lat":20.383333,"lon":75.333333},{"id":1335972,"name":"hatnur","country":"in","lat":20.166667,"lon":75.133333},{"id":1358014,"name":"suregaonrasta","country":"in","lat":19.966667,"lon":74.616667},{"id":1348298,"name":"nandgaon","country":"in","lat":20.316667,"lon":74.65},{"id":1345067,"name":"malunje budrukh","country":"in","lat":19.516667,"lon":74.716667},{"id":1345102,"name":"mamdapur","country":"in","lat":19.616667,"lon":74.566667},{"id":1339246,"name":"kannad","country":"in","lat":20.266667,"lon":75.133333},{"id":1337833,"name":"jigthan","country":"in","lat":19.766667,"lon":75.133333},{"id":1343594,"name":"lasur","country":"in","lat":19.95,"lon":74.983333},{"id":1347485,"name":"nachanvala","country":"in","lat":20.3,"lon":75.433333},{"id":1329708,"name":"chikalthan","country":"in","lat":19.85,"lon":75.4},{"id":1358403,"name":"talvad","country":"in","lat":20.183333,"lon":74.783333},{"id":1360535,"name":"vaigaon","country":"in","lat":19.7,"lon":74.9},{"id":1327907,"name":"bolthan","country":"in","lat":20.183333,"lon":74.916667},{"id":1333011,"name":"ellora","country":"in","lat":20.016667,"lon":75.166667},{"id":1328374,"name":"bute wadgaon","country":"in","lat":19.85,"lon":75.0},{"id":1340635,"name":"khandola","country":"in","lat":20.016667,"lon":74.8},{"id":1326325,"name":"bhadji","country":"in","lat":20.016667,"lon":75.2},{"id":1328705,"name":"chalisgaon","country":"in","lat":20.466667,"lon":75.016667},{"id":1352224,"name":"pravara sangam","country":"in","lat":19.616667,"lon":75.016667},{"id":1323523,"name":"aurangabad","country":"in","lat":19.883333,"lon":75.333333},{"id":1361164,"name":"waluj buzurg","country":"in","lat":19.8,"lon":75.233333},{"id":1325417,"name":"barkatpur","country":"in","lat":20.383333,"lon":75.4},{"id":1333589,"name":"gangapur","country":"in","lat":19.683333,"lon":75.016667},{"id":1356675,"name":"sidhnath wadgaon","country":"in","lat":19.816667,"lon":75.0},{"id":1351619,"name":"phulambri","country":"in","lat":20.1,"lon":75.416667},{"id":1337936,"name":"jogeshwari","country":"in","lat":19.816667,"lon":75.2},{"id":1326559,"name":"bhamarvadi","country":"in","lat":20.333333,"lon":75.066667},{"id":1360536,"name":"vaijapur","country":"in","lat":19.916667,"lon":74.733333},{"id":1323022,"name":"antur","country":"in","lat":20.433333,"lon":75.233333},{"id":1331021,"name":"daulatabad","country":"in","lat":19.933333,"lon":75.233333},{"id":1323658,"name":"babra","country":"in","lat":20.216667,"lon":75.416667},{"id":1357278,"name":"sivral","country":"in","lat":20.083333,"lon":74.883333},{"id":1344619,"name":"mailgaon","country":"in","lat":19.8,"lon":74.866667},{"id":1360708,"name":"vari","country":"in","lat":19.816667,"lon":74.566667},{"id":1332077,"name":"dhorkingaon","country":"in","lat":19.616667,"lon":75.366667},{"id":1341769,"name":"kolhar","country":"in","lat":19.516667,"lon":74.533333},{"id":1351467,"name":"pesavar","country":"in","lat":20.3,"lon":75.333333},{"id":1332083,"name":"dhotre","country":"in","lat":19.866667,"lon":74.6},{"id":1358379,"name":"talode","country":"in","lat":20.483333,"lon":74.833333},{"id":1355182,"name":"sangvi","country":"in","lat":20.133333,"lon":75.3},{"id":1327166,"name":"bhos","country":"in","lat":19.616667,"lon":75.45},{"id":1326021,"name":"belapur","country":"in","lat":19.566667,"lon":74.65},{"id":1347545,"name":"nagad","country":"in","lat":20.466667,"lon":75.166667},{"id":1354817,"name":"salabatpur","country":"in","lat":19.55,"lon":75.05},{"id":1323647,"name":"babhaleshwar","country":"in","lat":19.6,"lon":74.5},{"id":1333686,"name":"ganori","country":"in","lat":20.05,"lon":75.35},{"id":1345320,"name":"mandvad","country":"in","lat":20.266667,"lon":74.6},{"id":1329978,"name":"chitepipalgaon","country":"in","lat":19.733333,"lon":75.483333},{"id":1360275,"name":"undirgaon","country":"in","lat":19.683333,"lon":74.683333},{"id":1322873,"name":"andhari","country":"in","lat":20.266667,"lon":75.483333},{"id":1329065,"name":"chapaner","country":"in","lat":20.183333,"lon":75.05},{"id":1349339,"name":"nimgaon","country":"in","lat":20.433333,"lon":74.566667},{"id":1358707,"name":"tarora","country":"in","lat":20.4,"lon":74.75},{"id":1341290,"name":"khuldabad","country":"in","lat":20.05,"lon":75.183333}]});