callback({"markets":[{"id":2376972,"name":"bolshoy duray","country":"ru","lat":57.233333,"lon":124.8},{"id":2371635,"name":"berkakit","country":"ru","lat":56.5807,"lon":124.7681},{"id":2493261,"name":"polovinka","country":"ru","lat":57.466667,"lon":124.983333},{"id":2511085,"name":"serebryanyy bor","country":"ru","lat":56.8,"lon":124.8},{"id":2422765,"name":"kitayanka","country":"ru","lat":56.716667,"lon":124.85},{"id":2388035,"name":"chulmakan","country":"ru","lat":56.9,"lon":124.833333},{"id":2489351,"name":"pionerka","country":"ru","lat":56.983333,"lon":124.85},{"id":2501321,"name":"razdolnyy","country":"ru","lat":57.15,"lon":124.683333},{"id":2442603,"name":"lazernyy","country":"ru","lat":56.7133,"lon":125.2764},{"id":2422288,"name":"kirpichnyy zavod","country":"ru","lat":57.466667,"lon":125.066667},{"id":2466527,"name":"neryungra","country":"ru","lat":56.6709,"lon":124.6491},{"id":2546998,"name":"utesnaya","country":"ru","lat":56.8479,"lon":124.9104},{"id":2418198,"name":"khatymi","country":"ru","lat":57.380833,"lon":124.8975},{"id":2543034,"name":"ugolnyy","country":"ru","lat":56.8,"lon":124.983333}]});