callback({"markets":[{"id":2483984,"name":"paltusovo","country":"ru","lat":43.725,"lon":145.444444},{"id":1532542,"name":"ichan","country":"jp","lat":43.683333,"lon":145.116667},{"id":1536955,"name":"mataochi","country":"jp","lat":43.566667,"lon":144.883333},{"id":2480279,"name":"onnekusunai","country":"ru","lat":43.8,"lon":145.416667},{"id":2404410,"name":"grozovoye","country":"ru","lat":43.838889,"lon":145.405556},{"id":1535596,"name":"kobukarikotan","country":"jp","lat":44.133333,"lon":145.266667},{"id":1532820,"name":"ikushina","country":"jp","lat":43.883333,"lon":144.7},{"id":1544409,"name":"tokkarimui","country":"jp","lat":44.15,"lon":145.3},{"id":1532410,"name":"horotomari","country":"jp","lat":43.933333,"lon":144.833333},{"id":2393320,"name":"dubovaya","country":"ru","lat":43.766667,"lon":145.497222},{"id":1534247,"name":"kami-sattsuru","country":"jp","lat":43.708056,"lon":144.506944},{"id":1535158,"name":"kennebetsu","country":"jp","lat":44.116667,"lon":145.266667},{"id":1533812,"name":"kaiyo","country":"jp","lat":43.583333,"lon":144.916667},{"id":1529959,"name":"chuo","country":"jp","lat":43.616667,"lon":144.966667},{"id":1544234,"name":"tienbetu","country":"jp","lat":44.1,"lon":145.25},{"id":1537901,"name":"mosekarubetsu","country":"jp","lat":44.083333,"lon":145.233333},{"id":1528945,"name":"aitomari","country":"jp","lat":44.183333,"lon":145.333333},{"id":1543057,"name":"sosuke","country":"jp","lat":44.0,"lon":145.166667},{"id":1532398,"name":"horomoi","country":"jp","lat":44.233333,"lon":145.35},{"id":1532243,"name":"homba","country":"jp","lat":43.85,"lon":144.683333},{"id":2531246,"name":"svetloye","country":"ru","lat":43.783333,"lon":145.416667},{"id":1545514,"name":"utoro","country":"jp","lat":44.059722,"lon":145.000556},{"id":1534973,"name":"kawakita","country":"jp","lat":43.65,"lon":145.033333},{"id":1536039,"name":"kotanuka","country":"jp","lat":43.75,"lon":145.033333},{"id":1545083,"name":"tyurui","country":"jp","lat":43.716667,"lon":145.1},{"id":1538607,"name":"naka-shibetsu","country":"jp","lat":43.55,"lon":144.983333},{"id":1535996,"name":"koshigawa","country":"jp","lat":43.852778,"lon":144.759444},{"id":1540793,"name":"otazunemappu","country":"jp","lat":43.966667,"lon":145.15},{"id":1543360,"name":"tachiniusu","country":"jp","lat":44.016667,"lon":145.2},{"id":1541759,"name":"seseki","country":"jp","lat":44.173333,"lon":145.307222},{"id":1541011,"name":"pon-chashikotsu","country":"jp","lat":43.633333,"lon":145.166667},{"id":1544259,"name":"tobinitai","country":"jp","lat":44.051944,"lon":145.233611},{"id":1541402,"name":"sambongi","country":"jp","lat":43.666667,"lon":145.133333},{"id":1544660,"name":"to-shumbetsu","country":"jp","lat":43.533333,"lon":145.233333},{"id":1529894,"name":"chipudomari","country":"jp","lat":43.95,"lon":144.833333},{"id":1529806,"name":"chibuske","country":"jp","lat":44.023056,"lon":144.936389},{"id":1539787,"name":"odaitou","country":"jp","lat":43.567512,"lon":145.220111},{"id":1541021,"name":"ponnopuushi","country":"jp","lat":43.616667,"lon":145.266667},{"id":2498044,"name":"protochnaya","country":"ru","lat":43.85,"lon":145.45},{"id":1542913,"name":"shumukarikotan","country":"jp","lat":43.9425,"lon":145.124444},{"id":1540856,"name":"otsukabake","country":"jp","lat":44.066667,"lon":145.25},{"id":2567925,"name":"zapadnaya","country":"ru","lat":43.766667,"lon":145.433333},{"id":1541056,"name":"rausu","country":"jp","lat":44.018056,"lon":145.190278},{"id":1530299,"name":"etobi","country":"jp","lat":43.8,"lon":144.6},{"id":1535151,"name":"kenekagawa","country":"jp","lat":43.5,"lon":144.833333},{"id":1541332,"name":"sakimui","country":"jp","lat":43.816667,"lon":145.083333},{"id":1531282,"name":"hama-yamubetsu","country":"jp","lat":43.916667,"lon":144.5},{"id":1542909,"name":"shumadokari","country":"jp","lat":43.923056,"lon":144.800278},{"id":1538837,"name":"nara","country":"jp","lat":43.616667,"lon":144.883333},{"id":1534254,"name":"kami-shari","country":"jp","lat":43.835556,"lon":144.5925},{"id":1534036,"name":"kamii","country":"jp","lat":43.816667,"lon":144.566667},{"id":1546038,"name":"yambetsu","country":"jp","lat":43.917222,"lon":144.520556},{"id":1537266,"name":"minakami","country":"jp","lat":43.783333,"lon":144.5},{"id":1541023,"name":"ponnoushi","country":"jp","lat":43.633333,"lon":145.2},{"id":1542935,"name":"sibetu","country":"jp","lat":43.653611,"lon":145.125},{"id":1529795,"name":"chashikotsugenya","country":"jp","lat":44.066667,"lon":145.016667},{"id":1543319,"name":"syari","country":"jp","lat":43.905556,"lon":144.659444},{"id":1529887,"name":"chinishibetsu","country":"jp","lat":43.983333,"lon":145.166667},{"id":1545165,"name":"uembetsu","country":"jp","lat":43.867778,"lon":145.088889},{"id":1531222,"name":"hama-kotanuka","country":"jp","lat":43.756944,"lon":145.057778},{"id":1531439,"name":"harubetsu","country":"jp","lat":43.516667,"lon":145.25},{"id":1541565,"name":"sasirui","country":"jp","lat":44.066667,"lon":145.233333},{"id":1541601,"name":"sattsuru","country":"jp","lat":43.783333,"lon":144.534444}]});