callback({"markets":[{"id":129634,"name":"doctor ricardo rojas","country":"ar","lat":-45.566667,"lon":-71.066667},{"id":131554,"name":"lago blanco","country":"ar","lat":-45.933976,"lon":-71.273115},{"id":133368,"name":"paso guenguel","country":"ar","lat":-45.960979,"lon":-70.598872},{"id":128723,"name":"centro rio mayo","country":"ar","lat":-45.576217,"lon":-71.032975},{"id":127650,"name":"alto rio mayo","country":"ar","lat":-45.557916,"lon":-71.299275}]});