callback({"markets":[{"id":2576261,"name":"al mahalani","country":"sa","lat":26.137413,"lon":42.204968},{"id":2577589,"name":"dawbah","country":"sa","lat":25.632471,"lon":42.275688},{"id":2575657,"name":"al bid`","country":"sa","lat":26.272896,"lon":42.353848},{"id":2575943,"name":"al hubayriyah","country":"sa","lat":26.280404,"lon":42.432659},{"id":2575601,"name":"al ba`ayith","country":"sa","lat":26.025638,"lon":41.804102},{"id":2575396,"name":"ad dimasah","country":"sa","lat":26.424749,"lon":42.214209},{"id":2575985,"name":"al ifayhid","country":"sa","lat":25.688957,"lon":42.350309},{"id":2578967,"name":"qitan al qadimah","country":"sa","lat":25.975997,"lon":42.383826},{"id":2578123,"name":"jadid","country":"sa","lat":26.001111,"lon":42.199722},{"id":2576982,"name":"ash shabbakiyah","country":"sa","lat":26.167027,"lon":42.240149},{"id":2579886,"name":"wutidah","country":"sa","lat":26.290117,"lon":42.092678},{"id":2578624,"name":"mibari","country":"sa","lat":26.054489,"lon":42.235248},{"id":2579666,"name":"tuwwal","country":"sa","lat":26.004912,"lon":42.385347},{"id":2576004,"name":"al jabiriyah","country":"sa","lat":26.269959,"lon":42.167688},{"id":2576800,"name":"an nimriyah","country":"sa","lat":26.393889,"lon":42.338611},{"id":2579674,"name":"`uglat as suqur","country":"sa","lat":25.829162,"lon":42.201189},{"id":2577232,"name":"at tarfawi","country":"sa","lat":25.95413,"lon":42.128038},{"id":2575626,"name":"al bakrah","country":"sa","lat":25.930043,"lon":42.328448},{"id":2579409,"name":"simira\u0027","country":"sa","lat":26.494182,"lon":42.124944}]});