callback({"markets":[{"id":3142570,"name":"maila","country":"zm","lat":-15.3333333,"lon":22.4833333},{"id":112921,"name":"chepeta","country":"ao","lat":-14.6,"lon":21.75},{"id":3145969,"name":"namakau","country":"zm","lat":-15.0166667,"lon":22.2833333},{"id":125241,"name":"sevicha","country":"ao","lat":-15.333333,"lon":21.533333},{"id":3138141,"name":"chippia","country":"zm","lat":-14.8333333,"lon":22.1833333},{"id":3145530,"name":"mwanasitutu","country":"zm","lat":-14.9,"lon":22.3166667},{"id":123758,"name":"riangoa","country":"ao","lat":-14.766667,"lon":21.95},{"id":3145386,"name":"mwakoi","country":"zm","lat":-14.8666667,"lon":22.2166667},{"id":3149461,"name":"yamba","country":"zm","lat":-15.0,"lon":22.2333333},{"id":124233,"name":"salinhanga","country":"ao","lat":-15.116667,"lon":21.966667},{"id":116436,"name":"kamunyima","country":"ao","lat":-15.283333,"lon":21.583333},{"id":3140063,"name":"kameya","country":"zm","lat":-15.3166667,"lon":22.3833333},{"id":3148439,"name":"sikatondo","country":"zm","lat":-14.8833333,"lon":22.2},{"id":118951,"name":"muanangambi","country":"ao","lat":-14.683333,"lon":21.833333},{"id":126499,"name":"tutengo","country":"ao","lat":-15.416667,"lon":21.733333},{"id":3148051,"name":"shuwanga","country":"zm","lat":-14.8333333,"lon":22.4833333},{"id":3144077,"name":"mubonda","country":"zm","lat":-14.85,"lon":22.2166667},{"id":3144602,"name":"mulope","country":"zm","lat":-14.9166667,"lon":22.3333333},{"id":3145970,"name":"namakaya","country":"zm","lat":-14.9166667,"lon":22.1833333},{"id":3142394,"name":"luumba","country":"zm","lat":-15.15,"lon":22.3166667},{"id":3143180,"name":"matengu","country":"zm","lat":-15.2833333,"lon":22.4166667},{"id":3140231,"name":"kandala","country":"zm","lat":-14.8166667,"lon":22.45},{"id":117646,"name":"machala","country":"ao","lat":-15.1,"lon":21.633333},{"id":3137446,"name":"chikote","country":"zm","lat":-14.9833333,"lon":22.45},{"id":3142068,"name":"liwena kamuti","country":"zm","lat":-14.55,"lon":22.1833333},{"id":123784,"name":"rimbalambala","country":"ao","lat":-14.85,"lon":21.783333},{"id":111004,"name":"cangondo","country":"ao","lat":-15.283333,"lon":21.566667},{"id":3142639,"name":"makoma","country":"zm","lat":-15.0,"lon":22.4166667},{"id":3141970,"name":"lipanga","country":"zm","lat":-15.4833333,"lon":22.35},{"id":112690,"name":"chabongo","country":"ao","lat":-15.016667,"lon":21.633333},{"id":3139658,"name":"kakuya","country":"zm","lat":-14.7166667,"lon":22.4833333},{"id":3139899,"name":"kalumbwe","country":"zm","lat":-14.7666667,"lon":22.4166667},{"id":3145940,"name":"nalumino","country":"zm","lat":-14.5,"lon":22.2166667},{"id":3146294,"name":"neloya","country":"zm","lat":-15.3833333,"lon":22.3166667},{"id":115830,"name":"guvulo","country":"ao","lat":-15.116667,"lon":21.983333},{"id":3142287,"name":"luminga","country":"zm","lat":-14.9833333,"lon":22.4833333},{"id":3140670,"name":"kapumbu","country":"zm","lat":-15.3166667,"lon":22.45},{"id":109274,"name":"cacono","country":"ao","lat":-14.516667,"lon":21.8},{"id":3146899,"name":"nyungu","country":"zm","lat":-14.9166667,"lon":22.35},{"id":3145881,"name":"naka","country":"zm","lat":-15.2,"lon":22.2166667},{"id":124140,"name":"saianga","country":"ao","lat":-14.85,"lon":21.766667},{"id":3142366,"name":"lusimo","country":"zm","lat":-14.6333333,"lon":22.2833333},{"id":125236,"name":"sete","country":"ao","lat":-14.833333,"lon":21.733333},{"id":117243,"name":"lucuci","country":"ao","lat":-14.8,"lon":21.816667},{"id":3138659,"name":"chumbula","country":"zm","lat":-15.25,"lon":22.25},{"id":3148569,"name":"simahongo","country":"zm","lat":-15.15,"lon":22.3},{"id":115777,"name":"gumbe","country":"ao","lat":-14.7,"lon":21.75},{"id":3146240,"name":"ndelwa","country":"zm","lat":-15.0333333,"lon":22.1833333},{"id":3144773,"name":"mungowa","country":"zm","lat":-14.9333333,"lon":22.1666667},{"id":3144753,"name":"munganya","country":"zm","lat":-14.9333333,"lon":22.2666667},{"id":3148608,"name":"simatongo","country":"zm","lat":-14.7333333,"lon":22.3833333},{"id":119501,"name":"mulond","country":"ao","lat":-15.183333,"lon":21.95},{"id":3144261,"name":"mukete","country":"zm","lat":-14.5666667,"lon":22.2166667},{"id":3145307,"name":"muyenga","country":"zm","lat":-14.6,"lon":22.2333333},{"id":3146447,"name":"njeyengo","country":"zm","lat":-14.95,"lon":22.4},{"id":3142076,"name":"liyimba","country":"zm","lat":-14.7,"lon":22.4833333},{"id":3141588,"name":"kuyewa","country":"zm","lat":-14.6166667,"lon":22.2666667},{"id":3145874,"name":"nakakena","country":"zm","lat":-14.85,"lon":22.25},{"id":3149455,"name":"yalwa","country":"zm","lat":-14.9,"lon":22.2166667},{"id":3148579,"name":"simaloya","country":"zm","lat":-14.5833333,"lon":22.2166667},{"id":119224,"name":"mucubessa","country":"ao","lat":-14.75,"lon":21.9},{"id":3143257,"name":"mavua","country":"zm","lat":-15.3833333,"lon":22.3333333},{"id":124990,"name":"sarifua","country":"ao","lat":-14.833333,"lon":21.583333},{"id":3145348,"name":"muzila","country":"zm","lat":-14.9666667,"lon":22.3166667},{"id":3146079,"name":"namuono","country":"zm","lat":-15.3666667,"lon":22.4166667},{"id":3140482,"name":"kapanda","country":"zm","lat":-14.8666667,"lon":22.2833333},{"id":124770,"name":"sanhundo","country":"ao","lat":-14.633333,"lon":21.733333},{"id":3145788,"name":"mwiya","country":"zm","lat":-14.9666667,"lon":22.4833333},{"id":3148588,"name":"simangolwa","country":"zm","lat":-14.5666667,"lon":22.3333333},{"id":3141522,"name":"kulema","country":"zm","lat":-14.9333333,"lon":22.1833333},{"id":3142458,"name":"lyulumuna","country":"zm","lat":-14.9166667,"lon":22.2666667},{"id":112884,"name":"chavaia","country":"ao","lat":-14.683333,"lon":21.683333},{"id":3145911,"name":"nalilungwe","country":"zm","lat":-14.6333333,"lon":22.2666667},{"id":111077,"name":"canhanda","country":"ao","lat":-14.716667,"lon":21.7},{"id":3148953,"name":"siwungu","country":"zm","lat":-14.8833333,"lon":22.15},{"id":3143761,"name":"monde","country":"zm","lat":-14.7333333,"lon":22.4833333},{"id":117934,"name":"mandica","country":"ao","lat":-14.55,"lon":21.716667},{"id":3148897,"name":"sitengu","country":"zm","lat":-15.3833333,"lon":22.3},{"id":3142824,"name":"malondo","country":"zm","lat":-15.1166667,"lon":22.2833333},{"id":3146192,"name":"nawiko","country":"zm","lat":-14.8833333,"lon":22.0666667},{"id":118241,"name":"mavuna","country":"ao","lat":-15.45,"lon":21.933333},{"id":117734,"name":"mafembage","country":"ao","lat":-14.55,"lon":21.75},{"id":126330,"name":"tobola","country":"ao","lat":-15.433333,"lon":21.566667},{"id":3146357,"name":"ngombo","country":"zm","lat":-14.6333333,"lon":22.3833333},{"id":3139633,"name":"kakula","country":"zm","lat":-15.1,"lon":22.2666667},{"id":114656,"name":"dialui","country":"ao","lat":-14.516667,"lon":21.816667},{"id":112817,"name":"chanda","country":"ao","lat":-14.933333,"lon":21.85},{"id":3148796,"name":"sinjala","country":"zm","lat":-14.7833333,"lon":22.4333333},{"id":3148458,"name":"sikokotwa","country":"zm","lat":-15.4333333,"lon":22.4833333},{"id":3149067,"name":"sumuliankumba","country":"zm","lat":-15.0666667,"lon":22.2166667},{"id":3144565,"name":"muliya","country":"zm","lat":-15.3166667,"lon":22.4666667},{"id":3148756,"name":"sindandumuna","country":"zm","lat":-15.0,"lon":22.25},{"id":3144248,"name":"mukeleto","country":"zm","lat":-14.5,"lon":22.1333333},{"id":3146069,"name":"namulimbwa","country":"zm","lat":-15.0833333,"lon":22.2666667},{"id":3139438,"name":"kachamisa","country":"zm","lat":-14.95,"lon":22.0166667},{"id":3146084,"name":"namushi","country":"zm","lat":-14.8666667,"lon":22.2666667},{"id":123752,"name":"riabera","country":"ao","lat":-14.866667,"lon":21.616667},{"id":111360,"name":"capexe","country":"ao","lat":-14.716667,"lon":21.783333},{"id":3143433,"name":"mbumwae","country":"zm","lat":-14.95,"lon":22.35},{"id":119838,"name":"mutunga","country":"ao","lat":-14.7,"lon":21.783333},{"id":112928,"name":"chetengo","country":"ao","lat":-14.783333,"lon":21.8},{"id":3138074,"name":"chipatela","country":"zm","lat":-14.9833333,"lon":22.4333333},{"id":3144317,"name":"mukubesa","country":"zm","lat":-14.8666667,"lon":22.1333333},{"id":3148573,"name":"simakanda","country":"zm","lat":-14.8,"lon":22.25},{"id":3141987,"name":"lipwa","country":"zm","lat":-14.85,"lon":22.2666667},{"id":3148521,"name":"silimwa","country":"zm","lat":-14.9,"lon":22.2333333},{"id":3148574,"name":"simakando","country":"zm","lat":-14.5666667,"lon":22.2},{"id":3141884,"name":"lilungwa","country":"zm","lat":-14.9,"lon":22.2666667},{"id":3146332,"name":"ngela","country":"zm","lat":-14.8666667,"lon":22.2},{"id":124045,"name":"sachicomba","country":"ao","lat":-14.833333,"lon":21.75},{"id":120915,"name":"ouxe","country":"ao","lat":-14.55,"lon":21.7},{"id":113217,"name":"chimaco","country":"ao","lat":-15.15,"lon":21.95},{"id":3146577,"name":"nobutu","country":"zm","lat":-15.3,"lon":22.3},{"id":3139548,"name":"kahikila","country":"zm","lat":-15.1166667,"lon":22.2666667},{"id":117831,"name":"malau","country":"ao","lat":-14.666667,"lon":21.5},{"id":124502,"name":"sampieca","country":"ao","lat":-14.616667,"lon":21.533333},{"id":3141261,"name":"kayama","country":"zm","lat":-15.0666667,"lon":22.3666667},{"id":3142423,"name":"lwambo","country":"zm","lat":-14.85,"lon":22.2333333},{"id":3141587,"name":"kuyengwa","country":"zm","lat":-14.65,"lon":22.3},{"id":3145468,"name":"mwanamaa","country":"zm","lat":-14.8333333,"lon":22.2},{"id":3139431,"name":"kachaba","country":"zm","lat":-15.1666667,"lon":22.4166667},{"id":114682,"name":"dilema","country":"ao","lat":-14.533333,"lon":21.783333},{"id":3146901,"name":"nyunyi","country":"zm","lat":-14.95,"lon":22.1666667},{"id":3145996,"name":"namasiku","country":"zm","lat":-14.5833333,"lon":22.35},{"id":3142008,"name":"lishomwa","country":"zm","lat":-14.9833333,"lon":22.2666667},{"id":3140162,"name":"kamulu","country":"zm","lat":-14.5166667,"lon":22.2666667},{"id":3147815,"name":"shanamato","country":"zm","lat":-14.5,"lon":22.1166667},{"id":3139771,"name":"kalihoke","country":"zm","lat":-14.9,"lon":22.4333333},{"id":3141410,"name":"kinji","country":"zm","lat":-15.0833333,"lon":22.25},{"id":3140980,"name":"katangali","country":"zm","lat":-14.8833333,"lon":22.25},{"id":124362,"name":"samassengue","country":"ao","lat":-15.183333,"lon":21.55},{"id":3148457,"name":"sikoko","country":"zm","lat":-15.1833333,"lon":22.25},{"id":3141980,"name":"lipoke","country":"zm","lat":-14.8333333,"lon":22.1166667},{"id":3148977,"name":"soka","country":"zm","lat":-14.9333333,"lon":22.3166667},{"id":3144368,"name":"mukungwa","country":"zm","lat":-14.9333333,"lon":22.1333333},{"id":3139600,"name":"kakeya","country":"zm","lat":-14.9833333,"lon":22.3666667},{"id":3145222,"name":"mutume","country":"zm","lat":-15.2666667,"lon":22.45},{"id":119190,"name":"mucondo","country":"ao","lat":-14.533333,"lon":21.816667},{"id":3146007,"name":"namate","country":"zm","lat":-14.6666667,"lon":22.3},{"id":3144257,"name":"mukenge","country":"zm","lat":-15.3,"lon":22.45},{"id":3145257,"name":"muvombo","country":"zm","lat":-14.8666667,"lon":22.3333333},{"id":3145301,"name":"muyeke","country":"zm","lat":-14.9166667,"lon":22.3},{"id":3142070,"name":"liwilu","country":"zm","lat":-15.2166667,"lon":22.4},{"id":3144483,"name":"mulele","country":"zm","lat":-15.3333333,"lon":22.2333333},{"id":3144690,"name":"mumbula","country":"zm","lat":-14.7666667,"lon":22.45},{"id":3146011,"name":"namawa","country":"zm","lat":-15.0166667,"lon":22.2333333},{"id":3148470,"name":"sikopa","country":"zm","lat":-14.5333333,"lon":22.2833333}]});