callback({"markets":[{"id":299919,"name":"garrote","country":"br","lat":-8.25,"lon":-46.083333},{"id":308524,"name":"ouro","country":"br","lat":-8.163056,"lon":-46.235},{"id":291503,"name":"brejo da porta","country":"br","lat":-8.499722,"lon":-45.738056},{"id":315220,"name":"sant\u0027 antonio de balsas","country":"br","lat":-7.516667,"lon":-46.033333},{"id":310118,"name":"pendanga","country":"br","lat":-7.616667,"lon":-46.066667},{"id":309198,"name":"parelhas","country":"br","lat":-8.45,"lon":-46.333333},{"id":327193,"name":"trindade","country":"br","lat":-7.966667,"lon":-45.55},{"id":288341,"name":"babilonia","country":"br","lat":-8.283333,"lon":-45.95},{"id":325911,"name":"tabuleirao","country":"br","lat":-8.353611,"lon":-45.699722},{"id":310028,"name":"pedro funil","country":"br","lat":-8.35,"lon":-46.333333},{"id":313079,"name":"regalo","country":"br","lat":-8.1,"lon":-45.616667},{"id":294818,"name":"chinela","country":"br","lat":-7.766667,"lon":-46.033333},{"id":308114,"name":"novo recreio","country":"br","lat":-8.116667,"lon":-46.35},{"id":290678,"name":"boa morada","country":"br","lat":-7.766667,"lon":-45.5},{"id":287336,"name":"angicos","country":"br","lat":-8.466667,"lon":-45.966667},{"id":295943,"name":"correntao","country":"br","lat":-7.916667,"lon":-45.983333},{"id":311779,"name":"porto do riachao","country":"br","lat":-8.166667,"lon":-45.583333},{"id":306253,"name":"mato verde","country":"br","lat":-8.05,"lon":-45.6},{"id":326505,"name":"temerante","country":"br","lat":-8.320833,"lon":-46.175833},{"id":286032,"name":"abreu","country":"br","lat":-7.8,"lon":-45.5},{"id":291504,"name":"brejo da roca","country":"br","lat":-8.238611,"lon":-45.655278},{"id":316694,"name":"sao maria","country":"br","lat":-8.266667,"lon":-46.4},{"id":289770,"name":"barra logo","country":"br","lat":-8.216667,"lon":-45.75},{"id":317361,"name":"se-me-apanhas","country":"br","lat":-8.166667,"lon":-45.633333},{"id":289319,"name":"banja","country":"br","lat":-8.416667,"lon":-45.716667},{"id":299458,"name":"forte militao formiga","country":"br","lat":-8.116667,"lon":-45.583333},{"id":328032,"name":"varzea limpa","country":"br","lat":-7.633333,"lon":-46.333333}]});