callback({"markets":[{"id":311545,"name":"porto arrepiado","country":"br","lat":-18.35,"lon":-48.7},{"id":287760,"name":"arapora","country":"br","lat":-18.433333,"lon":-49.183333},{"id":291702,"name":"buriti alegre","country":"br","lat":-18.15,"lon":-49.05},{"id":303434,"name":"josias","country":"br","lat":-18.35,"lon":-48.6},{"id":289267,"name":"bananeiras","country":"br","lat":-18.016667,"lon":-49.366667},{"id":286342,"name":"agua limpa","country":"br","lat":-18.1,"lon":-48.766667},{"id":302675,"name":"jardim da luz","country":"br","lat":-17.866667,"lon":-49.133333},{"id":315280,"name":"santa rita do paranaiba","country":"br","lat":-18.416667,"lon":-49.216667},{"id":292515,"name":"caldas novas","country":"br","lat":-17.75,"lon":-48.633333},{"id":286522,"name":"albino","country":"br","lat":-18.45,"lon":-48.583333},{"id":295982,"name":"corumbaiba","country":"br","lat":-18.15,"lon":-48.566667},{"id":311298,"name":"pontalina","country":"br","lat":-17.516667,"lon":-49.45},{"id":295986,"name":"corumbazul","country":"br","lat":-18.25,"lon":-48.866667},{"id":294968,"name":"clarimunda","country":"br","lat":-18.433333,"lon":-48.55},{"id":310209,"name":"pereira","country":"br","lat":-18.416667,"lon":-48.566667},{"id":286812,"name":"aloandia","country":"br","lat":-17.716667,"lon":-49.483333},{"id":317166,"name":"sape","country":"br","lat":-17.55,"lon":-48.616667},{"id":312157,"name":"posses","country":"br","lat":-18.283333,"lon":-49.0},{"id":307139,"name":"morrinhos","country":"br","lat":-17.733333,"lon":-49.116667},{"id":296810,"name":"divinopolis","country":"br","lat":-18.183333,"lon":-49.35},{"id":306034,"name":"marzagao","country":"br","lat":-17.983333,"lon":-48.65}]});