callback({"markets":[{"id":861565,"name":"caserio casas de sotos","country":"es","lat":39.333333,"lon":-1.066667},{"id":871881,"name":"las ventas","country":"es","lat":38.573052,"lon":-0.941851},{"id":861320,"name":"caserio arabi","country":"es","lat":38.690471,"lon":-1.292655},{"id":862856,"name":"caserio ral de abajo","country":"es","lat":39.266667,"lon":-0.983333},{"id":871224,"name":"la portera","country":"es","lat":39.4,"lon":-1.1},{"id":864457,"name":"colonia de la sierra de salinas","country":"es","lat":38.527736,"lon":-0.989989},{"id":863828,"name":"cerda","country":"es","lat":38.986765,"lon":-0.573415},{"id":861786,"name":"caserio el bovar","country":"es","lat":38.705783,"lon":-0.678383},{"id":868126,"name":"fuen negra","country":"es","lat":39.016667,"lon":-0.65},{"id":861141,"name":"casas los saleros","country":"es","lat":38.653986,"lon":-0.926907},{"id":870021,"name":"jijona","country":"es","lat":38.540864,"lon":-0.502626},{"id":877581,"name":"ponton","country":"es","lat":39.483333,"lon":-1.116667},{"id":870817,"name":"la laguna","country":"es","lat":38.988262,"lon":-1.28228},{"id":871940,"name":"la torre","country":"es","lat":38.966667,"lon":-1.016667},{"id":865204,"name":"cortijo la unde","country":"es","lat":39.085904,"lon":-1.213963},{"id":855279,"name":"aguaza","country":"es","lat":38.810304,"lon":-1.434475},{"id":862586,"name":"caserio los quinones","country":"es","lat":38.582634,"lon":-1.110507},{"id":871617,"name":"las eras","country":"es","lat":39.2,"lon":-1.416667},{"id":861543,"name":"caserio casas de la parra de abajo","country":"es","lat":39.216667,"lon":-0.616667},{"id":872344,"name":"llacunes","country":"es","lat":38.677718,"lon":-0.530826},{"id":861058,"name":"casas el toyo","country":"es","lat":38.522125,"lon":-0.819362},{"id":868738,"name":"godelleta","country":"es","lat":39.416667,"lon":-0.683333},{"id":863625,"name":"catadau","country":"es","lat":39.266667,"lon":-0.566667},{"id":862110,"name":"caserio juan vich","country":"es","lat":39.35,"lon":-1.05},{"id":882214,"name":"sumacarcel","country":"es","lat":39.097122,"lon":-0.630607},{"id":884470,"name":"venta del porto y casas de marco","country":"es","lat":38.851687,"lon":-0.821672},{"id":860036,"name":"canals","country":"es","lat":38.962507,"lon":-0.584431},{"id":874325,"name":"millares","country":"es","lat":39.25,"lon":-0.766667},{"id":861577,"name":"caserio casillas de marin de arriba","country":"es","lat":38.938119,"lon":-1.347803},{"id":861593,"name":"caserio cerricos del hondo del campo","country":"es","lat":38.55,"lon":-1.083333},{"id":860797,"name":"casa rabosa","country":"es","lat":38.904124,"lon":-0.852879},{"id":882978,"name":"torre del torus","country":"es","lat":38.804024,"lon":-0.620243},{"id":860410,"name":"carlet","country":"es","lat":39.233333,"lon":-0.516667},{"id":860647,"name":"casa del collado","country":"es","lat":38.8,"lon":-0.85},{"id":855437,"name":"albaida","country":"es","lat":38.837984,"lon":-0.51721},{"id":861108,"name":"casas la solna","country":"es","lat":38.632847,"lon":-0.819736},{"id":858688,"name":"biar","country":"es","lat":38.631172,"lon":-0.764577},{"id":883120,"name":"torre vellisca","country":"es","lat":38.799846,"lon":-0.776998},{"id":859463,"name":"cabezo de la virgen","country":"es","lat":38.629014,"lon":-0.959015},{"id":870648,"name":"la gila","country":"es","lat":39.2,"lon":-1.366667},{"id":866873,"name":"el sochantre","country":"es","lat":38.699891,"lon":-0.890361},{"id":857468,"name":"baneras","country":"es","lat":38.716644,"lon":-0.659466},{"id":870365,"name":"la canal","country":"es","lat":38.616667,"lon":-0.55},{"id":860958,"name":"casas del cerro","country":"es","lat":39.183333,"lon":-1.416667},{"id":867831,"name":"fontanares","country":"es","lat":38.782811,"lon":-0.784899},{"id":882581,"name":"termino de arriba","country":"es","lat":38.533333,"lon":-1.4},{"id":867021,"name":"enguera","country":"es","lat":38.979737,"lon":-0.686826},{"id":870819,"name":"la lagunilla","country":"es","lat":38.661563,"lon":-0.954042},{"id":861951,"name":"caserio el transformador","country":"es","lat":38.957716,"lon":-0.825604},{"id":864355,"name":"cofrentes","country":"es","lat":39.233333,"lon":-1.066667},{"id":861049,"name":"casas el morteruelo","country":"es","lat":38.693119,"lon":-1.333173},{"id":861052,"name":"casas el patojo","country":"es","lat":38.616667,"lon":-0.983333},{"id":863411,"name":"castilblanques","country":"es","lat":39.316667,"lon":-1.016667},{"id":862862,"name":"caserio rambla seca","country":"es","lat":39.283333,"lon":-0.916667},{"id":855686,"name":"alcudia de crespins","country":"es","lat":38.972811,"lon":-0.590755},{"id":868173,"name":"fuente del pino","country":"es","lat":38.542149,"lon":-1.291602},{"id":872481,"name":"llosa de ranes","country":"es","lat":39.021629,"lon":-0.538029},{"id":857256,"name":"ayora","country":"es","lat":39.058518,"lon":-1.056346},{"id":862920,"name":"caserio salto de millares","country":"es","lat":39.233333,"lon":-0.716667},{"id":876834,"name":"pedrones de arriba","country":"es","lat":39.333333,"lon":-1.083333},{"id":860992,"name":"casas del pozo la higuera","country":"es","lat":38.790825,"lon":-1.239249},{"id":866469,"name":"el hondo de carboneras","country":"es","lat":38.576779,"lon":-0.90045},{"id":869480,"name":"hortunas de arriba","country":"es","lat":39.4,"lon":-1.033333},{"id":882056,"name":"sorio","country":"es","lat":39.0,"lon":-0.516667},{"id":870320,"name":"la cadolla","country":"es","lat":38.611032,"lon":-0.663744},{"id":861191,"name":"casas rincon del cerezo","country":"es","lat":38.745492,"lon":-0.53981},{"id":857886,"name":"barrio de las heras","country":"es","lat":38.883333,"lon":-0.583333},{"id":862457,"name":"caserio los brunales","country":"es","lat":38.897583,"lon":-0.923553},{"id":866859,"name":"el sayton","country":"es","lat":39.0,"lon":-0.733333},{"id":858801,"name":"bocairente","country":"es","lat":38.76522,"lon":-0.614348},{"id":873748,"name":"masalaves","country":"es","lat":39.143772,"lon":-0.522605},{"id":881659,"name":"serradiel","country":"es","lat":39.25,"lon":-1.466667},{"id":869611,"name":"huertas de villena","country":"es","lat":39.316667,"lon":-1.383333},{"id":860709,"name":"casa esquinal","country":"es","lat":38.528468,"lon":-0.710531},{"id":856295,"name":"anahuir","country":"es","lat":38.975908,"lon":-0.56513},{"id":855572,"name":"alcala de jucar","country":"es","lat":39.2,"lon":-1.433333},{"id":883036,"name":"torrella","country":"es","lat":38.984456,"lon":-0.567272},{"id":876252,"name":"otonel","country":"es","lat":39.283333,"lon":-0.85},{"id":860360,"name":"carcer","country":"es","lat":39.068376,"lon":-0.564197},{"id":855245,"name":"agres","country":"es","lat":38.780379,"lon":-0.515855},{"id":860976,"name":"casas del obrero","country":"es","lat":39.026118,"lon":-0.780533},{"id":879345,"name":"rotgla y corbera","country":"es","lat":39.004647,"lon":-0.564819},{"id":866583,"name":"el morron","country":"es","lat":38.685126,"lon":-0.875697},{"id":865353,"name":"cotes","country":"es","lat":39.070103,"lon":-0.574492},{"id":880692,"name":"santa barbara","country":"es","lat":39.383333,"lon":-1.433333},{"id":861982,"name":"caserio favanella","country":"es","lat":38.635427,"lon":-0.649562},{"id":867472,"name":"estubeny","country":"es","lat":39.01792,"lon":-0.623789},{"id":873305,"name":"macastre","country":"es","lat":39.383333,"lon":-0.783333},{"id":862807,"name":"caserio pinillos","country":"es","lat":38.552556,"lon":-1.117749},{"id":860359,"name":"carcelen","country":"es","lat":39.102024,"lon":-1.308787},{"id":862412,"name":"caserio llano","country":"es","lat":38.581372,"lon":-1.041091},{"id":861934,"name":"caserio el salido","country":"es","lat":38.933333,"lon":-0.516667},{"id":870674,"name":"la granja de la costera","country":"es","lat":38.998025,"lon":-0.563986},{"id":862726,"name":"caserio morera","country":"es","lat":38.793847,"lon":-0.696916},{"id":879355,"name":"royo","country":"es","lat":38.973388,"lon":-1.374616},{"id":872383,"name":"llanera de ranes","country":"es","lat":38.995068,"lon":-0.575341},{"id":873867,"name":"masia del juez","country":"es","lat":39.433333,"lon":-0.516667},{"id":861001,"name":"casas de madrona","country":"es","lat":38.977326,"lon":-1.075529},{"id":876501,"name":"palomar","country":"es","lat":38.85395,"lon":-0.5025},{"id":861077,"name":"casas la arguena","country":"es","lat":38.588497,"lon":-0.756339},{"id":866846,"name":"el salse","country":"es","lat":38.706961,"lon":-0.736475},{"id":860894,"name":"casas de cilanco","country":"es","lat":39.333333,"lon":-1.3},{"id":871300,"name":"la rambla y condesa","country":"es","lat":39.4,"lon":-0.866667},{"id":878473,"name":"rabosera","country":"es","lat":38.580963,"lon":-1.054416},{"id":879832,"name":"san benito","country":"es","lat":38.943555,"lon":-1.108417},{"id":861041,"name":"casas el carrizal","country":"es","lat":38.575425,"lon":-0.860317},{"id":862178,"name":"caserio la encina","country":"es","lat":38.766083,"lon":-0.953744},{"id":886119,"name":"vinuelas","country":"es","lat":39.333333,"lon":-1.0},{"id":863641,"name":"caudete","country":"es","lat":38.706795,"lon":-0.987225},{"id":866802,"name":"el rincon del moro","country":"es","lat":38.568445,"lon":-0.925563},{"id":862864,"name":"caserio rasillo","country":"es","lat":38.618241,"lon":-1.135527},{"id":875416,"name":"navalon de abajo","country":"es","lat":38.925909,"lon":-0.874803},{"id":875899,"name":"olleria","country":"es","lat":38.912989,"lon":-0.548359},{"id":860836,"name":"casas apeadero las virtudes","country":"es","lat":38.626825,"lon":-0.931421},{"id":859761,"name":"camara","country":"es","lat":38.505014,"lon":-0.838635},{"id":884943,"name":"villa de ves","country":"es","lat":39.2,"lon":-1.233333},{"id":855594,"name":"alcantara de jucar","country":"es","lat":39.074803,"lon":-0.558629},{"id":881566,"name":"sellent","country":"es","lat":39.032209,"lon":-0.58784},{"id":860553,"name":"casa aparicio","country":"es","lat":38.959412,"lon":-1.403745},{"id":873654,"name":"mariminguez","country":"es","lat":39.216667,"lon":-1.466667},{"id":871440,"name":"las albarizas","country":"es","lat":38.766667,"lon":-0.9},{"id":855867,"name":"alfarp","country":"es","lat":39.283333,"lon":-0.55},{"id":882915,"name":"torre cerda","country":"es","lat":38.984321,"lon":-0.575949},{"id":861564,"name":"caserio casas de quilis","country":"es","lat":38.983333,"lon":-0.55},{"id":861454,"name":"caserio campo barracas","country":"es","lat":38.695145,"lon":-0.650525},{"id":862082,"name":"caserio hoz de arriba","country":"es","lat":39.083333,"lon":-1.116667},{"id":884920,"name":"villa de cubero","country":"es","lat":39.183333,"lon":-1.316667},{"id":868206,"name":"fuente la higuera","country":"es","lat":38.805897,"lon":-0.877665},{"id":857424,"name":"balneario","country":"es","lat":38.816667,"lon":-0.616667},{"id":864100,"name":"chiva","country":"es","lat":39.466667,"lon":-0.716667},{"id":882244,"name":"tabaqueros","country":"es","lat":39.35,"lon":-1.483333},{"id":875692,"name":"novele","country":"es","lat":38.980166,"lon":-0.548435},{"id":860835,"name":"casa san vicente","country":"es","lat":38.816667,"lon":-0.666667},{"id":861246,"name":"cascante","country":"es","lat":38.672902,"lon":-0.831644},{"id":883193,"name":"tous","country":"es","lat":39.156559,"lon":-0.657388},{"id":861139,"name":"casas los prados","country":"es","lat":38.671811,"lon":-0.95136},{"id":862407,"name":"caserio les eres","country":"es","lat":38.633333,"lon":-0.666667},{"id":868135,"name":"fuente-alamo","country":"es","lat":38.692882,"lon":-1.431584},{"id":859186,"name":"bufatl","country":"es","lat":38.867747,"lon":-0.516171},{"id":870737,"name":"la higuera","country":"es","lat":38.782921,"lon":-1.400284},{"id":872845,"name":"los duques","country":"es","lat":39.433333,"lon":-1.2},{"id":858897,"name":"bonete","country":"es","lat":38.871357,"lon":-1.348506},{"id":873098,"name":"los ruices","country":"es","lat":39.466667,"lon":-1.25},{"id":865914,"name":"dos aguas","country":"es","lat":39.283333,"lon":-0.8},{"id":861538,"name":"caserio casas de capuchinos","country":"es","lat":38.816667,"lon":-0.583333},{"id":861497,"name":"caserio capuchinos","country":"es","lat":38.925378,"lon":-0.550909},{"id":867214,"name":"escudero","country":"es","lat":38.893327,"lon":-0.863977},{"id":864732,"name":"cortes de pallas","country":"es","lat":39.25,"lon":-0.933333},{"id":878602,"name":"rebollar","country":"es","lat":39.466667,"lon":-1.0},{"id":856431,"name":"antella","country":"es","lat":39.079769,"lon":-0.591948},{"id":874815,"name":"montesa","country":"es","lat":38.9503,"lon":-0.652004},{"id":861415,"name":"caserio boquilla","country":"es","lat":38.928964,"lon":-0.819621},{"id":859522,"name":"cabreras","country":"es","lat":38.554526,"lon":-0.872837},{"id":871729,"name":"las monjas","country":"es","lat":39.466667,"lon":-1.3},{"id":861010,"name":"casas de moya","country":"es","lat":39.466667,"lon":-1.4},{"id":883443,"name":"turis","country":"es","lat":39.383333,"lon":-0.7},{"id":861922,"name":"caserio el retorno","country":"es","lat":39.366667,"lon":-1.4},{"id":886235,"name":"yatova","country":"es","lat":39.383333,"lon":-0.8},{"id":875417,"name":"navalon de arriba","country":"es","lat":38.919915,"lon":-0.874875},{"id":860646,"name":"casa del chorrillo","country":"es","lat":38.516667,"lon":-0.816667},{"id":871644,"name":"las fuentes","country":"es","lat":39.006698,"lon":-1.306338},{"id":858663,"name":"bete","country":"es","lat":38.920998,"lon":-1.417566},{"id":861524,"name":"caserio casa del administrador","country":"es","lat":38.755148,"lon":-1.377194},{"id":870234,"name":"la balsa","country":"es","lat":38.856931,"lon":-0.735429},{"id":869345,"name":"higueruela","country":"es","lat":38.963711,"lon":-1.443703},{"id":861015,"name":"casas de penen de albosa","country":"es","lat":39.283333,"lon":-1.1},{"id":861536,"name":"caserio casa sanchis","country":"es","lat":38.95,"lon":-0.533333},{"id":876008,"name":"onteniente","country":"es","lat":38.821331,"lon":-0.602687},{"id":884030,"name":"vallada","country":"es","lat":38.895747,"lon":-0.691043},{"id":881593,"name":"senera","country":"es","lat":39.062961,"lon":-0.511255},{"id":858438,"name":"benimodo","country":"es","lat":39.216667,"lon":-0.533333},{"id":861495,"name":"caserio caprala","country":"es","lat":38.530369,"lon":-0.760783},{"id":857434,"name":"balsa de ves","country":"es","lat":39.266667,"lon":-1.2},{"id":864061,"name":"cheste","country":"es","lat":39.483333,"lon":-0.683333},{"id":860214,"name":"cantoblanco","country":"es","lat":39.25,"lon":-1.25},{"id":885354,"name":"villanueva de castellan","country":"es","lat":39.077413,"lon":-0.511669},{"id":861080,"name":"casas la bodegueta","country":"es","lat":38.736884,"lon":-0.92408},{"id":871780,"name":"las pebradas","country":"es","lat":38.779763,"lon":-0.85076},{"id":869503,"name":"hoya de munoz","country":"es","lat":38.67426,"lon":-1.317826},{"id":873661,"name":"mariola","country":"es","lat":38.716667,"lon":-0.533333},{"id":873838,"name":"masia aldamar","country":"es","lat":39.466667,"lon":-0.6},{"id":860654,"name":"casa del morabio","country":"es","lat":38.997101,"lon":-1.493167},{"id":875469,"name":"navarres","country":"es","lat":39.101977,"lon":-0.694689},{"id":878706,"name":"reiner","country":"es","lat":38.730518,"lon":-0.597461},{"id":858384,"name":"benegida","country":"es","lat":39.075354,"lon":-0.55019},{"id":860922,"name":"casas de jordan","country":"es","lat":38.609205,"lon":-0.908205},{"id":858341,"name":"benali","country":"es","lat":39.0,"lon":-0.833333},{"id":864680,"name":"corral de bru","country":"es","lat":39.033333,"lon":-0.8},{"id":874670,"name":"monserrat","country":"es","lat":39.366667,"lon":-0.6},{"id":869951,"name":"jarafuel","country":"es","lat":39.14013,"lon":-1.073056},{"id":861682,"name":"caserio de ceja","country":"es","lat":38.701894,"lon":-1.202002},{"id":874885,"name":"montroy","country":"es","lat":39.333333,"lon":-0.616667},{"id":855861,"name":"alfarara","country":"es","lat":38.773386,"lon":-0.55551},{"id":858858,"name":"bolbaite","country":"es","lat":39.060405,"lon":-0.674655},{"id":885643,"name":"villar de ves","country":"es","lat":39.216667,"lon":-1.25},{"id":883140,"name":"torrosella","country":"es","lat":38.53753,"lon":-0.606961},{"id":886385,"name":"zarra","country":"es","lat":39.091752,"lon":-1.075321},{"id":862811,"name":"caserio polop alto","country":"es","lat":38.660802,"lon":-0.590957},{"id":881771,"name":"siete aguas","country":"es","lat":39.466667,"lon":-0.916667},{"id":872900,"name":"los isidros","country":"es","lat":39.416667,"lon":-1.283333},{"id":860882,"name":"casas de alcance","country":"es","lat":39.25,"lon":-1.083333},{"id":858453,"name":"benisoda","country":"es","lat":38.832229,"lon":-0.531793},{"id":860827,"name":"casas alecua","country":"es","lat":38.557868,"lon":-0.505865},{"id":861447,"name":"caserio campello","country":"es","lat":38.566667,"lon":-0.616667},{"id":871139,"name":"la pared","country":"es","lat":39.216667,"lon":-1.216667},{"id":882632,"name":"tibi","country":"es","lat":38.530725,"lon":-0.577757},{"id":859908,"name":"campo de mirra","country":"es","lat":38.68661,"lon":-0.777434},{"id":860589,"name":"casa colonia de santa eulalia","country":"es","lat":38.567426,"lon":-0.849148},{"id":866256,"name":"el cepero","country":"es","lat":38.749482,"lon":-1.448247},{"id":882165,"name":"sot","country":"es","lat":38.561932,"lon":-0.502587},{"id":869982,"name":"jativa","country":"es","lat":38.989575,"lon":-0.51927},{"id":870316,"name":"la cabezuela","country":"es","lat":39.316667,"lon":-1.05},{"id":877493,"name":"poblet dels ferrers","country":"es","lat":38.733211,"lon":-0.66548},{"id":860920,"name":"casas de jaime","country":"es","lat":38.716972,"lon":-1.323117},{"id":876007,"name":"ontar","country":"es","lat":38.615094,"lon":-1.497244},{"id":872810,"name":"los chortales","country":"es","lat":38.674715,"lon":-1.456898},{"id":855963,"name":"aljorf","country":"es","lat":38.846571,"lon":-0.521357},{"id":864694,"name":"corral-rubio","country":"es","lat":38.834619,"lon":-1.460342},{"id":860938,"name":"casas de la parra de arriba","country":"es","lat":39.233333,"lon":-0.633333},{"id":858386,"name":"benejama","country":"es","lat":38.701262,"lon":-0.764577},{"id":855499,"name":"alberique","country":"es","lat":39.117066,"lon":-0.521244},{"id":860994,"name":"casas del rey","country":"es","lat":39.483333,"lon":-1.383333},{"id":860924,"name":"casas de juan gil","country":"es","lat":39.127906,"lon":-1.241022},{"id":861047,"name":"casas el monastil","country":"es","lat":38.5,"lon":-0.783333},{"id":855535,"name":"alborea","country":"es","lat":39.283333,"lon":-1.383333},{"id":884467,"name":"venta del moro","country":"es","lat":39.483333,"lon":-1.35},{"id":860975,"name":"casas del notario","country":"es","lat":38.716667,"lon":-0.666667},{"id":875996,"name":"onil","country":"es","lat":38.628103,"lon":-0.67429},{"id":862730,"name":"caserio mosen juan","country":"es","lat":38.616876,"lon":-0.6921},{"id":861506,"name":"caserio carrascalejo","country":"es","lat":38.551502,"lon":-1.031174},{"id":861003,"name":"casas de matias","country":"es","lat":38.645152,"lon":-0.973592},{"id":871315,"name":"la recueja","country":"es","lat":39.183333,"lon":-1.483333},{"id":862788,"name":"caserio penen","country":"es","lat":39.4,"lon":-1.25},{"id":878584,"name":"real de montroy","country":"es","lat":39.333333,"lon":-0.6},{"id":861073,"name":"casas ibanez","country":"es","lat":39.283333,"lon":-1.466667},{"id":861165,"name":"casas nuches","country":"es","lat":38.562779,"lon":-0.510328},{"id":862840,"name":"caserio pueblo nuevo","country":"es","lat":39.283333,"lon":-0.583333},{"id":863045,"name":"caserio solana","country":"es","lat":38.683333,"lon":-0.8},{"id":859232,"name":"bunol","country":"es","lat":39.416667,"lon":-0.783333},{"id":880189,"name":"san juan","country":"es","lat":38.619246,"lon":-0.878412},{"id":866972,"name":"el viso","country":"es","lat":39.266667,"lon":-1.233333},{"id":857828,"name":"barrio batoy","country":"es","lat":38.683333,"lon":-0.5},{"id":864044,"name":"chella","country":"es","lat":39.042029,"lon":-0.659155},{"id":882577,"name":"teresa de cofrontes","country":"es","lat":39.105634,"lon":-1.051049},{"id":866760,"name":"el puntal","country":"es","lat":38.55,"lon":-0.783333},{"id":869938,"name":"jalance","country":"es","lat":39.2,"lon":-1.066667},{"id":886012,"name":"villena","country":"es","lat":38.637303,"lon":-0.865682},{"id":874475,"name":"mogente","country":"es","lat":38.875979,"lon":-0.751503},{"id":862238,"name":"caserio la mata","country":"es","lat":38.649742,"lon":-0.679619},{"id":881481,"name":"sax","country":"es","lat":38.537288,"lon":-0.81779},{"id":862581,"name":"caserio los pozuelos","country":"es","lat":38.775404,"lon":-1.170657},{"id":882375,"name":"tamayo","country":"es","lat":39.366667,"lon":-1.433333},{"id":855685,"name":"alcudia de carlet","country":"es","lat":39.2,"lon":-0.5},{"id":855333,"name":"agullent","country":"es","lat":38.822734,"lon":-0.548332},{"id":872070,"name":"la zafra","country":"es","lat":38.746355,"lon":-0.85209},{"id":860749,"name":"casa lloma rasa","country":"es","lat":38.816667,"lon":-0.7},{"id":860716,"name":"casa galeno","country":"es","lat":38.612855,"lon":-0.848514},{"id":855532,"name":"alborache","country":"es","lat":39.383333,"lon":-0.766667},{"id":866605,"name":"el oro","country":"es","lat":39.3,"lon":-0.916667},{"id":884127,"name":"valles","country":"es","lat":38.985182,"lon":-0.556961},{"id":863278,"name":"castalla","country":"es","lat":38.596935,"lon":-0.672071},{"id":861087,"name":"casas la hoya hermosa","country":"es","lat":38.546873,"lon":-0.951054},{"id":861571,"name":"caserio casas viejas","country":"es","lat":38.837509,"lon":-1.283657},{"id":860965,"name":"casas de ligero","country":"es","lat":39.024906,"lon":-0.801917},{"id":878265,"name":"quesa","country":"es","lat":39.119699,"lon":-0.740003},{"id":860875,"name":"casas cubells","country":"es","lat":38.783074,"lon":-0.799568},{"id":885912,"name":"villavaliente","country":"es","lat":39.12646,"lon":-1.457118},{"id":857234,"name":"ayacor","country":"es","lat":38.972828,"lon":-0.575333},{"id":860607,"name":"casa de delgado","country":"es","lat":38.950717,"lon":-1.287403},{"id":855421,"name":"alatoz","country":"es","lat":39.094953,"lon":-1.360978},{"id":862515,"name":"caserio los herreros","country":"es","lat":39.316667,"lon":-0.983333},{"id":861034,"name":"casas de ves","country":"es","lat":39.25,"lon":-1.333333},{"id":858693,"name":"bicorp","country":"es","lat":39.132148,"lon":-0.787202},{"id":870184,"name":"la alqueria","country":"es","lat":38.52268,"lon":-1.313061},{"id":860847,"name":"casas cabanes","country":"es","lat":38.583333,"lon":-0.616667},{"id":856130,"name":"alpera","country":"es","lat":38.959433,"lon":-1.229667},{"id":884474,"name":"venta del rebollar","country":"es","lat":39.466667,"lon":-0.983333},{"id":870999,"name":"la montana","country":"es","lat":39.120949,"lon":-0.560532},{"id":858423,"name":"benifetal","country":"es","lat":39.091186,"lon":-0.869976},{"id":884506,"name":"ventas de poyo","country":"es","lat":39.466667,"lon":-0.566667},{"id":873662,"name":"marisparza","country":"es","lat":38.733333,"lon":-1.216667},{"id":871619,"name":"las eras","country":"es","lat":39.01881,"lon":-0.651008},{"id":868341,"name":"gabarda","country":"es","lat":39.091729,"lon":-0.559713},{"id":860997,"name":"casas del rio","country":"es","lat":39.3,"lon":-1.133333},{"id":857242,"name":"ayelo de malferit","country":"es","lat":38.879339,"lon":-0.584485},{"id":886244,"name":"yecla","country":"es","lat":38.613188,"lon":-1.111795},{"id":862331,"name":"caserio las fuentecitas","country":"es","lat":38.861682,"lon":-1.110271},{"id":856399,"name":"anna","country":"es","lat":39.02029,"lon":-0.64621},{"id":861576,"name":"caserio casillas de marin de abajo","country":"es","lat":38.944548,"lon":-1.313271},{"id":861019,"name":"casas de pradas","country":"es","lat":39.45,"lon":-1.333333},{"id":874725,"name":"montealegre","country":"es","lat":38.788562,"lon":-1.32722},{"id":860930,"name":"casas de la gorda","country":"es","lat":39.033333,"lon":-0.816667},{"id":856009,"name":"almansa","country":"es","lat":38.869166,"lon":-1.097131},{"id":859883,"name":"campo arcis","country":"es","lat":39.433333,"lon":-1.166667},{"id":860658,"name":"casa de los catalinorros","country":"es","lat":38.743167,"lon":-1.349659},{"id":861160,"name":"casas montortal","country":"es","lat":39.166667,"lon":-0.516667},{"id":879632,"name":"salinas","country":"es","lat":38.520248,"lon":-0.912022},{"id":862392,"name":"caserio la vega","country":"es","lat":39.066667,"lon":-1.116667},{"id":872814,"name":"los cojos","country":"es","lat":39.416667,"lon":-1.3},{"id":869672,"name":"ibi","country":"es","lat":38.625334,"lon":-0.572246},{"id":860683,"name":"casa de pusa","country":"es","lat":38.503472,"lon":-0.738498},{"id":872681,"name":"los aljibes","country":"es","lat":38.8277,"lon":-1.258109},{"id":860687,"name":"casa de san nicolas","country":"es","lat":38.633333,"lon":-0.75},{"id":872896,"name":"losilla","country":"es","lat":38.966667,"lon":-1.083333},{"id":861222,"name":"casa torrefiel","country":"es","lat":38.803469,"lon":-0.747252},{"id":860900,"name":"casas de don pedro","country":"es","lat":39.009845,"lon":-1.35373},{"id":878792,"name":"requena","country":"es","lat":39.483333,"lon":-1.1},{"id":872939,"name":"los mainetes","country":"es","lat":38.692144,"lon":-1.467363},{"id":886482,"name":"zulema","country":"es","lat":39.233333,"lon":-1.383333},{"id":860757,"name":"casa los campillos","country":"es","lat":38.726429,"lon":-1.307234}]});