callback({"markets":[{"id":2584996,"name":"arga","country":"sd","lat":12.7666667,"lon":24.15},{"id":2589528,"name":"kosourmongia","country":"sd","lat":13.4333333,"lon":23.5666667},{"id":2592131,"name":"seyeh","country":"sd","lat":13.4666667,"lon":23.5},{"id":2585819,"name":"buldanga","country":"sd","lat":13.4666667,"lon":23.7},{"id":2590758,"name":"mu`allaqa","country":"sd","lat":13.4666667,"lon":23.95},{"id":2586452,"name":"dungo","country":"sd","lat":12.9833333,"lon":23.8},{"id":2587985,"name":"gulobei","country":"sd","lat":12.9,"lon":24.3666667},{"id":2593085,"name":"turra","country":"sd","lat":13.25,"lon":24.3333333},{"id":2585709,"name":"birja","country":"sd","lat":12.75,"lon":23.9833333},{"id":2586483,"name":"durri","country":"sd","lat":12.9333333,"lon":23.5666667},{"id":2589042,"name":"karakulla","country":"sd","lat":12.7166667,"lon":23.8333333},{"id":2590533,"name":"meiram","country":"sd","lat":12.95,"lon":23.5},{"id":2587507,"name":"fiabuggu","country":"sd","lat":13.4333333,"lon":23.9},{"id":2590651,"name":"miri","country":"sd","lat":13.0,"lon":23.9666667},{"id":2589898,"name":"limo","country":"sd","lat":12.6166667,"lon":24.3333333},{"id":2592289,"name":"shefuga","country":"sd","lat":13.1166667,"lon":24.0833333},{"id":2590731,"name":"morgeh","country":"sd","lat":13.35,"lon":24.0333333},{"id":2591113,"name":"numu","country":"sd","lat":13.45,"lon":24.0333333},{"id":2590924,"name":"nabaqai","country":"sd","lat":12.7166667,"lon":24.2166667},{"id":2585675,"name":"bilgyoumeil","country":"sd","lat":13.0833333,"lon":23.6},{"id":2593001,"name":"touro","country":"sd","lat":12.5166667,"lon":23.6},{"id":2589158,"name":"kedilnye","country":"sd","lat":12.8333333,"lon":23.5333333},{"id":2587969,"name":"gudai","country":"sd","lat":13.2,"lon":23.7166667},{"id":2590838,"name":"muni","country":"sd","lat":13.0,"lon":23.7},{"id":2594468,"name":"zoulekederi","country":"sd","lat":12.55,"lon":23.55},{"id":2589180,"name":"kelling","country":"sd","lat":13.0833333,"lon":24.3166667},{"id":2589506,"name":"koringo","country":"sd","lat":12.7166667,"lon":23.85},{"id":2590133,"name":"madi","country":"sd","lat":13.3666667,"lon":23.95},{"id":2589477,"name":"konjar","country":"sd","lat":12.75,"lon":23.8333333},{"id":2588986,"name":"kalokitting","country":"sd","lat":12.7333333,"lon":24.2666667},{"id":2588503,"name":"hotoura","country":"sd","lat":12.5166667,"lon":23.6833333},{"id":2586029,"name":"dalya","country":"sd","lat":12.7166667,"lon":23.5666667},{"id":2587981,"name":"guldo","country":"sd","lat":13.1333333,"lon":24.15},{"id":2589686,"name":"kurungdillo","country":"sd","lat":12.9,"lon":23.6166667},{"id":2589670,"name":"kurni","country":"sd","lat":13.1,"lon":23.95},{"id":2587903,"name":"godoba","country":"sd","lat":12.6666667,"lon":23.7333333},{"id":2589104,"name":"kas","country":"sd","lat":12.5,"lon":24.2833333},{"id":2589796,"name":"langya","country":"sd","lat":13.15,"lon":24.0166667},{"id":2591296,"name":"oubbe","country":"sd","lat":12.85,"lon":23.6666667},{"id":2585070,"name":"asangdali","country":"sd","lat":12.9833333,"lon":23.9333333},{"id":2589540,"name":"koulme","country":"sd","lat":12.5833333,"lon":23.6166667},{"id":2586225,"name":"dibbis","country":"sd","lat":12.5666667,"lon":24.2333333},{"id":2585404,"name":"bajouggi","country":"sd","lat":12.8166667,"lon":23.8},{"id":2588863,"name":"kaang kulli","country":"sd","lat":12.6833333,"lon":24.3333333},{"id":2590052,"name":"ludung","country":"sd","lat":12.8,"lon":24.0},{"id":2592094,"name":"selenyi","country":"sd","lat":12.6,"lon":23.5333333},{"id":2589135,"name":"kawa","country":"sd","lat":12.6333333,"lon":23.6},{"id":2583560,"name":"`abata","country":"sd","lat":13.1333333,"lon":23.6333333},{"id":2587967,"name":"gubbo","country":"sd","lat":12.7833333,"lon":24.4333333},{"id":2588949,"name":"kaigu","country":"sd","lat":13.4666667,"lon":23.8833333},{"id":2586402,"name":"duggu","country":"sd","lat":12.7833333,"lon":23.8166667},{"id":2589476,"name":"kongye","country":"sd","lat":12.9166667,"lon":23.5},{"id":2589513,"name":"koronli","country":"sd","lat":12.75,"lon":23.8166667},{"id":2589537,"name":"koudouli","country":"sd","lat":12.9166667,"lon":23.6166667},{"id":2592567,"name":"suni","country":"sd","lat":13.0333333,"lon":24.4166667},{"id":2588999,"name":"kammbuna","country":"sd","lat":13.1666667,"lon":24.0833333},{"id":2590488,"name":"maya","country":"sd","lat":13.35,"lon":24.1666667},{"id":2586557,"name":"edermi","country":"sd","lat":13.45,"lon":23.6666667},{"id":2586105,"name":"dar zubi","country":"sd","lat":13.1166667,"lon":23.6666667},{"id":2585986,"name":"dabinga","country":"sd","lat":13.0833333,"lon":23.8333333},{"id":2591161,"name":"nyama","country":"sd","lat":12.7833333,"lon":23.55}]});