callback({"markets":[{"id":2048245,"name":"clarence","country":"nz","lat":-42.166667,"lon":173.933333},{"id":2048664,"name":"kaikoura suburban","country":"nz","lat":-42.383333,"lon":173.65},{"id":2048747,"name":"kekerengu","country":"nz","lat":-42.0,"lon":174.016667},{"id":2048663,"name":"kaikoura","country":"nz","lat":-42.416667,"lon":173.683333},{"id":2048643,"name":"jordan","country":"nz","lat":-41.816667,"lon":173.766667},{"id":2050566,"name":"wharanui","country":"nz","lat":-41.916667,"lon":174.1},{"id":2050264,"name":"upcot","country":"nz","lat":-41.9,"lon":173.583333},{"id":2048097,"name":"awapiri","country":"nz","lat":-41.833333,"lon":173.733333},{"id":2050379,"name":"waioruarangi","country":"nz","lat":-42.4,"lon":173.683333},{"id":2048363,"name":"fabians valley","country":"nz","lat":-41.5,"lon":173.583333},{"id":2048423,"name":"glenlee","country":"nz","lat":-41.883333,"lon":173.6},{"id":2050617,"name":"woodbourne","country":"nz","lat":-41.5,"lon":173.916667},{"id":2050412,"name":"wairau valley","country":"nz","lat":-41.566667,"lon":173.533333},{"id":2048986,"name":"mangamauna","country":"nz","lat":-42.3,"lon":173.75},{"id":2050319,"name":"waihopai","country":"nz","lat":-41.533333,"lon":173.733333},{"id":2049798,"name":"renwick","country":"nz","lat":-41.5,"lon":173.833333},{"id":2048165,"name":"blind river","country":"nz","lat":-41.683333,"lon":174.116667},{"id":2048205,"name":"camden","country":"nz","lat":-41.85,"lon":173.683333},{"id":2048085,"name":"avondale","country":"nz","lat":-41.683333,"lon":173.633333},{"id":2050484,"name":"ward","country":"nz","lat":-41.833333,"lon":174.133333},{"id":2048489,"name":"hapuku","country":"nz","lat":-42.333333,"lon":173.733333},{"id":2050505,"name":"welds hill","country":"nz","lat":-41.783333,"lon":173.85},{"id":2049133,"name":"mirza","country":"nz","lat":-41.866667,"lon":174.116667},{"id":2048441,"name":"goose bay","country":"nz","lat":-42.483333,"lon":173.533333},{"id":2048301,"name":"dashwood","country":"nz","lat":-41.633333,"lon":174.066667},{"id":2048020,"name":"altimarloch","country":"nz","lat":-41.733333,"lon":173.866667},{"id":2048505,"name":"hauwai","country":"nz","lat":-41.75,"lon":174.15},{"id":2049972,"name":"taimate","country":"nz","lat":-41.783333,"lon":174.15},{"id":2049888,"name":"seddon","country":"nz","lat":-41.666667,"lon":174.083333},{"id":2049589,"name":"pine valley","country":"nz","lat":-41.533333,"lon":173.533333},{"id":2048354,"name":"erina","country":"nz","lat":-41.55,"lon":173.6}]});