callback({"markets":[{"id":129746,"name":"el boqueron","country":"ar","lat":-38.024519,"lon":-57.795603},{"id":132352,"name":"los pinos","country":"ar","lat":-37.939513,"lon":-58.320485},{"id":128100,"name":"barrio las flores","country":"ar","lat":-38.243394,"lon":-57.862653},{"id":136052,"name":"yraizoz","country":"ar","lat":-38.138797,"lon":-57.987791},{"id":133329,"name":"parque camet","country":"ar","lat":-37.937464,"lon":-57.53816},{"id":128399,"name":"camet","country":"ar","lat":-37.889033,"lon":-57.605015},{"id":128810,"name":"chapadmalal","country":"ar","lat":-38.035217,"lon":-57.710859},{"id":128093,"name":"barrio felix u camet","country":"ar","lat":-37.897895,"lon":-57.533574},{"id":128250,"name":"boulevard atlantico","country":"ar","lat":-38.266667,"lon":-57.983333},{"id":131950,"name":"las nutrias","country":"ar","lat":-38.079735,"lon":-58.459097},{"id":134090,"name":"ramos otero","country":"ar","lat":-37.534378,"lon":-58.339404},{"id":129051,"name":"colonia barragan","country":"ar","lat":-37.769549,"lon":-57.69796},{"id":128083,"name":"barrio colina alegre","country":"ar","lat":-38.009694,"lon":-57.679176},{"id":131864,"name":"las colinas de peralta ramos","country":"ar","lat":-38.091976,"lon":-57.556002},{"id":128108,"name":"barrio san patricio","country":"ar","lat":-38.107311,"lon":-57.587656},{"id":128984,"name":"cobo","country":"ar","lat":-37.804002,"lon":-57.626501},{"id":132768,"name":"miramar","country":"ar","lat":-38.268756,"lon":-57.836692},{"id":129079,"name":"colonia chapadmalal","country":"ar","lat":-38.197719,"lon":-57.704457},{"id":135985,"name":"vivorata","country":"ar","lat":-37.663866,"lon":-57.666334},{"id":132574,"name":"mar del sur","country":"ar","lat":-38.342878,"lon":-57.990796},{"id":132961,"name":"nahuel ruca","country":"ar","lat":-37.583752,"lon":-57.548475},{"id":128720,"name":"centinela del mar","country":"ar","lat":-38.433157,"lon":-58.221753},{"id":132223,"name":"los acantilados","country":"ar","lat":-38.116051,"lon":-57.600186},{"id":132577,"name":"mar de plata","country":"ar","lat":-38.002278,"lon":-57.557539},{"id":134463,"name":"san augustin","country":"ar","lat":-38.011442,"lon":-58.356583},{"id":129275,"name":"comandante nicanor otamendi","country":"ar","lat":-38.114151,"lon":-57.838088},{"id":128245,"name":"bosch","country":"ar","lat":-37.647032,"lon":-58.243624},{"id":128101,"name":"barrio los zarzales","country":"ar","lat":-37.862214,"lon":-57.607381},{"id":131521,"name":"la estafeta","country":"ar","lat":-38.162364,"lon":-57.640073},{"id":133447,"name":"peralta ramos","country":"ar","lat":-38.06482,"lon":-57.552112},{"id":127971,"name":"balcarce","country":"ar","lat":-37.846165,"lon":-58.255222},{"id":132676,"name":"mechongue","country":"ar","lat":-38.147853,"lon":-58.224316},{"id":129825,"name":"el coyunco","country":"ar","lat":-37.907054,"lon":-57.739868},{"id":128084,"name":"barrio colinas verdes","country":"ar","lat":-37.893636,"lon":-57.826931},{"id":128087,"name":"barrio copacabana","country":"ar","lat":-38.241411,"lon":-57.785393},{"id":128091,"name":"barrio el retazo","country":"ar","lat":-37.916667,"lon":-57.583333},{"id":135887,"name":"villa residencial laguna brava","country":"ar","lat":-37.859651,"lon":-57.983503},{"id":134049,"name":"quintas el casal","country":"ar","lat":-37.830695,"lon":-57.620025},{"id":135010,"name":"sierra de los padres","country":"ar","lat":-37.95269,"lon":-57.771609},{"id":128116,"name":"batan","country":"ar","lat":-38.008499,"lon":-57.709669}]});